LineNo,TimeUS,I,Status,GMS,GWk,NSats,HDop,Lat,Lng,Alt,Spd,GCrs,VZ,Yaw,U,labels
1760,15403836,0,6,547665400,2232,10,1.21,-35.3632838,149.163061,20.39,0,0,0,0,1,0
1918,15603756,0,6,547665600,2232,10,1.21,-35.3632838,149.163061,20.39,0,0,0,0,1,0
2078,15803676,0,6,547665800,2232,10,1.21,-35.3632838,149.163061,20.39,0,0,0,0,1,0
2237,16003596,0,6,547666000,2232,10,1.21,-35.3632838,149.163061,20.39,0,0,0,0,1,0
2396,16203516,0,6,547666200,2232,10,1.21,-35.3632838,149.163061,20.39,0,0,0,0,1,0
2559,16403436,0,6,547666400,2232,10,1.21,-35.3632838,149.163061,20.39,0,0,0,0,1,0
2718,16603356,0,6,547666600,2232,10,1.21,-35.3632838,149.163061,20.39,0,0,0,0,1,0
2878,16803276,0,6,547666800,2232,10,1.21,-35.3632838,149.163061,20.39,0,0,0,0,1,0
3037,17004029,0,6,547667000,2232,10,1.21,-35.3632838,149.163061,20.39,0,0,0,0,1,0
3196,17203949,0,6,547667200,2232,10,1.21,-35.3632838,149.163061,20.39,0,0,0,0,1,0
3360,17403869,0,6,547667400,2232,10,1.21,-35.3632838,149.163061,20.39,0,0,0,0,1,0
3519,17603789,0,6,547667600,2232,10,1.21,-35.3632838,149.163061,20.39,0,0,0,0,1,0
3679,17803709,0,6,547667800,2232,10,1.21,-35.3632838,149.163061,20.39,0,0,0,0,1,0
3838,18003629,0,6,547668000,2232,10,1.21,-35.3632838,149.163061,20.39,0,0,0,0,1,0
3997,18203549,0,6,547668200,2232,10,1.21,-35.3632838,149.163061,20.39,0,0,0,0,1,0
4160,18403469,0,6,547668400,2232,10,1.21,-35.3632838,149.163061,20.39,0,0,0,0,1,0
4319,18603389,0,6,547668600,2232,10,1.21,-35.3632838,149.163061,20.39,0,0,0,0,1,0
4485,18803309,0,6,547668800,2232,10,1.21,-35.3632838,149.163061,20.39,0,0,0,0,1,0
4644,19004062,0,6,547669000,2232,10,1.21,-35.3632838,149.163061,20.39,0,0,0,0,1,0
4803,19203982,0,6,547669200,2232,10,1.21,-35.3632838,149.163061,20.39,0,0,0,0,1,0
4966,19403902,0,6,547669400,2232,10,1.21,-35.3632838,149.163061,20.39,0,0,0,0,1,0
5125,19603822,0,6,547669600,2232,10,1.21,-35.3632838,149.163061,20.39,0,0,0,0,1,0
5285,19803742,0,6,547669800,2232,10,1.21,-35.3632838,149.163061,20.39,0,0,0,0,1,0
5445,20003662,0,6,547670000,2232,10,1.21,-35.3632838,149.163061,20.39,0,0,0,0,1,0
5604,20203582,0,6,547670200,2232,10,1.21,-35.3632838,149.163061,20.39,0,0,0,0,1,0
5767,20403502,0,6,547670400,2232,10,1.21,-35.3632838,149.163061,20.39,0,0,0,0,1,0
5926,20603422,0,6,547670600,2232,10,1.21,-35.3632838,149.163061,20.39,0,0,0,0,1,0
6086,20803342,0,6,547670800,2232,10,1.21,-35.3632838,149.163061,20.39,0,0,0,0,1,0
6245,21003262,0,6,547671000,2232,10,1.21,-35.3632838,149.163061,20.39,0,0,0,0,1,0
6404,21204015,0,6,547671200,2232,10,1.21,-35.3632838,149.163061,20.39,0,0,0,0,1,0
6567,21403935,0,6,547671400,2232,10,1.21,-35.3632838,149.163061,20.39,0,0,0,0,1,0
6726,21603855,0,6,547671600,2232,10,1.21,-35.3632838,149.163061,20.39,0,0,0,0,1,0
6886,21803775,0,6,547671800,2232,10,1.21,-35.3632838,149.163061,20.39,0,0,0,0,1,0
7045,22003695,0,6,547672000,2232,10,1.21,-35.3632838,149.163061,20.39,0,0,0,0,1,0
7204,22203615,0,6,547672200,2232,10,1.21,-35.3632838,149.163061,20.39,0,0,0,0,1,0
7368,22403535,0,6,547672400,2232,10,1.21,-35.3632838,149.163061,20.39,0,0,0,0,1,0
7527,22603455,0,6,547672600,2232,10,1.21,-35.3632838,149.163061,20.39,0,0,0,0,1,0
7687,22803375,0,6,547672800,2232,10,1.21,-35.3632838,149.163061,20.39,0,0,0,0,1,0
7846,23003295,0,6,547673000,2232,10,1.21,-35.3632838,149.163061,20.39,0,0,0,0,1,0
8005,23204048,0,6,547673200,2232,10,1.21,-35.3632838,149.163061,20.39,0,0,0,0,1,0
8168,23403968,0,6,547673400,2232,10,1.21,-35.3632838,149.163061,20.39,0,0,0,0,1,0
8327,23603888,0,6,547673600,2232,10,1.21,-35.3632838,149.163061,20.39,0,0,0,0,1,0
8487,23803808,0,6,547673800,2232,10,1.21,-35.3632838,149.163061,20.39,0,0,0,0,1,0
8646,24003728,0,6,547674000,2232,10,1.21,-35.3632838,149.163061,20.39,0,0,0,0,1,0
8805,24203648,0,6,547674200,2232,10,1.21,-35.3632838,149.163061,20.39,0,0,0,0,1,0
8968,24403568,0,6,547674400,2232,10,1.21,-35.3632838,149.163061,20.39,0,0,0,0,1,0
9127,24603488,0,6,547674600,2232,10,1.21,-35.3632838,149.163061,20.39,0,0,0,0,1,0
9287,24803408,0,6,547674800,2232,10,1.21,-35.3632838,149.163061,20.39,0,0,0,0,1,0
9447,25003328,0,6,547675000,2232,10,1.21,-35.3632838,149.163061,20.39,0,0,0,0,1,0
9606,25204081,0,6,547675200,2232,10,1.21,-35.3632838,149.163061,20.39,0,0,0,0,1,0
9769,25404001,0,6,547675400,2232,10,1.21,-35.3632838,149.163061,20.39,0,0,0,0,1,0
9928,25603921,0,6,547675600,2232,10,1.21,-35.3632838,149.163061,20.39,0,0,0,0,1,0
10088,25803841,0,6,547675800,2232,10,1.21,-35.3632838,149.163061,20.39,0,0,0,0,1,0
10247,26003761,0,6,547676000,2232,10,1.21,-35.3632838,149.163061,20.39,0,0,0,0,1,0
10406,26203681,0,6,547676200,2232,10,1.21,-35.3632838,149.163061,20.39,0,0,0,0,1,0
10569,26403601,0,6,547676400,2232,10,1.21,-35.3632838,149.163061,20.39,0,0,0,0,1,0
10728,26603521,0,6,547676600,2232,10,1.21,-35.3632838,149.163061,20.39,0,0,0,0,1,0
10888,26803441,0,6,547676800,2232,10,1.21,-35.3632838,149.163061,20.39,0,0,0,0,1,0
11047,27003361,0,6,547677000,2232,10,1.21,-35.3632838,149.163061,20.39,0,0,0,0,1,0
11206,27203281,0,6,547677200,2232,10,1.21,-35.3632838,149.163061,20.39,0,0,0,0,1,0
11369,27404034,0,6,547677400,2232,10,1.21,-35.3632838,149.163061,20.39,0,0,0,0,1,0
11528,27603954,0,6,547677600,2232,10,1.21,-35.3632838,149.163061,20.39,0,0,0,0,1,0
11688,27803874,0,6,547677800,2232,10,1.21,-35.3632838,149.163061,20.39,0,0,0,0,1,0
11847,28003794,0,6,547678000,2232,10,1.21,-35.3632838,149.163061,20.39,0,0,0,0,1,0
12006,28203714,0,6,547678200,2232,10,1.21,-35.3632838,149.163061,20.39,0,0,0,0,1,0
12169,28403634,0,6,547678400,2232,10,1.21,-35.3632838,149.163061,20.39,0,0,0,0,1,0
12328,28603554,0,6,547678600,2232,10,1.21,-35.3632838,149.163061,20.39,0,0,0,0,1,0
12488,28803474,0,6,547678800,2232,10,1.21,-35.3632838,149.163061,20.39,0,0,0,0,1,0
12646,29003394,0,6,547679000,2232,10,1.21,-35.3632838,149.163061,20.39,0,0,0,0,1,0
12806,29203314,0,6,547679200,2232,10,1.21,-35.3632838,149.163061,20.39,0,0,0,0,1,0
12969,29404067,0,6,547679400,2232,10,1.21,-35.3632838,149.163061,20.39,0,0,0,0,1,0
13128,29603987,0,6,547679600,2232,10,1.21,-35.3632838,149.163061,20.39,0,0,0,0,1,0
13332,46004091,0,6,547696000,2232,10,1.21,-35.3632838,149.163061,20.39,0,0,0,0,1,0
13496,46204011,0,6,547696200,2232,10,1.21,-35.3632838,149.163061,20.39,0,0,0,0,1,0
13665,46403931,0,6,547696400,2232,10,1.21,-35.3632838,149.163061,20.39,0,0,0,0,1,0
13837,46603851,0,6,547696600,2232,10,1.21,-35.3632838,149.163061,20.39,0,0,0,0,1,0
14008,46803771,0,6,547696800,2232,10,1.21,-35.3632838,149.163061,20.39,0,0,0,0,1,0
14180,47003691,0,6,547697000,2232,10,1.21,-35.3632838,149.163061,20.39,0,0,0,0,1,0
14352,47203611,0,6,547697200,2232,10,1.21,-35.3632838,149.163061,20.39,0,0,0,0,1,0
14525,47403531,0,6,547697400,2232,10,1.21,-35.3632838,149.163061,20.39,0,0,0,0,1,0
14697,47603451,0,6,547697600,2232,10,1.21,-35.3632838,149.163061,20.39,0,0,0,0,1,0
14868,47803371,0,6,547697800,2232,10,1.21,-35.3632838,149.163061,20.39,0,0,0,0,1,0
15045,48003291,0,6,547698000,2232,10,1.21,-35.3632838,149.163061,20.39,0,0,0,0,1,0
15225,48204044,0,6,547698200,2232,10,1.21,-35.3632838,149.163061,20.39,0,0,0,0,1,0
15407,48403964,0,6,547698400,2232,10,1.21,-35.3632838,149.163061,20.39,0,0,0,0,1,0
15587,48603884,0,6,547698600,2232,10,1.21,-35.3632838,149.163061,20.39,0,3.10514,0,0,1,0
15766,48803804,0,6,547698800,2232,10,1.21,-35.3632838,149.163061,20.39,0,76.33242,0,0,1,0
15946,49003724,0,6,547699000,2232,10,1.21,-35.3632838,149.163061,20.39,0,187.3992,0,0,1,0
16125,49203644,0,6,547699200,2232,10,1.21,-35.3632838,149.163061,20.39,0,223.9971,0,0,1,0
16307,49403564,0,6,547699400,2232,10,1.21,-35.3632838,149.163061,20.39,0,266.2121,0,0,1,0
16487,49603484,0,6,547699600,2232,10,1.21,-35.3632838,149.163061,20.39,0,78.8384,0,0,1,0
16666,49803404,0,6,547699800,2232,10,1.21,-35.3632838,149.163061,20.39,0,47.99936,0,0,1,0
16846,50003324,0,6,547700000,2232,10,1.21,-35.3632838,149.163061,20.39,0,192.1909,0,0,1,0
17025,50204077,0,6,547700200,2232,10,1.21,-35.3632838,149.163061,20.4,0,104.6672,-0.153,0,1,0
17207,50403997,0,6,547700400,2232,10,1.21,-35.3632838,149.163061,20.45,0.001,218.3253,-0.338,0,1,0
17387,50603917,0,6,547700600,2232,10,1.21,-35.3632838,149.163061,20.54,0,338.8719,-0.7220001,0,1,0
17566,50803837,0,6,547700800,2232,10,1.21,-35.3632838,149.163061,20.77,0.011,321.4592,-1.38,0,1,0
17746,51003757,0,6,547701000,2232,10,1.21,-35.3632838,149.163061,21.04,0.032,321.3093,-1.34,0,1,0
17926,51203677,0,6,547701200,2232,10,1.21,-35.3632838,149.1630609,21.3,0.042,313.567,-1.276,0,1,0
18108,51403597,0,6,547701400,2232,10,1.21,-35.3632836,149.1630609,21.56,0.034,327.2669,-1.307,0,1,0
18288,51603517,0,6,547701600,2232,10,1.21,-35.3632836,149.1630607,21.82,0.032,321.2423,-1.348,0,1,0
18467,51803437,0,6,547701800,2232,10,1.21,-35.3632835,149.1630607,22.1,0.03,316.9457,-1.398,0,1,0
18647,52003357,0,6,547702000,2232,10,1.21,-35.3632835,149.1630607,22.38,0.021,327.9977,-1.467,0,1,0
18827,52203277,0,6,547702200,2232,10,1.21,-35.3632835,149.1630607,22.69,0.015,322.7124,-1.557,0,1,0
19011,52404030,0,6,547702400,2232,10,1.21,-35.3632835,149.1630607,23.01,0.009,312.7352,-1.66,0,1,0
19193,52603950,0,6,547702600,2232,10,1.21,-35.3632835,149.1630607,23.35,0.006,305.0687,-1.762,0,1,0
19372,52803870,0,6,547702800,2232,10,1.21,-35.3632835,149.1630606,23.71,0.009,245.9609,-1.853,0,1,0
19552,53003790,0,6,547703000,2232,10,1.21,-35.3632835,149.1630606,24.09,0.013,258.899,-1.93,0,1,0
19731,53203710,0,6,547703200,2232,10,1.21,-35.3632835,149.1630606,24.48,0.015,264.2819,-1.988,0,1,0
19913,53403630,0,6,547703400,2232,10,1.21,-35.3632835,149.1630605,24.89,0.015,255.9636,-2.027,0,1,0
20094,53603550,0,6,547703600,2232,10,1.21,-35.3632835,149.1630605,25.29,0.013,239.4768,-2.038,0,1,0
20273,53803470,0,6,547703800,2232,10,1.21,-35.3632835,149.1630605,25.7,0.01,216.6631,-2.041,0,1,0
20453,54003390,0,6,547704000,2232,10,1.21,-35.3632835,149.1630605,26.11,0.008,185.1157,-2.045,0,1,0
20632,54203310,0,6,547704200,2232,10,1.21,-35.3632835,149.1630605,26.52,0.016,170.3384,-2.053,0,1,0
20814,54404063,0,6,547704400,2232,10,1.21,-35.3632835,149.1630605,26.93,0.023,164.798,-2.063,0,1,0
20995,54603983,0,6,547704600,2232,10,1.21,-35.3632835,149.1630605,27.35,0.023,142.2587,-2.079,0,1,0
21174,54803903,0,6,547704800,2232,10,1.21,-35.3632835,149.1630605,27.76,0.034,131.3141,-2.097,0,1,0
21354,55003823,0,6,547705000,2232,10,1.21,-35.3632836,149.1630605,28.19,0.032,113.4774,-2.116,0,1,0
21533,55203743,0,6,547705200,2232,10,1.21,-35.3632836,149.1630605,28.61,0.024,100.6138,-2.136,0,1,0
21715,55403663,0,6,547705400,2232,10,1.21,-35.3632836,149.1630606,29.04,0.027,93.50745,-2.155,0,1,0
21896,55603583,0,6,547705600,2232,10,1.21,-35.3632836,149.1630606,29.47,0.024,89.11799,-2.174,0,1,0
22075,55803503,0,6,547705800,2232,10,1.21,-35.3632836,149.1630607,29.91,0.019,105.3448,-2.188,0,1,0
22255,56003423,0,6,547706000,2232,10,1.21,-35.3632836,149.1630607,30.35,0.015,98.6803,-2.207,0,1,0
22435,56203343,0,6,547706200,2232,10,1.21,-35.3632836,149.1630607,30.79,0.013,89.27119,-2.223,0,1,0
22617,56403263,0,6,547706400,2232,10,1.21,-35.3632836,149.1630607,31.24,0.013,94.43909,-2.237,0,1,0
22798,56604016,0,6,547706600,2232,10,1.21,-35.3632836,149.1630607,31.69,0.013,79.35561,-2.25,0,1,0
22977,56803936,0,6,547706800,2232,10,1.21,-35.3632836,149.1630607,32.14,0.024,68.22059,-2.259,0,1,0
23157,57003856,0,6,547707000,2232,10,1.21,-35.3632836,149.1630607,32.59,0.022,53.59215,-2.27,0,1,0
23336,57203776,0,6,547707200,2232,10,1.21,-35.3632836,149.1630609,33.05,0.015,45.54475,-2.277,0,1,0
23518,57403696,0,6,547707400,2232,10,1.21,-35.3632836,149.1630609,33.5,0.01,23.78085,-2.286,0,1,0
23699,57603616,0,6,547707600,2232,10,1.21,-35.3632836,149.1630609,33.96,0.008,351.3448,-2.294,0,1,0
23878,57803536,0,6,547707800,2232,10,1.21,-35.3632836,149.1630609,34.42,0.009,324.527,-2.302,0,1,0
24058,58003456,0,6,547708000,2232,10,1.21,-35.3632836,149.1630609,34.88,0.023,312.0075,-2.312,0,1,0
24237,58203376,0,6,547708200,2232,10,1.21,-35.3632836,149.1630609,35.34,0.024,315.5909,-2.319,0,1,0
24419,58403296,0,6,547708400,2232,10,1.21,-35.3632836,149.1630607,35.81,0.022,315.7594,-2.326,0,1,0
24600,58604049,0,6,547708600,2232,10,1.21,-35.3632836,149.1630607,36.27,0.023,311.4456,-2.312,0,1,0
24779,58803969,0,6,547708800,2232,10,1.21,-35.3632835,149.1630607,36.73,0.022,310.8462,-2.262,0,1,0
24959,59003889,0,6,547709000,2232,10,1.21,-35.3632835,149.1630607,37.18,0.02,307.3734,-2.174,0,1,0
25138,59203809,0,6,547709200,2232,10,1.21,-35.3632835,149.1630607,37.6,0.015,296.112,-2.038,0,1,0
25320,59403729,0,6,547709400,2232,10,1.21,-35.3632835,149.1630606,37.99,0.011,294.9299,-1.861,0,1,0
25501,59603649,0,6,547709600,2232,10,1.21,-35.3632835,149.1630606,38.34,0.012,313.0836,-1.652,0,1,0
25679,59803569,0,6,547709800,2232,10,1.21,-35.3632835,149.1630606,38.65,0.01,312.3613,-1.436,0,1,0
25860,60003489,0,6,547710000,2232,10,1.21,-35.3632835,149.1630606,38.91,0.017,301.7521,-1.223,0,1,0
26039,60203409,0,6,547710200,2232,10,1.21,-35.3632835,149.1630605,39.14,0.017,308.668,-1.013,0,1,0
26220,60403329,0,6,547710400,2232,10,1.21,-35.3632835,149.1630605,39.32,0.013,315.1963,-0.809,0,1,0
26403,60604082,0,6,547710600,2232,10,1.21,-35.3632835,149.1630605,39.46,0.014,322.4264,-0.61,0,1,0
26581,60804002,0,6,547710800,2232,10,1.21,-35.3632835,149.1630605,39.57,0.011,298.3301,-0.443,0,1,0
26762,61003922,0,6,547711000,2232,10,1.21,-35.3632835,149.1630604,39.64,0.051,194.1679,-0.35,0,1,0
26941,61203842,0,6,547711200,2232,10,1.21,-35.3632835,149.1630604,39.71,0.101,184.8386,-0.262,0,1,0
27125,61403762,0,6,547711400,2232,10,1.21,-35.3632838,149.1630604,39.75,0.127,185.3757,-0.182,0,1,0
27306,61603682,0,6,547711600,2232,10,1.21,-35.363284,149.1630602,39.78,0.136,186.8463,-0.116,0,1,0
27484,61803602,0,6,547711800,2232,10,1.21,-35.3632842,149.1630602,39.8,0.14,191.4362,-0.06500001,0,1,0
27665,62003522,0,6,547712000,2232,10,1.21,-35.3632845,149.1630602,39.81,0.136,191.2493,-0.029,0,1,0
27844,62203442,0,6,547712200,2232,10,1.21,-35.3632847,149.1630602,39.81,0.131,188.3381,-0.009,0,1,0
28026,62403362,0,6,547712400,2232,10,1.21,-35.363285,149.1630601,39.81,0.12,193.5662,0.002,0,1,0
28207,62603282,0,6,547712600,2232,10,1.21,-35.3632852,149.1630601,39.81,0.113,200.4844,0.005,0,1,0
28385,62804035,0,6,547712800,2232,10,1.21,-35.3632853,149.16306,39.81,0.1,206.9174,0.005,0,1,0
28566,63003955,0,6,547713000,2232,10,1.21,-35.3632856,149.1630598,39.81,0.089,210.9913,0.003,0,1,0
28745,63203875,0,6,547713200,2232,10,1.21,-35.3632857,149.1630597,39.81,0.07300001,216.7713,0,0,1,0
28926,63403795,0,6,547713400,2232,10,1.21,-35.3632858,149.1630597,39.81,0.062,224.9696,0,0,1,0
29107,63603715,0,6,547713600,2232,10,1.21,-35.3632859,149.1630596,39.81,0.059,236.9446,-0.001,0,1,0
29285,63803635,0,6,547713800,2232,10,1.21,-35.3632859,149.1630593,39.81,0.055,246.3845,-0.004,0,1,0
29466,64003555,0,6,547714000,2232,10,1.21,-35.3632859,149.1630592,39.81,0.055,255.7016,-0.006,0,1,0
29645,64203475,0,6,547714200,2232,10,1.21,-35.3632859,149.1630592,39.81,0.044,267.7803,-0.008,0,1,0
29826,64403395,0,6,547714400,2232,10,1.21,-35.3632859,149.1630591,39.81,0.037,276.8445,-0.01,0,1,0
30007,64603315,0,6,547714600,2232,10,1.21,-35.3632859,149.1630591,39.82,0.034,279.7475,-0.01,0,1,0
30185,64804068,0,6,547714800,2232,10,1.21,-35.3632859,149.163059,39.82,0.032,287.7923,-0.011,0,1,0
30366,65003988,0,6,547715000,2232,10,1.21,-35.3632859,149.1630588,39.82,0.025,291.1138,-0.014,0,1,0
30545,65203908,0,6,547715200,2232,10,1.21,-35.3632859,149.1630588,39.82,0.019,307.7281,-0.015,0,1,0
30726,65403828,0,6,547715400,2232,10,1.21,-35.3632859,149.1630588,39.83,0.01,303.603,-0.017,0,1,0
30907,65603748,0,6,547715600,2232,10,1.21,-35.3632859,149.1630588,39.83,0.003,301.2434,-0.016,0,1,0
31085,65803668,0,6,547715800,2232,10,1.21,-35.3632859,149.1630588,39.83,0.003,141.4843,-0.017,0,1,0
31266,66003588,0,6,547716000,2232,10,1.21,-35.3632859,149.1630588,39.84,0.011,126.344,-0.018,0,1,0
31445,66203508,0,6,547716200,2232,10,1.21,-35.3632859,149.1630588,39.84,0.006,157.9303,-0.019,0,1,0
31627,66403428,0,6,547716400,2232,10,1.21,-35.3632859,149.1630588,39.84,0.005,169.688,-0.019,0,1,0
31808,66603348,0,6,547716600,2232,10,1.21,-35.3632859,149.1630588,39.85,0.005,166.8137,-0.019,0,1,0
31986,66803268,0,6,547716800,2232,10,1.21,-35.3632859,149.1630588,39.85,0.005,156.7771,-0.019,0,1,0
32167,67004021,0,6,547717000,2232,10,1.21,-35.3632859,149.1630588,39.86,0.006,114.1629,-0.019,0,1,0
32346,67203941,0,6,547717200,2232,10,1.21,-35.3632859,149.1630588,39.86,0.009,128.718,-0.021,0,1,0
32527,67403861,0,6,547717400,2232,10,1.21,-35.3632859,149.1630588,39.86,0.009,112.9154,-0.02,0,1,0
32708,67603781,0,6,547717600,2232,10,1.21,-35.3632859,149.1630588,39.87,0.008,106.8501,-0.019,0,1,0
32886,67803701,0,6,547717800,2232,10,1.21,-35.363286,149.1630588,39.87,0.009,127.7548,-0.017,0,1,0
33067,68003621,0,6,547718000,2232,10,1.21,-35.363286,149.1630588,39.88,0.009,144.3336,-0.016,0,1,0
33246,68203541,0,6,547718200,2232,10,1.21,-35.363286,149.1630588,39.88,0.014,134.2945,-0.014,0,1,0
33427,68403461,0,6,547718400,2232,10,1.21,-35.363286,149.163059,39.88,0.024,151.3746,-0.016,0,1,0
33608,68603381,0,6,547718600,2232,10,1.21,-35.3632862,149.163059,39.89,0.02,148.8108,-0.016,0,1,0
33786,68803301,0,6,547718800,2232,10,1.21,-35.3632862,149.163059,39.89,0.017,137.7679,-0.016,0,1,0
33967,69004054,0,6,547719000,2232,10,1.21,-35.3632862,149.1630591,39.89,0.011,141.2096,-0.017,0,1,0
34146,69203974,0,6,547719200,2232,10,1.21,-35.3632862,149.1630591,39.9,0.007,141.9204,-0.017,0,1,0
34327,69403894,0,6,547719400,2232,10,1.21,-35.3632862,149.1630591,39.9,0.005,166.6123,-0.017,0,1,0
34508,69603814,0,6,547719600,2232,10,1.21,-35.3632863,149.1630591,39.9,0.001,288.5524,-0.017,0,1,0
34686,69803734,0,6,547719800,2232,10,1.21,-35.3632862,149.1630591,39.91,0.008,338.1296,-0.015,0,1,0
34867,70003654,0,6,547720000,2232,10,1.21,-35.3632862,149.1630591,39.91,0.009,312.9073,-0.013,0,1,0
35046,70203574,0,6,547720200,2232,10,1.21,-35.3632862,149.1630591,39.91,0.012,308.1148,-0.01,0,1,0
35227,70403494,0,6,547720400,2232,10,1.21,-35.3632862,149.1630591,39.91,0.013,327.3718,-0.01,0,1,0
35408,70603414,0,6,547720600,2232,10,1.21,-35.3632862,149.1630591,39.92,0.013,342.7102,-0.011,0,1,0
35586,70803334,0,6,547720800,2232,10,1.21,-35.3632862,149.1630591,39.92,0.006,337.5567,-0.01,0,1,0
35767,71004087,0,6,547721000,2232,10,1.21,-35.3632862,149.1630591,39.92,0.007,308.9926,-0.01,0,1,0
35946,71204007,0,6,547721200,2232,10,1.21,-35.3632862,149.1630591,39.92,0.01,303.8559,-0.009,0,1,0
36126,71403927,0,6,547721400,2232,10,1.21,-35.3632862,149.1630591,39.92,0.009,303.0409,-0.011,0,1,0
36309,71603847,0,6,547721600,2232,10,1.21,-35.3632862,149.1630591,39.93,0.011,286.5512,-0.011,0,1,0
36487,71803767,0,6,547721800,2232,10,1.21,-35.3632862,149.1630591,39.93,0.014,288.9345,-0.013,0,1,0
36668,72003687,0,6,547722000,2232,10,1.21,-35.3632862,149.1630591,39.93,0.016,283.806,-0.01,0,1,0
36847,72203607,0,6,547722200,2232,10,1.21,-35.3632862,149.1630591,39.93,0.01,290.0256,-0.012,0,1,0
37029,72403527,0,6,547722400,2232,10,1.21,-35.3632862,149.163059,39.94,0.016,297.9862,-0.009,0,1,0
37211,72603447,0,6,547722600,2232,10,1.21,-35.3632862,149.163059,39.94,0.025,303.8013,-0.009,0,1,0
37389,72803367,0,6,547722800,2232,10,1.21,-35.363286,149.163059,39.94,0.059,330.3831,0.043,0,1,0
37570,73003287,0,6,547723000,2232,10,1.21,-35.3632859,149.1630587,39.92,0.27,332.5269,0.103,0,1,0
37749,73204040,0,6,547723200,2232,10,1.21,-35.3632852,149.1630583,39.9,0.707,330.1319,0.13,0,1,0
37929,73403960,0,6,547723400,2232,10,1.21,-35.3632836,149.1630572,39.87,1.25,328.8152,0.132,0,1,0
38111,73603880,0,6,547723600,2232,10,1.21,-35.3632813,149.1630554,39.84,1.792,328.902,0.121,0,1,0
38289,73803800,0,6,547723800,2232,10,1.21,-35.363278,149.1630532,39.82,2.321,329.2339,0.103,0,1,0
38470,74003720,0,6,547724000,2232,10,1.21,-35.3632742,149.1630502,39.8,2.835,329.6361,0.083,0,1,0
38650,74203640,0,6,547724200,2232,10,1.21,-35.3632693,149.1630468,39.79,3.35,330.1379,0.07,0,1,0
38830,74403560,0,6,547724400,2232,10,1.21,-35.3632637,149.1630429,39.77,3.814,330.3778,0.057,0,1,0
39012,74603480,0,6,547724600,2232,10,1.21,-35.3632574,149.1630386,39.76,4.086,330.4446,0.045,0,1,0
39191,74803400,0,6,547724800,2232,10,1.21,-35.3632511,149.1630342,39.76,4.128,330.544,0.035,0,1,0
39372,75003320,0,6,547725000,2232,10,1.21,-35.3632446,149.1630298,39.75,3.957,330.5142,0.031,0,1,0
39551,75204073,0,6,547725200,2232,10,1.21,-35.3632386,149.1630256,39.74,3.672,330.3701,0.025,0,1,0
39731,75403993,0,6,547725400,2232,10,1.21,-35.3632331,149.1630218,39.74,3.376,330.1117,0.016,0,1,0
39914,75603913,0,6,547725600,2232,10,1.21,-35.3632282,149.1630181,39.74,3.074,329.65,0.004,0,1,0
40092,75803833,0,6,547725800,2232,10,1.21,-35.3632237,149.163015,39.74,2.776,329.2301,-0.006,0,1,0
40273,76003753,0,6,547726000,2232,10,1.21,-35.3632197,149.1630119,39.74,2.476,328.8747,-0.015,0,1,0
40452,76203673,0,6,547726200,2232,10,1.21,-35.363216,149.1630093,39.74,2.191,328.6342,-0.021,0,1,0
40632,76403593,0,6,547726400,2232,10,1.21,-35.3632129,149.163007,39.75,1.915,328.2536,-0.023,0,1,0
40816,76603513,0,6,547726600,2232,10,1.21,-35.3632102,149.1630049,39.75,1.659,328.3349,-0.021,0,1,0
40994,76803433,0,6,547726800,2232,10,1.21,-35.3632078,149.1630031,39.76,1.42,328.4149,-0.021,0,1,0
41175,77003353,0,6,547727000,2232,10,1.21,-35.3632057,149.1630016,39.76,1.207,328.4329,-0.019,0,1,0
41354,77203273,0,6,547727200,2232,10,1.21,-35.3632041,149.1630003,39.77,1.018,328.3552,-0.017,0,1,0
41535,77404026,0,6,547727400,2232,10,1.21,-35.3632026,149.1629993,39.77,0.844,328.195,-0.014,0,1,0
41717,77603946,0,6,547727600,2232,10,1.21,-35.3632014,149.1629984,39.77,0.689,328.6957,-0.012,0,1,0
41895,77803866,0,6,547727800,2232,10,1.21,-35.3632005,149.1629977,39.77,0.613,330.5809,-0.013,0,1,0
42076,78003786,0,6,547728000,2232,10,1.21,-35.3631995,149.162997,39.78,0.7460001,330.8498,-0.014,0,1,0
42255,78203706,0,6,547728200,2232,10,1.21,-35.3631981,149.162996,39.78,1.102,330.0703,-0.014,0,1,0
42435,78403626,0,6,547728400,2232,10,1.21,-35.3631959,149.1629945,39.78,1.62,329.0702,-0.014,0,1,0
42618,78603546,0,6,547728600,2232,10,1.21,-35.363193,149.1629922,39.79,2.154,328.575,-0.014,0,1,0
42796,78803466,0,6,547728800,2232,10,1.21,-35.3631893,149.1629894,39.79,2.685,328.5126,-0.012,0,1,0
42977,79003386,0,6,547729000,2232,10,1.21,-35.3631848,149.1629862,39.79,3.206,328.424,-0.01,0,1,0
43155,79203306,0,6,547729200,2232,10,1.21,-35.3631795,149.1629821,39.79,3.679,328.1072,-0.01,0,1,0
43336,79404059,0,6,547729400,2232,10,1.21,-35.3631737,149.1629776,39.79,3.965,327.729,-0.007,0,1,0
43519,79603979,0,6,547729600,2232,10,1.21,-35.3631676,149.1629729,39.79,4.034,327.5456,0,0,1,0
43697,79803899,0,6,547729800,2232,10,1.21,-35.3631614,149.1629682,39.79,3.899,327.3184,0.009,0,1,0
43878,80003819,0,6,547730000,2232,10,1.21,-35.3631558,149.1629637,39.79,3.638,327.2842,0.015,0,1,0
44057,80203739,0,6,547730200,2232,10,1.21,-35.3631504,149.1629595,39.79,3.354,327.2199,0.015,0,1,0
44238,80403659,0,6,547730400,2232,10,1.21,-35.3631456,149.1629557,39.78,3.064,327.1412,0.011,0,1,0
44420,80603579,0,6,547730600,2232,10,1.21,-35.3631412,149.1629522,39.78,2.777,327.1791,0.003,0,1,0
44598,80803499,0,6,547730800,2232,10,1.21,-35.3631373,149.1629491,39.78,2.5,326.9617,0.001,0,1,0
44779,81003419,0,6,547731000,2232,10,1.21,-35.3631337,149.1629462,39.78,2.231,326.8454,-0.004,0,1,0
44958,81203339,0,6,547731200,2232,10,1.21,-35.3631306,149.1629437,39.78,1.969,327.0096,-0.008,0,1,0
45139,81404092,0,6,547731400,2232,10,1.21,-35.3631278,149.1629415,39.79,1.725,327.2003,-0.008,0,1,0
45322,81604012,0,6,547731600,2232,10,1.21,-35.3631253,149.1629395,39.79,1.495,327.5864,-0.008,0,1,0
45500,81803932,0,6,547731800,2232,10,1.21,-35.3631231,149.1629379,39.79,1.29,327.8603,-0.009,0,1,0
45680,82003852,0,6,547732000,2232,10,1.21,-35.3631214,149.1629365,39.79,1.104,328.0768,-0.008,0,1,0
45859,82203772,0,6,547732200,2232,10,1.21,-35.3631198,149.1629353,39.79,0.928,328.8445,-0.004,0,1,0
46042,82403692,0,6,547732400,2232,10,1.21,-35.3631185,149.1629343,39.79,0.771,329.4483,-0.001,0,1,0
46224,82603612,0,6,547732600,2232,10,1.21,-35.3631174,149.1629336,39.79,0.636,330.2439,-0.01,0,1,0
46402,82803532,0,6,547732800,2232,10,1.21,-35.3631164,149.1629329,39.8,0.598,332.2209,-0.037,0,1,0
46582,83003452,0,6,547733000,2232,10,1.21,-35.3631154,149.1629323,39.81,0.772,331.7212,-0.054,0,1,0
46762,83203372,0,6,547733200,2232,10,1.21,-35.3631139,149.1629313,39.82,1.175,330.4346,-0.061,0,1,0
46943,83403292,0,6,547733400,2232,10,1.21,-35.3631117,149.1629297,39.83,1.703,329.1745,-0.062,0,1,0
47125,83604045,0,6,547733600,2232,10,1.21,-35.3631085,149.1629274,39.84,2.234,328.6503,-0.058,0,1,0
47303,83803965,0,6,547733800,2232,10,1.21,-35.3631047,149.1629246,39.85,2.749,328.4713,-0.049,0,1,0
47483,84003885,0,6,547734000,2232,10,1.21,-35.3631002,149.1629211,39.86,3.264,328.3245,-0.038,0,1,0
47663,84203805,0,6,547734200,2232,10,1.21,-35.3630948,149.162917,39.87,3.716,327.9892,-0.03,0,1,0
47844,84403725,0,6,547734400,2232,10,1.21,-35.3630889,149.1629125,39.87,3.973,327.6574,-0.021,0,1,0
48026,84603645,0,6,547734600,2232,10,1.21,-35.3630828,149.1629077,39.88,4.009,327.3979,-0.007,0,1,0
48205,84803565,0,6,547734800,2232,10,1.21,-35.3630768,149.1629031,39.88,3.85,327.2229,0.006,0,1,0
48385,85003485,0,6,547735000,2232,10,1.21,-35.3630713,149.1628986,39.88,3.584,327.4486,0.013,0,1,0
48564,85203405,0,6,547735200,2232,10,1.21,-35.3630661,149.1628945,39.87,3.306,327.4831,0.015,0,1,0
48746,85403325,0,6,547735400,2232,10,1.21,-35.3630613,149.1628907,39.87,3.022,327.3712,0.012,0,1,0
48928,85604078,0,6,547735600,2232,10,1.21,-35.3630568,149.1628874,39.87,2.733,327.3279,0.007,0,1,0
49106,85803998,0,6,547735800,2232,10,1.21,-35.363053,149.1628843,39.87,2.455,327.319,0.002,0,1,0
49286,86003918,0,6,547736000,2232,10,1.21,-35.3630494,149.1628815,39.87,2.189,327.3866,0,0,1,0
49465,86203838,0,6,547736200,2232,10,1.21,-35.3630463,149.1628791,39.87,1.928,327.3824,-0.002,0,1,0
49647,86403758,0,6,547736400,2232,10,1.21,-35.3630436,149.1628768,39.87,1.682,327.4863,-0.006,0,1,0
49829,86603678,0,6,547736600,2232,10,1.21,-35.3630412,149.162875,39.87,1.455,327.6384,-0.005,0,1,0
50008,86803598,0,6,547736800,2232,10,1.21,-35.3630391,149.1628735,39.87,1.241,327.7803,-0.003,0,1,0
50188,87003518,0,6,547737000,2232,10,1.21,-35.3630373,149.162872,39.87,1.051,327.8942,-0.001,0,1,0
50367,87203438,0,6,547737200,2232,10,1.21,-35.363036,149.162871,39.87,0.8840001,328.1722,0.002,0,1,0
50549,87403358,0,6,547737400,2232,10,1.21,-35.3630347,149.1628701,39.87,0.728,328.6077,0.005,0,1,0
50731,87603278,0,6,547737600,2232,10,1.21,-35.3630336,149.1628692,39.87,0.594,329.5264,-0.008,0,1,0
50909,87804031,0,6,547737800,2232,10,1.21,-35.3630328,149.1628687,39.87,0.582,332.1826,-0.032,0,1,0
51089,88003951,0,6,547738000,2232,10,1.21,-35.3630317,149.162868,39.88,0.804,333.9325,-0.047,0,1,0
51268,88203871,0,6,547738200,2232,10,1.21,-35.36303,149.162867,39.89,1.231,334.3846,-0.052,0,1,0
51450,88403791,0,6,547738400,2232,10,1.21,-35.3630276,149.1628656,39.9,1.761,334.3888,-0.052,0,1,0
51632,88603711,0,6,547738600,2232,10,1.21,-35.3630244,149.1628637,39.91,2.28,334.5892,-0.05,0,1,0
51810,88803631,0,6,547738800,2232,10,1.21,-35.3630202,149.1628613,39.92,2.803,334.8088,-0.038,0,1,0
51990,89003551,0,6,547739000,2232,10,1.21,-35.3630153,149.1628584,39.93,3.315,334.9111,-0.027,0,1,0
52169,89203471,0,6,547739200,2232,10,1.21,-35.3630094,149.1628551,39.93,3.751,334.756,-0.021,0,1,0
52351,89403391,0,6,547739400,2232,10,1.21,-35.3630032,149.1628514,39.94,3.983,334.6127,-0.011,0,1,0
52533,89603311,0,6,547739600,2232,10,1.21,-35.3629966,149.1628476,39.94,3.995,334.4759,0.001,0,1,0
52711,89804064,0,6,547739800,2232,10,1.21,-35.3629903,149.1628438,39.94,3.821,334.4962,0.013,0,1,0
52891,90003984,0,6,547740000,2232,10,1.21,-35.3629843,149.1628404,39.93,3.559,334.6622,0.019,0,1,0
53071,90203904,0,6,547740200,2232,10,1.21,-35.3629788,149.1628371,39.93,3.277,334.6778,0.017,0,1,0
53252,90403824,0,6,547740400,2232,10,1.21,-35.3629737,149.1628342,39.93,2.993,334.7155,0.012,0,1,0
53434,90603744,0,6,547740600,2232,10,1.21,-35.362969,149.1628314,39.92,2.708,334.7314,0.007,0,1,0
53612,90803664,0,6,547740800,2232,10,1.21,-35.3629649,149.162829,39.92,2.433,334.7651,0.002,0,1,0
53792,91003584,0,6,547741000,2232,10,1.21,-35.3629611,149.1628269,39.92,2.169,334.9086,-0.002,0,1,0
53972,91203504,0,6,547741200,2232,10,1.21,-35.3629577,149.162825,39.92,1.901,335.2565,-0.005,0,1,0
54153,91403424,0,6,547741400,2232,10,1.21,-35.3629549,149.1628233,39.92,1.66,335.6798,-0.006,0,1,0
54334,91603344,0,6,547741600,2232,10,1.21,-35.3629524,149.162822,39.93,1.434,335.888,-0.007,0,1,0
54514,91803264,0,6,547741800,2232,10,1.21,-35.3629502,149.1628208,39.93,1.227,336.2677,-0.006,0,1,0
54694,92004017,0,6,547742000,2232,10,1.21,-35.3629483,149.1628198,39.93,1.04,336.749,-0.005,0,1,0
54873,92203937,0,6,547742200,2232,10,1.21,-35.3629466,149.1628189,39.93,0.874,337.409,-0.003,0,1,0
55058,92403857,0,6,547742400,2232,10,1.21,-35.3629454,149.1628183,39.93,0.726,337.6021,-0.001,0,1,0
55239,92603777,0,6,547742600,2232,10,1.21,-35.3629442,149.1628178,39.93,0.6070001,337.5514,0.024,0,1,0
55418,92803697,0,6,547742800,2232,10,1.21,-35.3629433,149.1628172,39.92,0.628,336.3432,0.075,0,1,0
55598,93003617,0,6,547743000,2232,10,1.21,-35.3629421,149.1628165,39.9,0.8660001,331.2507,0.105,0,1,0
55778,93203537,0,6,547743200,2232,10,1.21,-35.3629405,149.1628153,39.88,1.32,327.5583,0.113,0,1,0
55959,93403457,0,6,547743400,2232,10,1.21,-35.3629381,149.1628132,39.85,1.856,325.5826,0.104,0,1,0
56140,93603377,0,6,547743600,2232,10,1.21,-35.362935,149.1628107,39.84,2.384,324.5914,0.093,0,1,0
56319,93803297,0,6,547743800,2232,10,1.21,-35.3629311,149.1628073,39.82,2.898,324.1497,0.07600001,0,1,0
56499,94004050,0,6,547744000,2232,10,1.21,-35.3629265,149.1628031,39.8,3.417,323.7096,0.063,0,1,0
56679,94203970,0,6,547744200,2232,10,1.21,-35.3629211,149.1627983,39.79,3.875,323.2051,0.048,0,1,0
56860,94403890,0,6,547744400,2232,10,1.21,-35.3629155,149.162793,39.79,4.14,322.7116,0.034,0,1,0
57041,94603810,0,6,547744600,2232,10,1.21,-35.3629095,149.1627873,39.78,4.181,322.3899,0.029,0,1,0
57221,94803730,0,6,547744800,2232,10,1.21,-35.3629036,149.1627818,39.77,4.025,322.2509,0.027,0,1,0
57401,95003650,0,6,547745000,2232,10,1.21,-35.362898,149.1627766,39.77,3.755,322.3393,0.026,0,1,0
57580,95203570,0,6,547745200,2232,10,1.21,-35.362893,149.1627716,39.76,3.47,322.4048,0.018,0,1,0
57762,95403490,0,6,547745400,2232,10,1.21,-35.3628883,149.1627672,39.76,3.183,322.3737,0.01,0,1,0
57943,95603410,0,6,547745600,2232,10,1.21,-35.3628839,149.1627631,39.76,2.884,322.4006,0.002,0,1,0
58122,95803330,0,6,547745800,2232,10,1.21,-35.3628799,149.1627595,39.76,2.591,322.4903,-0.006,0,1,0
58302,96004083,0,6,547746000,2232,10,1.21,-35.3628765,149.1627562,39.76,2.302,322.6348,-0.009,0,1,0
58481,96204003,0,6,547746200,2232,10,1.21,-35.3628735,149.1627533,39.76,2.028,322.9089,-0.013,0,1,0
58663,96403923,0,6,547746400,2232,10,1.21,-35.3628706,149.1627508,39.77,1.768,322.9858,-0.013,0,1,0
58844,96603843,0,6,547746600,2232,10,1.21,-35.3628683,149.1627485,39.77,1.528,323.4509,-0.013,0,1,0
59023,96803763,0,6,547746800,2232,10,1.21,-35.3628663,149.1627466,39.77,1.31,323.8776,-0.012,0,1,0
59204,97003683,0,6,547747000,2232,10,1.21,-35.3628646,149.1627452,39.77,1.11,324.1575,-0.007,0,1,0
59383,97203603,0,6,547747200,2232,10,1.21,-35.3628631,149.1627438,39.77,0.929,324.7904,-0.003,0,1,0
59565,97403523,0,6,547747400,2232,10,1.21,-35.3628619,149.1627428,39.78,0.766,324.952,0,0,1,0
59746,97603443,0,6,547747600,2232,10,1.21,-35.3628608,149.1627418,39.77,0.6390001,325.9837,0.016,0,1,0
59925,97803363,0,6,547747800,2232,10,1.21,-35.3628598,149.1627411,39.77,0.688,327.9264,0.031,0,1,0
60105,98003283,0,6,547748000,2232,10,1.21,-35.3628585,149.1627402,39.76,0.9630001,328.1075,0.035,0,1,0
60284,98204036,0,6,547748200,2232,10,1.21,-35.3628567,149.1627388,39.75,1.443,327.7605,0.036,0,1,0
60466,98403956,0,6,547748400,2232,10,1.21,-35.3628542,149.1627368,39.75,1.978,327.6977,0.032,0,1,0
60647,98603876,0,6,547748600,2232,10,1.21,-35.3628507,149.1627341,39.74,2.5,327.9869,0.025,0,1,0
60826,98803796,0,6,547748800,2232,10,1.21,-35.3628466,149.1627308,39.74,3.021,328.1849,0.02,0,1,0
61006,99003716,0,6,547749000,2232,10,1.21,-35.3628415,149.162727,39.73,3.52,328.0581,0.015,0,1,0
61186,99203636,0,6,547749200,2232,10,1.21,-35.362836,149.1627227,39.73,3.881,327.7343,0.009,0,1,0
61367,99403556,0,6,547749400,2232,10,1.21,-35.3628299,149.1627179,39.73,4.022,327.4467,0.009,0,1,0
61548,99603476,0,6,547749600,2232,10,1.21,-35.3628238,149.1627133,39.73,3.947,327.2959,0.013,0,1,0
61728,99803396,0,6,547749800,2232,10,1.21,-35.3628181,149.1627087,39.73,3.714,327.2861,0.017,0,1,0
61908,100003316,0,6,547750000,2232,10,1.21,-35.3628127,149.1627045,39.72,3.441,327.3784,0.017,0,1,0
62087,100204069,0,6,547750200,2232,10,1.21,-35.3628077,149.1627005,39.72,3.158,327.3428,0.012,0,1,0
62269,100403989,0,6,547750400,2232,10,1.21,-35.3628031,149.1626968,39.72,2.876,327.2718,0.006,0,1,0
62450,100603909,0,6,547750600,2232,10,1.21,-35.3627989,149.1626937,39.72,2.596,327.2821,0.001,0,1,0
62629,100803829,0,6,547750800,2232,10,1.21,-35.3627953,149.1626906,39.72,2.32,327.2191,-0.005,0,1,0
62809,101003749,0,6,547751000,2232,10,1.21,-35.362792,149.1626881,39.72,2.052,327.3594,-0.008,0,1,0
62987,101203669,0,6,547751200,2232,10,1.21,-35.3627891,149.1626858,39.72,1.797,327.4381,-0.008,0,1,0
63170,101403589,0,6,547751400,2232,10,1.21,-35.3627866,149.1626839,39.72,1.558,327.6398,-0.008,0,1,0
63351,101603509,0,6,547751600,2232,10,1.21,-35.3627843,149.1626822,39.72,1.347,328.0843,-0.008,0,1,0
63530,101803429,0,6,547751800,2232,10,1.21,-35.3627825,149.1626806,39.72,1.149,328.4883,-0.007,0,1,0
63711,102003349,0,6,547752000,2232,10,1.21,-35.3627809,149.1626795,39.73,0.9670001,329.3371,-0.006,0,1,0
63890,102203269,0,6,547752200,2232,10,1.21,-35.3627794,149.1626785,39.73,0.803,330.081,-0.005,0,1,0
64073,102404022,0,6,547752400,2232,10,1.21,-35.3627783,149.1626777,39.73,0.656,330.7086,-0.003,0,1,0
64254,102603942,0,6,547752600,2232,10,1.21,-35.3627774,149.1626771,39.73,0.573,331.6886,-0.08000001,0,1,0
64433,102803862,0,6,547752800,2232,10,1.21,-35.3627764,149.1626765,39.76,0.694,332.1683,-0.164,0,1,0
64613,103003782,0,6,547753000,2232,10,1.21,-35.3627751,149.1626756,39.8,1.04,331.128,-0.208,0,1,0
64791,103203702,0,6,547753200,2232,10,1.21,-35.3627731,149.1626742,39.84,1.551,330.4321,-0.219,0,1,0
64974,103403622,0,6,547753400,2232,10,1.21,-35.3627703,149.1626722,39.88,2.081,330.2368,-0.208,0,1,0
65155,103603542,0,6,547753600,2232,10,1.21,-35.3627666,149.1626695,39.92,2.601,330.0664,-0.184,0,1,0
65334,103803462,0,6,547753800,2232,10,1.21,-35.3627622,149.1626665,39.96,3.109,329.99,-0.154,0,1,0
65514,104003382,0,6,547754000,2232,10,1.21,-35.3627569,149.1626628,39.98,3.609,329.8372,-0.123,0,1,0
65693,104203302,0,6,547754200,2232,10,1.21,-35.3627509,149.1626585,40.01,3.987,329.649,-0.096,0,1,0
65875,104404055,0,6,547754400,2232,10,1.21,-35.3627447,149.162654,40.02,4.155,329.4012,-0.07,0,1,0
66056,104603975,0,6,547754600,2232,10,1.21,-35.3627382,149.1626493,40.04,4.102,329.241,-0.043,0,1,0
66236,104803895,0,6,547754800,2232,10,1.21,-35.362732,149.1626447,40.04,3.881,329.2415,-0.019,0,1,0
66416,105003815,0,6,547755000,2232,10,1.21,-35.3627263,149.1626406,40.04,3.602,329.3919,-0.002,0,1,0
66594,105203735,0,6,547755200,2232,10,1.21,-35.362721,149.1626367,40.04,3.312,329.3945,0.003,0,1,0
66777,105403655,0,6,547755400,2232,10,1.21,-35.3627161,149.1626331,40.04,3.018,329.3273,0.005,0,1,0
66958,105603575,0,6,547755600,2232,10,1.21,-35.3627117,149.16263,40.04,2.725,329.3748,0.003,0,1,0
67137,105803495,0,6,547755800,2232,10,1.21,-35.3627077,149.162627,40.04,2.441,329.4233,0,0,1,0
67317,106003415,0,6,547756000,2232,10,1.21,-35.362704,149.1626245,40.04,2.169,329.4851,-0.005,0,1,0
67495,106203335,0,6,547756200,2232,10,1.21,-35.362701,149.1626221,40.04,1.91,329.377,-0.006,0,1,0
67680,106404088,0,6,547756400,2232,10,1.21,-35.3626981,149.1626202,40.04,1.669,329.4918,-0.005,0,1,0
67861,106604008,0,1,547756600,2232,3,1.21,-35.3626958,149.1626184,40.05,1.443,329.8109,-0.006,0,1,0
68040,106803928,0,1,547756800,2232,3,1.21,-35.3626937,149.1626169,40.05,1.231,330.937,-0.008,0,1,0
68220,107003848,0,1,547757000,2232,3,1.21,-35.3626919,149.1626158,40.05,1.05,331.5545,-0.007,0,1,0
68400,107203768,0,1,547757200,2232,3,1.21,-35.3626904,149.1626148,40.05,0.8840001,331.388,-0.004,0,1,1
68582,107403688,0,1,547757400,2232,3,1.21,-35.3626892,149.162614,40.05,0.738,331.2841,0,0,1,1
68763,107603608,0,1,547757600,2232,3,1.21,-35.3626881,149.1626131,40.05,0.67,331.6565,0.046,0,1,1
68942,107803528,0,1,547757800,2232,3,1.21,-35.3626869,149.1626125,40.03,0.804,331.1661,0.081,0,1,1
69122,108003448,0,1,547758000,2232,3,1.21,-35.3626853,149.1626114,40.02,1.162,329.746,0.093,0,1,1
69300,108203368,0,1,547758200,2232,3,1.21,-35.3626833,149.1626099,40,1.674,328.6852,0.09,0,1,1
69483,108403288,0,1,547758400,2232,3,1.21,-35.3626803,149.1626076,39.98,2.202,328.1446,0.08000001,0,1,1
69664,108604041,0,1,547758600,2232,3,1.21,-35.3626765,149.1626047,39.96,2.708,327.9843,0.067,0,1,1
69843,108803961,0,1,547758800,2232,3,1.21,-35.3626719,149.1626013,39.95,3.209,327.8225,0.052,0,1,1
70024,109003881,0,1,547759000,2232,3,1.21,-35.3626668,149.1625972,39.94,3.645,327.5665,0.04,0,1,1
70202,109203801,0,1,547759200,2232,3,1.21,-35.362661,149.1625928,39.94,3.885,327.2096,0.031,0,1,1
70384,109403721,0,1,547759400,2232,3,1.21,-35.3626552,149.1625881,39.93,3.9,326.9453,0.028,0,1,1
70565,109603641,0,1,547759600,2232,3,1.21,-35.3626494,149.1625834,39.93,3.717,326.706,0.026,0,1,1
70745,109803561,0,1,547759800,2232,3,1.21,-35.3626441,149.1625791,39.92,3.433,326.6524,0.025,0,1,1
70925,110003481,0,1,547760000,2232,3,1.21,-35.3626391,149.1625752,39.92,3.14,326.5275,0.019,0,1,1
71103,110203401,0,1,547760200,2232,3,1.21,-35.3626347,149.1625714,39.91,2.854,326.2576,0.015,0,1,1
71285,110403321,0,1,547760400,2232,3,1.21,-35.3626305,149.1625681,39.91,2.586,326.171,0.008,0,1,1
71466,110604074,0,1,547760600,2232,3,1.21,-35.3626269,149.1625652,39.91,2.337,325.9765,0.004,0,1,1
71646,110803994,0,1,547760800,2232,3,1.21,-35.3626237,149.1625623,39.91,2.102,325.6114,0.001,0,1,1
71826,111003914,0,1,547761000,2232,3,1.21,-35.3626207,149.1625599,39.91,1.885,325.0705,0,0,1,1
72004,111203834,0,1,547761200,2232,3,1.21,-35.3626181,149.1625576,39.91,1.687,324.9347,0,0,1,1
72186,111403754,0,1,547761400,2232,3,1.21,-35.3626158,149.1625556,39.91,1.504,325.13,0.001,0,1,1
72367,111603674,0,1,547761600,2232,3,1.21,-35.3626137,149.1625539,39.91,1.339,325.224,0,0,1,1
72546,111803594,0,1,547761800,2232,3,1.21,-35.3626117,149.1625522,39.91,1.182,325.3446,0.001,0,1,1
72726,112003514,0,1,547762000,2232,3,1.21,-35.3626102,149.1625509,39.91,1.041,325.4829,0,0,1,1
72906,112203434,0,1,547762200,2232,3,1.21,-35.3626086,149.1625498,39.91,0.904,325.4838,0,0,1,1
73090,112403354,0,1,547762400,2232,3,1.21,-35.3626074,149.1625487,39.91,0.788,325.5316,-0.002,0,1,1
73271,112603274,0,1,547762600,2232,3,1.21,-35.3626064,149.1625478,39.91,0.762,325.8902,-0.004,0,1,1
73450,112804027,0,1,547762800,2232,3,1.21,-35.362605,149.1625467,39.91,0.9490001,325.3053,-0.005,0,1,1
73630,113003947,0,1,547763000,2232,3,1.21,-35.3626035,149.1625453,39.91,1.333,324.3137,-0.007,0,1,1
73808,113203867,0,1,547763200,2232,3,1.21,-35.3626012,149.1625432,39.91,1.842,323.5588,-0.006,0,1,1
73990,113403787,0,1,547763400,2232,3,1.21,-35.3625981,149.1625405,39.91,2.344,322.9573,-0.007,0,1,1
74170,113603707,0,1,547763600,2232,3,1.21,-35.3625944,149.162537,39.91,2.815,322.7256,-0.006,0,1,1
74346,113803627,0,1,547763800,2232,3,1.21,-35.3625901,149.162533,39.92,3.273,322.5161,-0.004,0,1,1
74525,114003547,0,1,547764000,2232,3,1.21,-35.362585,149.1625283,39.92,3.694,322.1221,-0.003,0,1,1
74701,114203467,0,1,547764200,2232,3,1.21,-35.3625797,149.162523,39.92,3.956,321.6922,-0.004,0,1,1
74880,114403387,0,1,547764400,2232,3,1.21,-35.362574,149.1625176,39.92,3.999,321.2917,0,0,1,1
75059,114603307,0,1,547764600,2232,3,1.21,-35.3625685,149.1625121,39.92,3.839,320.894,0.007,0,1,1
75235,114804060,0,1,547764800,2232,3,1.21,-35.3625634,149.162507,39.92,3.554,320.7498,0.013,0,1,1
75414,115003980,0,1,547765000,2232,3,1.21,-35.3625587,149.1625023,39.91,3.251,320.6872,0.013,0,1,1
75590,115203900,0,1,547765200,2232,3,1.21,-35.3625544,149.162498,39.91,2.964,320.6213,0.007,0,1,1
75769,115403820,0,1,547765400,2232,3,1.21,-35.3625503,149.1624939,39.91,2.69,320.3651,0.001,0,1,1
75948,115603740,0,1,547765600,2232,3,1.21,-35.3625469,149.1624904,39.91,2.437,320.0708,-0.003,0,1,1
76124,115803660,0,1,547765800,2232,3,1.21,-35.3625436,149.1624871,39.91,2.199,319.8008,-0.008,0,1,1
76303,116003580,0,1,547766000,2232,3,1.21,-35.3625408,149.1624842,39.91,1.985,319.7538,-0.01,0,1,1
76479,116203500,0,1,547766200,2232,3,1.21,-35.3625383,149.1624814,39.92,1.789,319.5499,-0.011,0,1,1
76658,116403420,0,1,547766400,2232,3,1.21,-35.3625359,149.162479,39.92,1.616,319.4525,-0.011,0,1,1
76837,116603340,0,1,547766600,2232,3,1.21,-35.3625338,149.1624769,39.92,1.447,319.4697,-0.011,0,1,1
77013,116803260,0,1,547766800,2232,3,1.21,-35.362532,149.1624749,39.92,1.291,319.5397,-0.008,0,1,1
77192,117004013,0,1,547767000,2232,3,1.21,-35.3625302,149.1624732,39.92,1.147,319.6589,-0.007,0,1,1
77369,117203933,0,1,547767200,2232,3,1.21,-35.3625288,149.1624716,39.93,1.026,319.4422,-0.005,0,1,1
77549,117403853,0,1,547767400,2232,3,1.21,-35.3625275,149.1624702,39.93,0.9120001,319.4951,-0.012,0,1,1
77728,117603773,0,1,547767600,2232,3,1.21,-35.3625262,149.1624689,39.93,0.9020001,322.1883,-0.022,0,1,1
77904,117803693,0,1,547767800,2232,3,1.21,-35.3625247,149.1624676,39.94,1.11,325.8575,-0.026,0,1,1
78083,118003613,0,1,547768000,2232,3,1.21,-35.3625228,149.1624661,39.94,1.524,328.1,-0.025,0,1,1
78259,118203533,0,1,547768200,2232,3,1.21,-35.3625201,149.1624641,39.95,2.029,329.2002,-0.023,0,1,1
78438,118403453,0,1,547768400,2232,3,1.21,-35.3625166,149.1624616,39.95,2.502,330.2415,-0.021,0,1,1
78617,118603373,0,1,547768600,2232,3,1.21,-35.3625123,149.1624587,39.95,2.949,330.7793,-0.017,0,1,1
78793,118803293,0,1,547768800,2232,3,1.21,-35.3625073,149.1624553,39.96,3.352,330.9049,-0.015,0,1,1
78972,119004046,0,1,547769000,2232,3,1.21,-35.3625017,149.1624515,39.96,3.604,330.8228,-0.011,0,1,1
79148,119203966,0,1,547769200,2232,3,1.21,-35.3624961,149.1624476,39.96,3.625,330.4428,-0.004,0,1,1
79327,119403886,0,1,547769400,2232,3,1.21,-35.3624906,149.1624436,39.96,3.455,329.9986,0.004,0,1,1
79506,119603806,0,1,547769600,2232,3,1.21,-35.3624854,149.1624401,39.96,3.168,329.7367,0.009,0,1,1
79682,119803726,0,1,547769800,2232,3,1.21,-35.3624808,149.1624367,39.96,2.875,329.4879,0.009,0,1,1
79861,120003646,0,1,547770000,2232,3,1.21,-35.3624765,149.1624336,39.96,2.606,329.2505,0.005,0,1,1
80037,120203566,0,1,547770200,2232,3,1.21,-35.3624727,149.1624309,39.96,2.36,328.9783,0.003,0,1,1
80216,120403486,0,1,547770400,2232,3,1.21,-35.3624692,149.1624282,39.95,2.146,329.0093,0,0,1,1
80395,120603406,0,1,547770600,2232,3,1.21,-35.3624661,149.1624259,39.95,1.954,329.1112,-0.003,0,1,1
80571,120803326,0,1,547770800,2232,3,1.21,-35.3624632,149.1624239,39.96,1.778,329.2114,-0.005,0,1,1
80750,121004079,0,1,547771000,2232,3,1.21,-35.3624606,149.162422,39.96,1.618,329.285,-0.006,0,1,1
80926,121203999,0,1,547771200,2232,3,1.21,-35.3624582,149.1624201,39.96,1.47,329.2722,-0.007,0,1,1
81105,121403919,0,1,547771400,2232,3,1.21,-35.362456,149.1624187,39.96,1.333,329.5145,-0.006,0,1,1
81286,121603839,0,1,547771600,2232,3,1.21,-35.362454,149.1624172,39.96,1.208,329.585,-0.005,0,1,1
81462,121803759,0,1,547771800,2232,3,1.21,-35.3624522,149.162416,39.96,1.108,330.6321,-0.005,0,1,1
81641,122003679,0,1,547772000,2232,3,1.21,-35.3624503,149.1624148,39.96,1.391,334.0716,-0.005,0,1,1
81818,122203599,0,1,547772200,2232,3,1.21,-35.3624478,149.1624132,39.96,1.69,333.3173,-0.007,0,1,1
81999,122403519,0,1,547772400,2232,3,1.21,-35.3624449,149.1624115,39.97,1.925,333.951,-0.042,0,1,1
82178,122603439,0,1,547772600,2232,3,1.21,-35.3624414,149.1624095,39.99,2.267,334.5125,-0.144,0,1,1
82354,122803359,0,1,547772800,2232,3,1.21,-35.3624374,149.1624071,40.02,2.781,334.1879,-0.203,0,1,1
82533,123003279,0,1,547773000,2232,3,1.21,-35.3624323,149.1624041,40.07,3.471,333.5766,-0.223,0,1,1
82709,123204032,0,1,547773200,2232,3,1.21,-35.3624262,149.1624001,40.11,4.219,333.0497,-0.213,0,1,1
82890,123403952,0,1,547773400,2232,3,1.21,-35.3624188,149.1623957,40.15,4.931,332.7531,-0.186,0,1,1
83069,123603872,0,1,547773600,2232,3,1.21,-35.3624104,149.1623903,40.18,5.576,332.5323,-0.154,0,1,1
83245,123803792,0,1,547773800,2232,3,1.21,-35.3624011,149.1623842,40.21,6.149,332.3515,-0.12,0,1,1
83424,124003712,0,1,547774000,2232,3,1.21,-35.3623909,149.1623778,40.23,6.66,332.1705,-0.09100001,0,1,1
83600,124203632,0,1,547774200,2232,3,1.21,-35.36238,149.1623707,40.25,7.105,332.0311,-0.067,0,1,1
83778,124403552,0,1,547774400,2232,3,1.21,-35.3623684,149.1623631,40.26,7.498,331.8185,-0.046,0,1,1
83958,124603472,0,1,547774600,2232,3,1.21,-35.3623562,149.162355,40.26,7.845,331.6668,-0.033,0,1,1
84134,124803392,0,1,547774800,2232,3,1.21,-35.3623435,149.1623467,40.27,8.151,331.5553,-0.022,0,1,1
84313,125003312,0,1,547775000,2232,3,1.21,-35.3623305,149.162338,40.27,8.412001,331.4373,-0.01,0,1,1
84489,125204065,0,1,547775200,2232,3,1.21,-35.362317,149.162329,40.27,8.636001,331.2986,-0.001,0,1,1
84667,125403985,0,1,547775400,2232,3,1.21,-35.3623032,149.1623196,40.27,8.825001,331.131,0.011,0,1,1
84847,125603905,0,1,547775600,2232,3,1.21,-35.3622892,149.1623102,40.27,8.990001,330.963,0.025,0,1,1
85023,125803825,0,1,547775800,2232,3,1.21,-35.3622749,149.1623004,40.26,9.136001,330.894,0.043,0,1,1
85202,126003745,0,1,547776000,2232,3,1.21,-35.3622606,149.1622907,40.25,9.267,330.8155,0.061,0,1,1
85378,126203665,0,1,547776200,2232,3,1.21,-35.3622459,149.1622806,40.23,9.386001,330.7361,0.081,0,1,1
85556,126403585,0,1,547776400,2232,3,1.21,-35.362231,149.1622705,40.22,9.495001,330.6401,0.102,0,1,1
85736,126603505,0,1,547776600,2232,3,1.21,-35.3622162,149.1622601,40.19,9.582001,330.5588,0.125,0,1,1
85912,126803425,0,1,547776800,2232,3,1.21,-35.3622012,149.1622497,40.16,9.649,330.4754,0.149,0,1,1
86091,127003345,0,1,547777000,2232,3,1.21,-35.362186,149.1622391,40.13,9.727,330.4121,0.176,0,1,1
86268,127203265,0,1,547777200,2232,3,1.21,-35.3621708,149.1622286,40.09,9.802,330.368,0.201,0,1,1
86447,127404018,0,1,547777400,2232,3,1.21,-35.3621553,149.1622177,40.05,9.877001,330.3408,0.227,0,1,1
86627,127603938,0,1,547777600,2232,3,1.21,-35.3621398,149.162207,40,9.931001,330.29,0.245,0,1,1
86803,127803858,0,1,547777800,2232,3,1.21,-35.3621243,149.1621961,39.95,9.993,330.2841,0.261,0,1,1
86982,128003778,0,1,547778000,2232,3,1.21,-35.3621087,149.1621851,39.9,10.071,330.2896,0.271,0,1,1
87158,128203698,0,1,547778200,2232,3,1.21,-35.3620929,149.162174,39.84,10.149,330.2592,0.272,0,1,1
87336,128403618,0,1,547778400,2232,3,1.21,-35.362077,149.162163,39.79,10.232,330.2256,0.271,0,1,1
87516,128603538,0,1,547778600,2232,3,1.21,-35.362061,149.1621518,39.73,10.316,330.1322,0.262,0,1,1
87694,128803458,0,1,547778800,2232,3,1.21,-35.3620448,149.1621404,39.68,10.413,330.1017,0.249,0,1,1
87873,129003378,0,1,547779000,2232,3,1.21,-35.3620285,149.1621289,39.63,10.514,330.0844,0.229,0,1,1
88049,129203298,0,1,547779200,2232,3,1.21,-35.3620121,149.1621173,39.59,10.605,330.031,0.206,0,1,1
88227,129404051,0,1,547779400,2232,3,1.21,-35.3619955,149.1621055,39.55,10.704,329.9481,0.183,0,1,1
88407,129603971,0,1,547779600,2232,3,1.21,-35.3619787,149.1620936,39.51,10.802,329.8837,0.153,0,1,1
88583,129803891,0,1,547779800,2232,3,1.21,-35.3619619,149.1620816,39.48,10.906,329.8361,0.121,0,1,1
88762,130003811,0,1,547780000,2232,3,1.21,-35.3619449,149.1620695,39.46,11.016,329.7838,0.089,0,1,1
88938,130203731,0,1,547780200,2232,3,1.21,-35.3619276,149.1620572,39.45,11.116,329.726,0.056,0,1,1
89116,130403651,0,1,547780400,2232,3,1.21,-35.3619104,149.1620448,39.44,11.213,329.6492,0.021,0,1,1
89296,130603571,0,1,547780600,2232,3,1.21,-35.3618929,149.1620323,39.44,11.311,329.5625,-0.012,0,1,1
89472,130803491,0,1,547780800,2232,3,1.21,-35.3618753,149.1620195,39.44,11.403,329.5053,-0.047,0,1,1
89651,131003411,0,1,547781000,2232,3,1.21,-35.3618576,149.1620068,39.45,11.502,329.4637,-0.07700001,0,1,1
89827,131203331,0,1,547781200,2232,3,1.21,-35.3618397,149.1619939,39.47,11.602,329.483,-0.109,0,1,1
90005,131404084,0,1,547781400,2232,3,1.21,-35.3618216,149.1619807,39.5,11.697,329.4759,-0.141,0,1,1
90185,131604004,0,1,547781600,2232,3,1.21,-35.3618035,149.1619677,39.53,11.789,329.4977,-0.167,0,1,1
90361,131803924,0,1,547781800,2232,3,1.21,-35.3617851,149.1619545,39.56,11.876,329.5032,-0.192,0,1,1
90541,132003844,0,1,547782000,2232,3,1.21,-35.3617666,149.1619411,39.6,11.958,329.4961,-0.214,0,1,1
90717,132203764,0,1,547782200,2232,3,1.21,-35.3617481,149.1619277,39.64,12.032,329.4328,-0.233,0,1,1
90896,132403684,0,1,547782400,2232,3,1.21,-35.3617294,149.1619141,39.69,12.118,329.3049,-0.265,0,1,1
91077,132603604,0,1,547782600,2232,3,1.21,-35.3617106,149.1619005,39.75,12.19,329.0345,-0.301,0,1,1
91253,132803524,0,1,547782800,2232,3,1.21,-35.3616918,149.1618866,39.81,12.248,328.7413,-0.325,0,1,1
91432,133003444,0,1,547783000,2232,3,1.21,-35.3616731,149.1618724,39.88,12.309,328.4457,-0.332,0,1,1
91608,133203364,0,1,547783200,2232,3,1.21,-35.3616541,149.1618581,39.94,12.36,328.1941,-0.337,0,1,1
91786,133403284,0,1,547783400,2232,3,1.21,-35.3616352,149.1618437,40.01,12.402,327.9988,-0.342,0,1,1
91966,133604037,0,1,547783600,2232,3,1.21,-35.3616163,149.1618292,40.08,12.437,327.8489,-0.343,0,1,1
92142,133803957,0,1,547783800,2232,3,1.21,-35.3615974,149.1618145,40.15,12.467,327.6926,-0.336,0,1,1
92321,134003877,0,1,547784000,2232,3,1.21,-35.3615785,149.1617999,40.22,12.493,327.5984,-0.338,0,1,1
92497,134203797,0,1,547784200,2232,3,1.21,-35.3615595,149.1617852,40.28,12.509,327.5247,-0.334,0,1,1
92675,134403717,0,1,547784400,2232,3,1.21,-35.3615406,149.1617704,40.35,12.525,327.4892,-0.329,0,1,1
92855,134603637,0,1,547784600,2232,3,1.21,-35.3615215,149.1617555,40.42,12.541,327.4316,-0.322,0,1,1
93031,134803557,0,1,547784800,2232,3,1.21,-35.3615026,149.1617407,40.48,12.55,327.4165,-0.321,0,1,1
93209,135003477,0,1,547785000,2232,3,1.21,-35.3614836,149.1617258,40.54,12.564,327.3808,-0.304,0,1,1
93386,135203397,0,1,547785200,2232,3,1.21,-35.3614646,149.1617107,40.6,12.576,327.3245,-0.294,0,1,1
93564,135403317,0,1,547785400,2232,3,1.21,-35.3614455,149.1616958,40.66,12.587,327.3237,-0.281,0,1,1
93744,135604070,0,1,547785600,2232,3,1.21,-35.3614264,149.1616809,40.72,12.59,327.3685,-0.27,0,1,1
93920,135803990,0,1,547785800,2232,3,1.21,-35.3614074,149.1616659,40.77,12.591,327.4429,-0.256,0,1,1
94098,136003910,0,1,547786000,2232,3,1.21,-35.3613883,149.161651,40.82,12.597,327.502,-0.235,0,1,1
94275,136203830,0,1,547786200,2232,3,1.21,-35.3613692,149.1616362,40.86,12.603,327.6217,-0.216,0,1,1
94453,136403750,0,1,547786400,2232,3,1.21,-35.36135,149.1616213,40.91,12.6,327.7672,-0.199,0,1,1
94633,136603670,0,1,547786600,2232,3,1.21,-35.3613309,149.1616066,40.94,12.59,327.9604,-0.18,0,1,1
94809,136803590,0,1,547786800,2232,3,1.21,-35.3613117,149.1615919,40.98,12.57,328.1718,-0.166,0,1,1
94988,137003510,0,1,547787000,2232,3,1.21,-35.3612926,149.1615774,41.01,12.547,328.4052,-0.148,0,1,1
95165,137203430,0,1,547787200,2232,3,1.21,-35.3612734,149.161563,41.04,12.522,328.6866,-0.135,0,1,1
95343,137403350,0,1,547787400,2232,3,1.21,-35.361254,149.1615488,41.06,12.495,328.9585,-0.13,0,1,1
95524,137603270,0,1,547787600,2232,3,1.21,-35.3612349,149.1615347,41.09,12.458,329.1808,-0.12,0,1,1
95700,137804023,0,1,547787800,2232,3,1.21,-35.3612156,149.1615206,41.11,12.421,329.383,-0.107,0,1,1
95878,138003943,0,1,547788000,2232,3,1.21,-35.3611965,149.1615067,41.13,12.378,329.5826,-0.096,0,1,1
96055,138203863,0,1,547788200,2232,3,1.21,-35.3611773,149.161493,41.15,12.334,329.7485,-0.083,0,1,1
96233,138403783,0,1,547788400,2232,3,1.21,-35.3611582,149.1614794,41.17,12.296,329.9106,-0.067,0,1,1
96413,138603703,0,1,547788600,2232,3,1.21,-35.361139,149.1614659,41.18,12.265,330.0738,-0.05,0,1,1
96589,138803623,0,1,547788800,2232,3,1.21,-35.36112,149.1614525,41.19,12.229,330.2362,-0.035,0,1,1
96767,139003543,0,1,547789000,2232,3,1.21,-35.361101,149.1614392,41.19,12.184,330.328,-0.024,0,1,1
96944,139203463,0,1,547789200,2232,3,1.21,-35.3610819,149.161426,41.2,12.128,330.4862,-0.013,0,1,1
97122,139403383,0,1,547789400,2232,3,1.21,-35.361063,149.1614128,41.2,12.075,330.6413,-0.001,0,1,1
97302,139603303,0,1,547789600,2232,3,1.21,-35.3610441,149.1613999,41.2,12.023,330.75,0.009,0,1,1
97478,139804056,0,1,547789800,2232,3,1.21,-35.3610253,149.161387,41.19,11.976,330.8334,0.022,0,1,1
97656,140003976,0,1,547790000,2232,3,1.21,-35.3610065,149.1613741,41.19,11.934,330.9274,0.031,0,1,1
97833,140203896,0,1,547790200,2232,3,1.21,-35.3609879,149.1613614,41.18,11.894,331.0576,0.041,0,1,1
98011,140403816,0,1,547790400,2232,3,1.21,-35.3609692,149.1613487,41.17,11.866,331.199,0.05,0,1,1
98191,140603736,0,1,547790600,2232,3,1.21,-35.3609505,149.1613362,41.16,11.829,331.319,0.058,0,1,1
98367,140803656,0,1,547790800,2232,3,1.21,-35.3609319,149.1613238,41.15,11.789,331.4039,0.064,0,1,1
98545,141003576,0,1,547791000,2232,3,1.21,-35.3609134,149.1613114,41.14,11.744,331.4638,0.068,0,1,1
98722,141203496,0,1,547791200,2232,3,1.21,-35.3608949,149.161299,41.12,11.697,331.5874,0.071,0,1,1
98900,141403416,0,1,547791400,2232,3,1.21,-35.3608763,149.1612869,41.11,11.653,331.7146,0.07700001,0,1,1
99080,141603336,0,1,547791600,2232,3,1.21,-35.360858,149.1612748,41.09,11.607,331.799,0.082,0,1,1
99256,141804089,0,1,547791800,2232,3,1.21,-35.3608397,149.1612628,41.07,11.564,331.8909,0.08800001,0,1,1
99435,142004009,0,1,547792000,2232,3,1.21,-35.3608213,149.1612508,41.06,11.524,331.9789,0.094,0,1,1
99612,142203929,0,1,547792200,2232,3,1.21,-35.3608031,149.1612389,41.04,11.499,332.1073,0.093,0,1,1
99791,142403849,0,1,547792400,2232,3,1.21,-35.3607848,149.1612271,41.02,11.459,332.2656,0.083,0,1,1
99971,142603769,0,1,547792600,2232,3,1.21,-35.3607667,149.1612154,41,11.414,332.3674,0.078,0,1,1
100148,142803689,0,1,547792800,2232,3,1.21,-35.3607485,149.1612037,40.99,11.369,332.4254,0.07600001,0,1,1
100326,143003609,0,1,547793000,2232,3,1.21,-35.3607304,149.1611922,40.97,11.323,332.4803,0.07600001,0,1,1
100503,143203529,0,1,547793200,2232,3,1.21,-35.3607125,149.1611807,40.96,11.274,332.5108,0.074,0,1,1
100681,143403449,0,1,547793400,2232,3,1.21,-35.3606945,149.1611694,40.94,11.239,332.5974,0.07700001,0,1,1
100860,143603369,0,1,547793600,2232,3,1.21,-35.3606767,149.161158,40.93,11.193,332.7043,0.074,0,1,1
101037,143803289,0,1,547793800,2232,3,1.21,-35.3606587,149.1611467,40.92,11.147,332.7567,0.07300001,0,1,1
101215,144004042,0,1,547794000,2232,3,1.21,-35.360641,149.1611355,40.9,11.1,332.8353,0.07300001,0,1,1
101392,144203962,0,1,547794200,2232,3,1.21,-35.3606233,149.1611244,40.89,11.061,332.891,0.07300001,0,1,1
101570,144403882,0,1,547794400,2232,3,1.21,-35.3606056,149.1611134,40.87,11.031,332.9635,0.07300001,0,1,1
101749,144603802,0,1,547794600,2232,3,1.21,-35.360588,149.1611024,40.86,10.995,333.057,0.071,0,1,1
101926,144803722,0,1,547794800,2232,3,1.21,-35.3605704,149.1610914,40.84,10.958,333.1545,0.068,0,1,1
102104,145003642,0,1,547795000,2232,3,1.21,-35.3605529,149.1610806,40.83,10.915,333.2066,0.063,0,1,1
102281,145203562,0,1,547795200,2232,3,1.21,-35.3605353,149.1610698,40.82,10.873,333.2783,0.06,0,1,1
102459,145403482,0,1,547795400,2232,3,1.21,-35.360518,149.161059,40.81,10.823,333.2925,0.056,0,1,1
102638,145603402,0,1,547795600,2232,3,1.21,-35.3605006,149.1610484,40.8,10.777,333.3734,0.052,0,1,1
102815,145803322,0,1,547795800,2232,3,1.21,-35.3604835,149.1610378,40.79,10.735,333.4712,0.05,0,1,1
102993,146004075,0,1,547796000,2232,3,1.21,-35.3604662,149.1610272,40.78,10.7,333.5552,0.048,0,1,1
103170,146203995,0,1,547796200,2232,3,1.21,-35.3604489,149.1610168,40.77,10.668,333.6221,0.044,0,1,1
103348,146403915,0,1,547796400,2232,3,1.21,-35.3604318,149.1610064,40.76,10.625,333.7134,0.037,0,1,1
103527,146603835,0,1,547796600,2232,3,1.21,-35.3604148,149.1609959,40.75,10.585,333.8228,0.033,0,1,1
103704,146803755,0,1,547796800,2232,3,1.21,-35.3603977,149.1609858,40.75,10.544,333.8875,0.029,0,1,1
103883,147003675,0,1,547797000,2232,3,1.21,-35.3603808,149.1609756,40.74,10.508,333.9361,0.025,0,1,1
104060,147203595,0,1,547797200,2232,3,1.21,-35.3603638,149.1609655,40.74,10.475,334.0234,0.004,0,1,1
104238,147403515,0,1,547797400,2232,3,1.21,-35.3603468,149.1609554,40.74,10.443,334.166,-0.019,0,1,1
104416,147603435,0,1,547797600,2232,3,1.21,-35.3603301,149.1609455,40.75,10.41,334.3133,-0.034,0,1,1
104595,147803355,0,1,547797800,2232,3,1.21,-35.3603133,149.1609355,40.76,10.385,334.3886,-0.044,0,1,1
104773,148003275,0,1,547798000,2232,3,1.21,-35.3602964,149.1609257,40.76,10.357,334.4482,-0.047,0,1,1
104950,148204028,0,1,547798200,2232,3,1.21,-35.3602796,149.1609158,40.77,10.322,334.4439,-0.048,0,1,1
105128,148403948,0,1,547798400,2232,3,1.21,-35.3602629,149.1609061,40.79,10.285,334.4633,-0.05,0,1,1
105306,148603868,0,1,547798600,2232,3,1.21,-35.3602463,149.1608963,40.8,10.246,334.5188,-0.047,0,1,1
105484,148803788,0,1,547798800,2232,3,1.21,-35.3602297,149.1608867,40.8,10.218,334.5716,-0.044,0,1,1
105662,149003708,0,1,547799000,2232,3,1.21,-35.3602131,149.160877,40.81,10.186,334.6612,-0.043,0,1,1
105839,149203628,0,1,547799200,2232,3,1.21,-35.3601966,149.1608675,40.82,10.155,334.7496,-0.04,0,1,1
106017,149403548,0,1,547799400,2232,3,1.21,-35.3601801,149.160858,40.83,10.126,334.8364,-0.039,0,1,1
106195,149603468,0,1,547799600,2232,3,1.21,-35.3601637,149.1608484,40.84,10.095,334.9911,-0.038,0,1,1
106373,149803388,0,1,547799800,2232,3,1.21,-35.3601473,149.1608392,40.85,10.073,335.1218,-0.037,0,1,1
106551,150003308,0,1,547800000,2232,3,1.21,-35.3601309,149.1608298,40.85,10.044,335.2209,-0.037,0,1,1
106728,150204061,0,1,547800200,2232,3,1.21,-35.3601145,149.1608206,40.86,10.018,335.2889,-0.037,0,1,1
106906,150403981,0,1,547800400,2232,3,1.21,-35.3600981,149.1608114,40.87,9.994,335.3885,-0.036,0,1,1
107084,150603901,0,1,547800600,2232,3,1.21,-35.3600819,149.1608023,40.88,9.977,335.5148,-0.035,0,1,1
107262,150803821,0,1,547800800,2232,3,1.21,-35.3600656,149.1607932,40.88,9.953,335.6267,-0.035,0,1,1
107440,151003741,0,1,547801000,2232,3,1.21,-35.3600494,149.1607842,40.89,9.93,335.6904,-0.035,0,1,1
107617,151203661,0,1,547801200,2232,3,1.21,-35.360033,149.1607752,40.9,9.912001,335.7519,-0.036,0,1,1
107795,151403581,0,1,547801400,2232,3,1.21,-35.3600169,149.1607663,40.91,9.889001,335.8176,-0.035,0,1,1
107973,151603501,0,1,547801600,2232,3,1.21,-35.3600007,149.1607574,40.91,9.870001,335.8727,-0.033,0,1,1
108151,151803421,0,1,547801800,2232,3,1.21,-35.3599846,149.1607484,40.92,9.851001,335.9204,-0.033,0,1,1
108330,152003341,0,1,547802000,2232,3,1.21,-35.3599684,149.1607397,40.93,9.834001,335.9622,-0.034,0,1,1
108507,152203261,0,1,547802200,2232,3,1.21,-35.3599522,149.1607309,40.93,9.824,336.0668,-0.044,0,1,1
108686,152404014,0,1,547802400,2232,3,1.21,-35.3599361,149.160722,40.94,9.812,336.2393,-0.056,0,1,1
108864,152603934,0,1,547802600,2232,3,1.21,-35.3599199,149.1607134,40.96,9.802,336.358,-0.062,0,1,1
109042,152803854,0,1,547802800,2232,3,1.21,-35.3599039,149.1607048,40.97,9.787001,336.4311,-0.066,0,1,1
109221,153003774,0,1,547803000,2232,3,1.21,-35.3598877,149.1606962,40.98,9.77,336.4622,-0.066,0,1,1
109398,153203694,0,1,547803200,2232,3,1.21,-35.3598717,149.1606876,41,9.749001,336.5097,-0.063,0,1,1
109576,153403614,0,1,547803400,2232,3,1.21,-35.3598557,149.160679,41.01,9.727,336.5546,-0.062,0,1,1
109754,153603534,0,1,547803600,2232,3,1.21,-35.3598396,149.1606706,41.02,9.711,336.6087,-0.057,0,1,1
109932,153803454,0,1,547803800,2232,3,1.21,-35.3598237,149.1606622,41.03,9.699,336.6903,-0.053,0,1,1
110110,154003374,0,1,547804000,2232,3,1.21,-35.3598077,149.1606538,41.04,9.681001,336.8191,-0.051,0,1,1
110287,154203294,0,1,547804200,2232,3,1.21,-35.3597916,149.1606454,41.05,9.663,336.9619,-0.047,0,1,1
110467,154404047,0,1,547804400,2232,3,1.21,-35.3597757,149.1606371,41.06,9.651,337.0692,-0.045,0,1,1
110645,154603967,0,1,547804600,2232,3,1.21,-35.3597597,149.1606287,41.07,9.64,337.1165,-0.045,0,1,1
