LineNo,TimeUS,C,Roll,Pitch,Yaw,VN,VE,VD,dPD,PN,PE,PD,GX,GY,GZ,OH,labels
438869,521063991,0,-0.08,-0.15,207.37,-0.02730027,0.0052123,-0.01459386,-0.0009803,-0.00180068,0.01326307,-0.03442659,0.08,0.08,0.1,20.36,4
70151,109163817,0,1.09,-7.17,327.51,3.325673,-2.096825,0.02530627,0.02731506,69.83681,-42.77103,-20.26577,0.06,0.07,0.05,20.36,1
401362,477863778,0,0.68,-1.24,207.7,-0.02855452,0.04985842,1.50917,1.520115,0.02044784,-0.01527537,-18.77291,0.1,0.13,0.14,20.36,4
421803,500563861,0,-1.42,0.77,207.81,-0.02999248,-0.00700045,0.4800511,0.5060366,0.00638985,-0.00910614,-2.06593,0.09,0.1,0.1,20.36,4
296058,360863930,0,-0.54,-0.03,327.21,-0.00667602,-0.1003729,0.1160154,0.01581959,155.1367,239.8656,2.233098,0.23,0.23,0.3,20.36,3
110773,154763903,0,3.23,-29.81,333.35,0.5654598,-0.1933917,-0.00963331,-0.03779171,20.937,-13.1888,-21.38124,0.08,0.25,0.13,20.36,1
255217,315463764,0,-1.76,1.88,154.55,-0.3460968,0.9290386,-0.0251209,-0.05145633,218.1668,200.7303,-19.70657,0.29,0.29,0.13,20.36,0
66185,104763911,0,1.28,1.72,329.09,3.068818,-1.797052,-0.00497865,-0.00909315,61.72892,-37.95227,-20.37745,0.06,0.06,0.04,20.36,0
108814,152563950,0,2.66,-29.98,333.5,-0.08154087,0.3090181,-0.03799434,-0.05826686,18.80071,-11.57938,-21.27958,0.08,0.25,0.14,20.36,1
249367,308963865,0,9.38,12.45,181.33,-0.8140481,1.296076,0.3677949,-0.5086057,228.3983,193.4538,-19.46095,0.25,0.08,-0.15,20.36,0
162834,212764027,0,-6.53,-19.44,42.01,2.050337,2.110257,0.03602486,0.03752657,242.3805,-13.30484,-21.78767,0.12,0.2,0.13,20.36,0
226881,283963869,0,27.41,15.48,104.35,6.989842,3.883886,-0.6531085,-2.242735,258.9778,159.685,-22.68204,0.22,0.06,-0.14,20.36,2
78567,118563389,0,-0.67,-18.91,335.2,2.95892,-1.44966,-0.01398202,-0.01531239,86.89736,-54.46364,-20.28856,0.07,0.08,0.06,20.36,1
259362,320063590,0,0.64,4.14,158.08,-0.8313247,0.7743837,-0.1234525,-0.1142803,209.7391,205.1869,-19.42579,0.24,0.31,0.18,20.36,0
308540,374763368,0,-0.2,-0.18,317.72,0.03845411,-0.03885752,-0.02088129,-0.00699203,155.1436,239.9023,1.929122,0.19,0.22,0.3,20.36,3
438786,520964031,0,-0.08,-0.15,207.38,-0.02707554,0.00521485,-0.01457881,-0.0004994,-0.00145655,0.01317444,-0.0342732,0.08,0.08,0.1,20.36,4
107478,151063717,0,-0.33,-30.01,331.34,-0.6903738,0.7373005,-0.00887809,-0.02410204,17.16524,-10.34924,-21.22917,0.08,0.24,0.15,20.36,1
106499,149963324,0,2.92,-29.99,331.73,-1.195377,1.092088,-0.01616112,-0.03341344,15.94086,-9.425397,-21.19939,0.08,0.23,0.15,20.36,1
427690,507163720,0,-0.06,-0.15,207.9,-0.02544844,0.00471814,-0.00220094,0.03022529,0.00179076,0.01270733,-0.05302346,0.09,0.09,0.1,20.36,4
427612,507063760,0,-0.07,-0.15,207.91,-0.02564309,0.00488175,-0.00220269,0.03157937,0.001571,0.01273269,-0.05584598,0.09,0.09,0.1,20.36,4
189123,241964009,0,-30.37,2.87,88.43,-5.248207,5.289527,0.04191102,-0.8725918,246.5109,37.42417,-27.58271,0.19,0.12,0.11,20.36,2
22836,56663992,0,-0.03,-1.85,3.03,0.00699591,0.02941814,-2.303582,-2.351926,0.01550327,-0.01192518,-12.20919,0.01,0.02,-0.06,20.36,0
23015,56863912,0,-0.23,-1.51,2.96,0.00506532,0.02031506,-2.315569,-2.362232,0.01751303,-0.00936688,-12.68238,0.01,0.02,-0.06,20.36,0
377430,451263589,0,25.39,-8.66,205.84,-0.1806943,-9.482478,0.0081122,0.03716567,2.103992,165.5642,-19.84706,0.14,0.15,0.15,20.36,4
84973,125763841,0,-0.51,-31.49,329.34,6.374832,-3.360663,0.01625694,-0.04300675,36.01714,-21.22137,-20.65576,0.07,0.07,0.08,20.36,1
399112,475363945,0,0.69,0.98,207.67,-0.04187921,0.04035097,-0.02444141,-0.0250891,0.06784425,-0.1001164,-19.88936,0.1,0.13,0.14,20.36,4
210698,265963572,0,-27.39,11.07,88.2,-3.01791,4.234584,-0.2505245,-1.197623,248.0381,112.9488,-22.29193,0.21,0.12,0.05,20.36,2
268633,330363635,0,-1.49,1.99,150.32,-0.6366268,0.5906233,-0.00212469,-0.00018361,192.3024,215.6481,-18.99316,0.23,0.27,0.25,20.36,0
68531,107363704,0,1.81,-0.36,329.27,0.6038621,-0.3240336,0.03711402,0.03524695,66.20667,-40.58134,-20.3782,0.06,0.07,0.04,20.36,1
278631,341463360,0,1.34,-17.02,148.0,-1.495189,0.9849362,0.02467606,0.03911209,175.049,226.6214,-18.68319,0.22,0.25,0.3,20.36,0
164275,214363387,0,-0.54,1.87,40.4,2.246557,1.473482,-0.00038854,0.01103553,246.7795,-10.28174,-21.74788,0.14,0.19,0.13,20.36,0
356803,428363586,0,-1.91,3.43,206.8,-1.381269,-0.6117579,-0.01337582,0.00033367,22.63131,206.2797,-19.75443,0.16,0.17,0.18,20.36,0
414867,492863609,0,0.3,1.53,207.77,-0.02649188,-0.01053672,0.4791317,0.500106,0.00689742,0.02531343,-5.901074,0.09,0.11,0.11,20.36,4
153566,202463982,0,-3.4,-27.56,131.8,-6.219539,7.610101,0.02860031,0.01146514,277.8325,-78.02589,-21.72262,0.11,0.19,0.1,20.36,0
210248,265463772,0,-4.67,30.47,94.41,-0.5568978,5.546479,-0.9245686,-1.814343,250.7384,110.7858,-21.92646,0.21,0.12,0.06,20.36,2
412798,490563696,0,-1.55,0.07,207.73,-0.04085769,0.00331724,0.4922387,0.5076725,0.00548677,0.01932377,-7.063375,0.09,0.11,0.12,20.36,4
296322,361163810,0,-0.54,0.0,327.08,-0.02654257,-0.09851819,0.1067799,-0.00147024,155.1233,239.8603,2.235106,0.23,0.23,0.3,20.36,3
326820,395063578,0,-0.22,-0.07,295.22,-0.00369475,-0.02098776,-0.01211271,0.00029173,155.1097,239.9197,1.922895,0.17,0.18,0.25,20.36,3
88088,129263274,0,0.66,-28.28,329.29,2.646801,-0.4765891,-0.01297177,0.1292699,36.05832,-19.80028,-20.52909,0.06,-0.01,0.09,20.36,1
271694,333763941,0,1.08,2.19,155.01,-1.924415,1.104111,-0.01010276,0.00076496,185.7339,219.1533,-18.87644,0.23,0.26,0.26,20.36,0
123145,168663341,0,5.51,26.67,357.18,3.569726,-2.041284,0.01914411,0.00950653,518.0602,-267.704,-21.54906,0.09,0.17,0.1,20.36,0
438377,520463398,0,-0.08,-0.15,207.4,-0.02752756,0.0051265,-0.01448068,-0.00100152,-0.00193967,0.01304901,-0.03393363,0.08,0.08,0.1,20.36,4
7004,21963711,0,0.03,0.02,3.29,-0.01006597,0.01025377,-0.00700562,0.00194311,0.0,0.0,-0.01726629,0.0,0.0,-0.62,20.36,0
11805,27963810,0,0.05,0.03,2.61,-0.01767367,0.01729177,-0.0024548,0.00147564,0.0,0.0,-0.00844396,0.0,0.01,-0.35,20.36,0
154648,203663502,0,1.13,-28.34,126.18,-6.012465,7.858072,0.02609161,0.01107421,270.4927,-68.71247,-21.70274,0.11,0.19,0.1,20.36,0
300795,366163476,0,-0.37,-0.1,324.63,-0.04732798,-0.06782117,0.01298349,-0.03413029,155.0514,239.8765,2.108165,0.21,0.23,0.3,20.36,3
159240,208763961,0,-4.15,-12.17,103.01,-2.048617,7.237094,-0.01081433,-0.02796906,244.2378,-27.72874,-21.78408,0.12,0.2,0.11,20.36,0
252788,312764011,0,1.1,-5.36,159.39,-3.04264,1.254012,0.1874857,-0.01123276,223.0652,196.3179,-19.80833,0.31,0.24,0.09,20.36,0
225979,282963436,0,-25.46,-13.06,100.82,2.246439,1.508616,0.05620391,-1.530094,250.3345,155.4112,-21.54634,0.23,0.05,-0.16,20.36,2
109437,153263670,0,-0.91,-29.75,333.92,0.1409532,0.1120594,-0.02812955,-0.0493122,19.52956,-12.12557,-21.31707,0.08,0.25,0.14,20.36,1
221400,277863810,0,-31.1,-3.66,98.14,-3.208969,2.703899,1.546605,0.4900981,248.0609,143.4898,-20.18279,0.24,0.03,-0.19,20.36,2
167338,217763693,0,-1.92,1.41,33.15,0.1300507,0.03036626,0.1528432,0.1580134,250.0235,-8.22183,-21.51226,0.15,0.19,0.14,20.36,0
15893,48963740,0,0.1,0.09,1.4,0.00199028,-0.00166961,-0.00047521,-7.906e-05,0.00061074,-0.00054278,-0.00051875,0.01,0.02,-0.07,20.36,0
313673,380463587,0,-0.21,-0.13,312.09,0.02033131,-0.02867672,-0.01693074,-0.00030822,155.1305,239.9117,1.912698,0.18,0.2,0.29,20.36,3
212771,268263485,0,29.47,4.66,87.64,3.276028,3.093002,2.756836,1.764504,252.4768,115.1868,-18.95835,0.21,0.13,0.07,20.36,2
41844,77763882,0,0.17,-8.79,329.72,0.6717756,-0.3665218,-0.00667991,-0.01320182,9.318683,-5.772437,-20.09368,0.04,0.05,-0.01,20.36,0
267913,329563955,0,-1.67,3.55,150.23,-1.222241,0.9764935,-0.01864043,-0.0072071,193.0737,215.0552,-18.98867,0.23,0.27,0.24,20.36,0
21573,55263719,0,-0.2,-1.67,2.8,0.00552235,0.03014136,-2.187382,-2.237884,0.01337283,-0.02512597,-8.992192,0.01,0.02,-0.06,20.36,0
268722,330463595,0,1.43,3.87,150.24,-0.5728695,0.5467811,0.00013661,0.00181696,192.2359,215.698,-18.99301,0.23,0.27,0.25,20.36,0
93157,134963493,0,-1.21,-32.74,329.26,-3.108421,3.23637,-0.05335614,-0.1580259,20.18793,-9.129365,-20.73124,0.07,-0.02,0.12,20.36,1
406854,483963837,0,1.31,-1.1,207.67,-0.03921978,-0.01682311,0.4016753,0.4367819,0.00840825,0.02370523,-10.28743,0.09,0.12,0.13,20.36,4
44458,80663555,0,0.62,4.76,327.16,1.9941,-1.290394,0.00513738,0.00371759,16.26442,-10.11969,-20.09937,0.04,0.04,-0.01,20.36,0
240186,298763780,0,3.38,38.96,169.46,-5.265379,-0.1504049,9.459671,6.986334,242.8159,191.3133,-16.71505,0.25,0.06,-0.17,20.36,2
363919,436263758,0,-0.4,-12.03,207.12,-3.399301,-1.709432,-0.00442327,0.00112144,9.082836,200.5908,-19.78016,0.15,0.15,0.17,20.36,0
32566,67463837,0,-1.5,0.52,3.24,-0.0249763,0.02059078,-0.03161399,-0.00782957,-0.2628667,-0.1800211,-20.25998,0.03,0.03,-0.04,20.36,0
433702,514764012,0,-0.07,-0.16,207.63,-0.02821697,0.0018398,-0.01250357,-0.00148139,-0.00203863,0.01031716,-0.02624062,0.08,0.08,0.1,20.36,4
296862,361763570,0,-0.54,0.03,326.81,-0.06157433,-0.09341683,0.09232127,-0.01165963,155.0983,239.8606,2.23193,0.23,0.23,0.3,20.36,3
256930,317363837,0,-1.71,-13.47,160.52,-3.120489,1.519887,0.08948547,0.1495534,215.5075,201.9042,-19.56929,0.25,0.3,0.15,20.36,0
276107,338663647,0,1.01,1.8,145.93,-1.858513,1.429971,-0.01459273,-0.00728846,177.7901,224.537,-18.69631,0.23,0.25,0.29,20.36,0
314932,381863860,0,-0.21,-0.12,310.72,0.01799474,-0.02923688,-0.01597744,0.00030549,155.1274,239.9124,1.913005,0.18,0.2,0.29,20.36,3
345194,415463748,0,1.58,-8.3,197.53,-0.8913805,-0.3351434,-0.03625872,-0.00570899,49.45201,217.2325,-19.53915,0.16,0.18,0.2,20.36,0
261435,322363503,0,0.39,-16.0,158.05,-3.272905,1.384042,0.00704587,0.04571493,206.7222,206.504,-19.29215,0.22,0.29,0.19,20.36,0
15625,48663860,0,0.09,0.08,1.41,0.00245357,-0.00231992,-0.00045234,-0.00013803,0.00036584,-0.00032208,-0.00049658,0.01,0.02,-0.08,20.36,0
93782,135664046,0,-2.61,-29.15,329.01,-3.529296,3.434551,0.02603601,-0.1431118,18.57929,-8.471297,-20.8383,0.08,-0.01,0.12,20.36,1
295076,359763537,0,-0.99,8.2,329.1,0.3003725,0.2984862,-0.2599591,-0.4258181,155.1801,239.8972,2.251483,0.23,0.23,0.3,20.36,3
305390,371263935,0,-0.21,-0.21,321.13,0.04020555,-0.04047021,-0.01885949,-0.01811866,155.1346,239.8986,1.971732,0.19,0.23,0.3,20.36,3
237399,295663354,0,26.67,-16.54,124.28,4.060858,-0.4636305,-0.1034327,-1.40943,253.8766,184.1571,-19.70553,0.24,0.05,-0.18,20.36,2
216273,272163591,0,31.3,3.71,84.51,2.854265,3.899127,0.115476,-1.015994,254.9388,123.8544,-20.72552,0.2,0.14,0.07,20.36,2
62756,100963765,0,0.62,5.62,327.73,1.533599,-0.984755,-0.00935377,-0.00518018,54.8493,-33.90715,-20.05063,0.06,0.07,0.03,20.36,0
423240,502164054,0,-1.82,-0.58,207.89,-0.02983788,0.00983862,0.4766948,0.5031937,0.00687195,-0.01350098,-1.259577,0.09,0.1,0.1,20.36,4
137373,184463685,0,-0.33,-28.1,143.93,-8.052604,5.866071,0.01463727,-0.00518565,413.0522,-195.6984,-21.67284,0.09,0.16,0.1,20.36,0
219868,276163657,0,29.71,9.45,79.1,3.282446,3.839049,14.96079,9.874452,255.8455,137.5702,-12.28704,0.2,0.14,0.06,20.36,2
206739,261563666,0,-25.82,-12.31,65.5,-5.770224,3.634119,-0.3882878,-0.9657317,241.8079,99.31547,-23.98995,0.2,0.13,0.07,20.36,2
371578,444763690,0,3.3,-0.43,206.88,-0.04473925,-0.09011606,-0.00357007,0.00055537,2.574045,197.3303,-19.9444,0.14,0.15,0.16,20.36,0
12366,28663530,0,0.05,0.04,2.55,-0.01834957,0.01787548,-0.00214077,0.00133692,0.0,0.0,-0.00747501,0.0,0.01,-0.33,20.36,0
233175,290963568,0,23.71,21.3,94.38,1.865237,4.524573,3.294798,2.499849,255.5303,180.71,-19.06268,0.23,0.05,-0.18,20.36,2
376438,450164029,0,24.28,-11.94,204.37,-0.1501282,-8.753933,0.00337491,0.03678633,2.279065,175.8159,-19.89071,0.14,0.15,0.16,20.36,4
419550,498064028,0,-0.67,-1.64,207.86,-0.03005007,-0.00596767,0.4733395,0.4957528,0.00368292,0.00651287,-3.319579,0.09,0.1,0.11,20.36,4
388227,463263787,0,23.52,-10.11,205.33,-0.1482956,-9.939734,0.02037803,0.00367156,0.5927468,46.62322,-19.66752,0.11,0.14,0.15,20.36,4
47975,84563661,0,-1.67,-2.89,327.47,3.211464,-2.039637,0.00053136,-0.00502599,22.72244,-14.12159,-20.19676,0.04,0.04,0.0,20.36,0
284034,347463459,0,-1.04,-10.22,147.73,-3.194077,2.069261,-0.02126983,-0.01168237,164.0303,234.002,-18.70127,0.22,0.23,0.31,20.36,0
222931,279563963,0,25.07,12.15,93.79,3.58985,3.924841,0.5000162,-0.4712093,254.7534,147.1901,-18.73948,0.23,0.04,-0.15,20.36,2
176433,227863818,0,0.81,-23.0,90.28,-0.05717912,3.491354,-0.0292518,-0.0255516,250.1232,6.204088,-21.11788,0.16,0.18,0.15,20.36,0
133229,179863859,0,-0.7,-28.23,145.49,-8.194352,5.615595,0.00958524,-0.00942569,450.3722,-222.1091,-21.65578,0.08,0.16,0.11,20.36,0
390208,465463740,0,20.96,-10.6,205.28,-0.1686482,-9.702514,0.01865453,0.00172553,0.2953913,24.68483,-19.65729,0.11,0.14,0.15,20.36,4
405144,482063764,0,0.39,1.57,207.76,-0.03957174,0.0004261,1.448979,1.489889,0.01317869,0.02440745,-12.40084,0.1,0.12,0.13,20.36,4
329975,398563844,0,-24.62,20.73,248.96,-2.5255,2.216473,-1.860403,-1.799757,154.4217,240.427,0.9671636,0.17,0.18,0.24,20.36,0
44369,80563595,0,-1.37,1.62,327.21,2.113394,-1.355869,0.00795295,0.0058559,16.05119,-9.981293,-20.09984,0.04,0.04,-0.01,20.36,0
277278,339963960,0,-1.59,3.43,146.42,-0.7533195,0.6758208,-0.01270553,-0.00916356,176.0936,225.9279,-18.71457,0.23,0.25,0.29,20.36,0
266382,327863802,0,0.72,-3.25,151.59,-3.161071,1.882243,0.03092879,0.04968885,196.6365,212.3776,-19.00595,0.22,0.27,0.23,20.36,0
317455,384663573,0,-0.22,-0.11,307.51,0.01233699,-0.02880241,-0.01422562,0.0008185,155.122,239.9131,1.915101,0.18,0.2,0.28,20.36,3
341861,411763562,0,2.01,-11.22,197.28,-6.890728,-1.990284,-0.8469288,-0.8514168,62.20477,221.2372,-18.38127,0.17,0.18,0.2,20.36,0
70783,109863537,0,-2.0,2.46,327.62,2.583524,-1.651867,0.01365875,0.01474838,71.93594,-44.10875,-20.24998,0.06,0.07,0.05,20.36,1
358604,430363619,0,-0.4,-19.93,201.2,-1.843455,-0.7390624,-0.07392149,-0.05598276,20.74984,205.3921,-19.80844,0.16,0.17,0.18,20.36,0
83639,124263608,0,1.34,-27.96,330.39,5.570129,-2.805929,-0.04533847,-0.04846687,28.59288,-17.31732,-20.59779,0.07,0.08,0.07,20.36,1
281332,344463826,0,-1.56,4.35,147.82,-1.201926,0.9245762,-0.02332016,-0.00904825,168.1815,231.2985,-18.66263,0.23,0.24,0.3,20.36,0
422340,501163621,0,-1.67,0.24,207.85,-0.02538791,-0.00173252,0.4806063,0.504868,0.00650204,-0.01200903,-1.762008,0.09,0.1,0.1,20.36,4
275118,337564087,0,-0.95,-3.71,147.07,-3.009536,2.055032,0.01688414,0.02782258,180.4042,222.499,-18.70905,0.22,0.24,0.28,20.36,0
175983,227364018,0,-0.48,-16.98,89.85,-0.03617221,2.253482,-0.04000985,-0.03240531,250.1427,4.840695,-21.10289,0.16,0.19,0.15,20.36,0
157618,206963848,0,-12.12,-29.29,126.84,-5.645051,8.130198,-0.03311204,-0.04598577,250.8896,-42.38136,-21.68597,0.12,0.19,0.11,20.36,0
175264,226563505,0,-0.06,1.1,87.74,-0.01826528,0.8539413,-0.01978907,-0.01781935,250.1707,3.779577,-21.08101,0.16,0.19,0.15,20.36,0
382831,457263688,0,26.66,-11.76,204.45,-0.1457772,-9.896494,0.03356408,0.01850956,1.353885,106.5491,-19.66983,0.12,0.15,0.16,20.36,4
356351,427863786,0,1.28,2.96,207.37,-1.866743,-0.8582934,0.000961,0.01393548,23.4683,206.6808,-19.75758,0.16,0.17,0.18,20.36,0
271874,333963861,0,1.19,2.54,155.23,-1.703749,1.010722,-0.01317365,-0.00311008,185.3586,219.3831,-18.87655,0.23,0.26,0.27,20.36,0
29145,63663691,0,-1.49,-0.07,3.29,-0.04511068,-0.0204111,-0.05757901,-0.00803005,-0.2486912,-0.1234966,-20.22931,0.02,0.02,-0.05,20.36,0
387507,462463274,0,23.83,-9.15,205.92,-0.1441628,-9.943458,0.00384375,-0.01019106,0.6921971,54.62387,-19.6675,0.11,0.14,0.16,20.36,4
58430,96164019,0,-0.83,5.66,322.31,1.427378,-1.080353,-0.0136506,-0.00840413,45.7597,-27.98213,-20.09962,0.05,0.06,0.02,20.36,0
437475,519363838,0,-0.08,-0.16,207.44,-0.02753019,0.00454818,-0.01435541,-0.00067378,-0.00171807,0.01257813,-0.03286842,0.08,0.08,0.1,20.36,4
163644,213663667,0,0.7,-1.0,31.74,2.957626,2.039557,0.01368549,0.02293782,244.8571,-11.46114,-21.76368,0.13,0.19,0.13,20.36,0
238561,296963667,0,20.83,-20.16,224.11,-1.645169,3.077869,0.6466131,-0.472057,252.1867,189.1528,-19.94573,0.24,0.05,-0.18,20.36,2
196310,249963308,0,-31.55,0.46,90.52,-3.61821,4.186261,-0.4031647,-0.6077487,245.8966,58.2779,-20.19154,0.19,0.14,0.11,20.36,2
44277,80463635,0,0.79,4.28,327.25,2.22032,-1.423996,0.0090409,0.00622412,15.82513,-9.835037,-20.10046,0.04,0.04,-0.01,20.36,0
168148,218663333,0,1.46,-0.23,33.8,0.06449128,-0.02569946,-0.00135768,0.00874176,250.0734,-8.219544,-21.45271,0.15,0.19,0.14,20.36,0
340513,410263329,0,0.17,-12.86,193.28,-7.776478,-1.710912,-1.257705,-1.278154,73.50938,224.2495,-16.94646,0.17,0.18,0.2,20.36,0
10045,25763857,0,0.04,0.03,2.84,-0.01510881,0.01512953,-0.00394449,0.00138284,0.0,0.0,-0.01146335,0.0,0.0,-0.42,20.36,0
101253,144064018,0,-0.88,-31.09,329.01,-3.831749,3.2294,0.150328,0.02480708,11.31887,-5.170124,-21.15256,0.08,0.15,0.16,20.36,1
210519,265763652,0,-20.93,20.21,90.6,-2.342078,4.95926,-0.6127701,-1.546708,249.1172,112.3578,-22.20847,0.21,0.12,0.05,20.36,2
113084,157363696,0,3.51,-30.17,334.13,1.061484,-0.5379289,0.0399007,0.00741204,22.85208,-14.63791,-21.44487,0.08,0.24,0.12,20.36,1
401543,478063698,0,0.87,-1.19,207.62,-0.02711213,0.04762178,1.564089,1.58733,0.01844825,-0.00961956,-18.46121,0.1,0.13,0.14,20.36,4
419821,498363908,0,0.39,1.35,207.91,-0.02387466,-0.00565836,0.4744735,0.4976839,0.0038939,0.005823,-3.170296,0.09,0.1,0.11,20.36,4
232453,290163888,0,25.52,-12.07,89.18,1.198455,1.181071,1.660546,0.6752124,252.7716,176.9346,-21.24466,0.23,0.05,-0.18,20.36,2
90399,131863900,0,-0.82,-28.35,329.45,-0.2082522,1.949476,-0.224182,-0.01778422,28.44468,-13.67847,-20.34317,0.06,-0.04,0.1,20.36,1
366438,439063471,0,1.54,3.22,206.55,-0.7552088,-0.3299958,-0.02267777,-0.01464582,3.226079,197.7471,-19.7891,0.15,0.16,0.16,20.36,0
436654,518363405,0,-0.07,-0.16,207.49,-0.02761396,0.00420704,-0.01416285,-0.0008103,-0.00178596,0.01212356,-0.03177905,0.08,0.08,0.1,20.36,4
154466,203463582,0,1.28,-28.34,125.44,-6.029868,7.820462,0.02868272,0.01237613,271.6951,-70.28356,-21.70578,0.11,0.19,0.1,20.36,0
71773,110963930,0,1.76,2.38,327.31,1.441306,-0.942731,-0.00432336,-0.00144564,74.0969,-45.51479,-20.2466,0.06,0.07,0.05,20.36,1
195320,248863748,0,0.77,-10.41,88.93,-2.02122,4.800469,-0.03219802,-0.1644719,251.9625,54.43777,-19.35965,0.19,0.14,0.11,20.36,2
351226,422163567,0,1.07,1.51,195.4,-2.63565,-0.6375524,-0.01516101,0.00234125,34.17285,211.0899,-19.53576,0.16,0.17,0.19,20.36,0
206470,261263786,0,-25.97,-5.28,70.36,-6.486801,4.61734,-0.8146255,-1.400766,243.4048,98.92513,-23.76973,0.2,0.13,0.06,20.36,2
155278,204364055,0,-1.36,-31.35,128.1,-5.967793,7.941974,0.02782661,0.01505306,266.3093,-63.1619,-21.69476,0.12,0.19,0.11,20.36,0
269715,331563988,0,-0.32,-19.92,155.08,-1.663823,0.878316,0.0695379,0.08193302,191.367,216.1631,-18.93493,0.22,0.26,0.25,20.36,0
136564,183564045,0,1.65,-31.29,143.39,-8.057174,5.809635,0.02241651,0.00268026,420.306,-200.9989,-21.67254,0.09,0.16,0.1,20.36,0
119668,164764068,0,3.48,-29.75,334.71,1.221372,-0.7217456,-0.00297246,-0.02549088,25.16106,-16.12583,-21.48303,0.08,0.19,0.1,20.36,1
303314,368964022,0,-0.25,-0.19,322.89,0.01668373,-0.04983076,-0.0105975,-0.02577092,155.1048,239.8891,2.022731,0.2,0.23,0.3,20.36,3
333127,402063277,0,-5.66,-21.45,191.23,-4.767725,-2.428628,-1.447892,-1.472153,147.0106,240.3457,-5.694703,0.16,0.16,0.22,20.36,0
285655,349263572,0,1.13,2.39,147.29,-1.361752,1.010207,-0.01432144,-0.00072211,159.8727,236.9264,-18.69201,0.22,0.24,0.31,20.36,0
410187,487664023,0,0.13,-1.74,207.73,-0.03179558,-0.01455315,0.4924907,0.5027912,0.0167691,0.01272374,-8.527929,0.09,0.11,0.12,20.36,4
6924,21863751,0,0.03,0.02,3.3,-0.00996281,0.01013172,-0.00707037,0.0020209,0.0,0.0,-0.01745656,0.0,0.0,-0.63,20.36,0
373378,446763723,0,13.52,-5.25,206.49,-0.03093006,-2.297148,-0.00920084,0.00677862,2.562498,195.504,-19.95312,0.15,0.15,0.15,20.36,4
430615,510863906,0,-0.06,-0.16,207.78,-0.02709853,0.00101479,-0.00813843,6.742e-05,-0.00113725,0.01044735,-0.02153034,0.08,0.09,0.1,20.36,4
227331,284463669,0,28.44,9.71,121.47,7.167705,3.945896,0.3449807,-1.219322,263.3425,161.6879,-23.05715,0.22,0.06,-0.14,20.36,2
225448,282363676,0,-25.0,-16.13,100.89,-1.100849,0.5448862,0.654308,-0.8992928,247.3468,154.6386,-21.20149,0.23,0.04,-0.18,20.36,2
249545,309163785,0,9.56,12.67,181.2,-0.6052761,1.129238,0.2567777,-0.6138986,228.0408,193.777,-19.45694,0.25,0.08,-0.15,20.36,0
106235,149663444,0,-0.48,-30.24,331.39,-1.326424,1.186981,-0.0126663,-0.03050825,15.61201,-9.170321,-21.18995,0.08,0.23,0.15,20.36,1
86930,127963794,0,-0.39,-31.52,328.83,4.329027,-1.879318,0.09601907,0.07697622,38.78604,-22.21721,-20.67774,0.06,0.01,0.08,20.36,1
66005,104563991,0,1.25,0.11,329.05,3.304813,-1.945307,-0.02477114,-0.03090562,61.08979,-37.57189,-20.37379,0.06,0.06,0.04,20.36,0
361845,433963845,0,1.31,3.37,200.87,-0.8351477,-0.2742148,-0.00262177,0.0062144,12.58652,202.3319,-19.82671,0.15,0.16,0.17,20.36,0
148802,197163603,0,-4.25,-30.87,138.27,-7.206196,6.813049,0.00923524,-0.00888638,314.7332,-115.76,-21.6841,0.11,0.18,0.1,20.36,0
143578,191363424,0,1.01,-31.48,141.46,-7.819855,6.140985,0.01800246,-0.00759301,358.3601,-153.7548,-21.71102,0.1,0.17,0.1,20.36,0
171481,222363519,0,11.91,-10.77,43.12,0.00879146,1.707281,0.2335933,0.2304309,250.1355,-7.740976,-21.29987,0.15,0.18,0.15,20.36,0
349607,420363454,0,-1.68,-19.84,198.15,-1.857732,-0.6251076,0.04336656,0.0603532,39.46714,212.5262,-19.57579,0.16,0.17,0.19,20.36,0
44817,81063395,0,0.74,5.34,327.31,1.576139,-1.015071,-1.8e-06,-0.00249238,17.01328,-10.60674,-20.09943,0.04,0.05,-0.01,20.36,0
77587,117463829,0,1.3,-4.8,323.1,0.8015528,-0.4453994,-0.02080776,-0.02158466,84.71236,-53.36153,-20.2629,0.07,0.08,0.06,20.36,1
406946,484063797,0,-1.49,1.05,207.73,-0.03968519,-0.01139869,0.3868089,0.4186288,0.00785664,0.02336002,-10.24508,0.1,0.12,0.13,20.36,4
245856,305063759,0,17.59,8.08,197.14,-0.6307127,0.211099,-1.23286,-1.968912,234.925,187.9119,-19.9576,0.25,0.0,-0.29,20.36,0
203502,257963440,0,-25.83,-12.79,82.78,-1.245277,2.644516,0.1747883,-1.008967,246.6126,84.16684,-21.04461,0.2,0.13,0.08,20.36,2
18146,51463573,0,0.15,-1.56,0.39,0.01169738,-0.01024927,-1.352977,-1.427289,0.01420479,-0.01360226,-1.493096,0.01,0.02,-0.06,20.36,0
307192,373263968,0,-0.2,-0.2,319.21,0.04150593,-0.04092043,-0.0210328,-0.01140893,155.144,239.8998,1.942795,0.19,0.22,0.3,20.36,3
183099,235263357,0,-1.26,7.2,90.72,-0.4564522,3.685141,0.3485769,0.2643762,249.9567,29.89186,-22.98934,0.18,0.12,0.13,20.36,0
48605,85263381,0,1.21,3.38,327.34,2.397476,-1.527503,0.01261303,0.01094954,24.70766,-15.3949,-20.1908,0.04,0.04,0.0,20.36,0
58612,96363939,0,-0.56,5.44,322.65,1.247658,-0.9340737,-0.0127857,-0.00839303,46.04792,-28.20123,-20.10137,0.05,0.06,0.02,20.36,0
192625,245863282,0,-28.25,-3.08,90.35,-5.279254,3.968971,3.112984,2.866948,250.1964,41.90913,-23.8292,0.19,0.13,0.11,20.36,2
134490,181263299,0,-0.51,-28.32,145.26,-8.195395,5.596526,0.01179208,-0.00783868,438.945,-214.2331,-21.66734,0.09,0.16,0.11,20.36,0
126477,172363527,0,3.03,-30.64,146.29,-5.966042,4.124388,-0.04037889,-0.06725837,509.4155,-261.2873,-21.56036,0.08,0.16,0.11,20.36,0
274487,336863534,0,0.14,-21.63,144.66,-2.31774,1.496207,0.08975544,0.1078394,182.2529,221.2338,-18.75079,0.22,0.25,0.28,20.36,0
352490,423563840,0,1.73,3.66,194.2,-1.15273,-0.2537673,-0.01855967,-0.00890421,31.49098,210.4698,-19.54817,0.16,0.17,0.19,20.36,0
175893,227264058,0,0.62,-20.17,89.49,-0.04684548,1.995568,-0.03672383,-0.02953525,250.1464,4.640457,-21.0998,0.16,0.19,0.16,20.36,0
147363,195563410,0,0.76,-31.69,138.09,-7.475158,6.584817,0.02918204,0.00949273,326.6527,-126.4135,-21.6868,0.11,0.18,0.1,20.36,0
35624,70863310,0,-1.07,1.22,3.16,-0.01246023,0.0039875,-0.01341096,-0.00543728,-0.2759216,-0.1691208,-20.27765,0.03,0.03,-0.03,20.36,0
325020,393063545,0,-0.22,-0.08,297.56,0.00152349,-0.02416949,-0.01222978,0.00029555,155.1114,239.9184,1.922078,0.18,0.18,0.26,20.36,3
95027,137063486,0,-0.93,-29.47,329.22,-4.04915,3.902064,0.1590294,-0.09895012,15.91364,-7.269476,-21.01099,0.08,0.0,0.13,20.36,1
64651,103063758,0,-0.66,-19.39,328.75,1.544946,-0.8616322,-0.2161026,-0.2090593,56.91641,-35.14964,-20.18159,0.06,0.07,0.03,20.36,0
185077,237463310,0,-9.94,-10.36,92.37,1.460238,-3.160794,-2.656014,-2.941934,252.2295,26.49359,-26.41905,0.18,0.12,0.12,20.36,0
63029,101263645,0,-0.74,2.58,327.56,1.25606,-0.7965996,-0.01042525,-0.00746055,55.29242,-34.19354,-20.05265,0.06,0.07,0.03,20.36,0
97961,140363832,0,2.73,-31.4,328.92,-4.601899,4.217811,0.2695774,-0.00461231,12.0285,-4.948886,-21.19635,0.08,0.07,0.15,20.36,1
225717,282663556,0,-27.25,-13.29,99.87,0.4299579,0.8001513,0.1887731,-1.331331,248.5293,154.789,-21.34355,0.23,0.04,-0.17,20.36,2
42203,78163722,0,-0.32,-19.41,327.58,1.371889,-0.7996063,-0.00713374,-0.01390091,9.703988,-5.991638,-20.09954,0.04,0.04,-0.01,20.36,0
438623,520763278,0,-0.08,-0.15,207.39,-0.02718725,0.00517113,-0.01454308,-0.00047513,-0.00151342,0.01311141,-0.03410919,0.08,0.08,0.1,20.36,4
212140,267563765,0,-1.21,-30.04,93.11,1.442298,0.9577533,2.579819,1.36421,248.8875,112.8548,-20.54849,0.21,0.13,0.07,20.36,2
189035,241864049,0,-27.34,2.01,88.7,-5.535521,5.582371,16.92325,11.84899,246.4699,37.46817,-16.59075,0.18,0.12,0.11,20.36,2
11246,27264090,0,0.05,0.03,2.68,-0.01686769,0.01677081,-0.00298183,0.00138035,0.0,0.0,-0.00944839,0.0,0.01,-0.37,20.36,0
380222,454364015,0,26.89,-9.56,205.55,-0.1617167,-9.802291,0.03589832,0.03091466,1.701593,135.2459,-19.73463,0.13,0.15,0.16,20.36,4
340602,410363289,0,1.83,-18.19,193.21,-7.649784,-1.70872,-1.171346,-1.188475,72.73021,224.0694,-17.06948,0.17,0.18,0.2,20.36,0
25178,59263785,0,-0.4,-1.19,3.47,-0.01027353,0.00518155,-1.856144,-1.914608,0.02883747,-0.0291518,-18.28492,0.02,0.02,-0.05,20.36,0
230833,288363775,0,-19.7,14.41,86.36,-5.824414,6.044549,-1.582622,-2.324003,250.5304,177.6603,-19.64944,0.23,0.03,-0.2,20.36,2
71864,111063890,0,-1.33,2.8,327.35,1.366697,-0.8917595,-0.00347763,-0.00070012,74.23542,-45.60694,-20.24674,0.06,0.07,0.05,20.36,1
276376,338963527,0,-1.45,4.31,145.58,-1.554151,1.244439,-0.02259778,-0.01593438,177.2712,224.9636,-18.70005,0.23,0.25,0.29,20.36,0
107567,151163677,0,3.2,-30.38,331.3,-0.6533594,0.7134656,-0.0116888,-0.02686047,17.27717,-10.43222,-21.23171,0.08,0.24,0.15,20.36,1
322499,390263832,0,-0.22,-0.08,300.85,0.00083516,-0.02308436,-0.01280801,0.00046802,155.1128,239.9169,1.92002,0.18,0.19,0.27,20.36,3
195590,249163628,0,-29.46,-1.3,89.7,-3.930131,4.47568,-0.2549839,-0.4098764,249.8547,55.47275,-19.55351,0.19,0.14,0.11,20.36,2
387865,462863947,0,23.68,-9.69,205.58,-0.1422397,-9.924148,0.01635977,0.00117472,0.6430891,50.62174,-19.66898,0.11,0.14,0.16,20.36,4
207644,262563266,0,-26.33,-15.07,81.36,-1.228361,1.963686,1.476546,1.024059,241.8212,99.91349,-23.39428,0.19,0.14,0.09,20.36,2
141867,189463351,0,0.18,-28.12,141.69,-7.824692,6.152105,0.01429709,-0.00551771,373.2465,-165.5501,-21.6955,0.1,0.17,0.1,20.36,0
380491,454663895,0,23.69,-11.07,204.86,-0.1579687,-9.826382,0.03909089,0.03210722,1.667504,132.2787,-19.72514,0.13,0.15,0.16,20.36,4
183821,236063870,0,-13.84,28.9,87.02,-0.4847284,2.46358,-0.7263845,-0.8147221,249.9931,30.91203,-23.27386,0.18,0.12,0.13,20.36,0
305299,371163975,0,-0.21,-0.21,321.22,0.04021453,-0.04004849,-0.01862642,-0.01773535,155.1335,239.899,1.973645,0.19,0.23,0.3,20.36,3
60052,97963299,0,0.57,-15.34,324.59,1.180713,-0.7437519,0.02993297,0.03006306,47.45145,-29.19747,-20.09196,0.05,0.06,0.02,20.36,0
248016,307463632,0,13.7,-6.9,182.67,-2.099305,-0.2335399,0.873728,0.2550888,232.4983,189.3954,-20.19295,0.25,0.05,-0.2,20.36,0
419459,497964068,0,0.51,1.21,207.82,-0.02733013,-0.00052379,0.472991,0.4952685,0.00424094,0.00672186,-3.369093,0.09,0.1,0.11,20.36,4
284844,348363932,0,-0.59,4.0,147.2,-2.288266,1.591317,-0.00093925,0.01187419,161.5669,235.7047,-18.70048,0.22,0.23,0.31,20.36,0
297842,362863963,0,-0.53,0.05,326.28,-0.09820175,-0.08748036,0.06785844,-0.02159387,155.0569,239.8645,2.213157,0.22,0.23,0.3,20.36,3
277640,340363800,0,-1.67,2.5,146.21,-0.5268029,0.4928758,-0.00293335,0.00162854,175.82,226.1423,-18.71608,0.23,0.25,0.29,20.36,0
42114,78063762,0,-0.13,-15.0,328.11,1.14784,-0.6628254,-0.00949442,-0.01604703,9.582849,-5.921291,-20.09806,0.04,0.05,-0.01,20.36,0
180306,232163764,0,-2.6,-17.14,91.17,-0.7841226,1.962658,0.1206241,-0.00190268,249.7981,18.85933,-23.16385,0.19,0.12,0.13,20.36,0
308901,375164041,0,-0.2,-0.18,317.32,0.03730912,-0.03966285,-0.0206477,-0.00601555,155.1428,239.9024,1.926399,0.19,0.22,0.3,20.36,3
155998,205163735,0,0.1,-31.12,126.29,-5.943478,7.940192,0.02559372,0.01374703,261.5603,-56.766,-21.68752,0.12,0.19,0.11,20.36,0
65735,104263278,0,-1.49,-10.05,329.22,3.533587,-2.061232,-0.06512836,-0.07346731,60.07724,-36.96878,-20.35846,0.06,0.06,0.04,20.36,0
54373,91663320,0,1.48,2.8,334.32,1.071107,-0.4802741,-0.01105262,-0.00859039,37.08157,-21.77951,-20.26452,0.05,0.06,0.01,20.36,0
18868,52264086,0,0.35,-1.66,0.92,-0.00870613,0.01061028,-1.687819,-1.741658,0.02531972,-0.02325134,-2.739007,0.02,0.02,-0.06,20.36,0
342313,412263362,0,-1.28,-4.89,196.84,-6.006658,-1.763198,-0.7747788,-0.7758197,58.96838,220.2732,-18.79102,0.17,0.18,0.2,20.36,0
370856,443964010,0,1.22,-0.28,206.92,-0.05071208,-0.01537214,0.00101571,0.00497353,2.586392,197.3507,-19.94899,0.14,0.15,0.16,20.36,0
152395,201163669,0,-0.17,-31.32,134.58,-6.998538,7.093611,0.01090432,-0.0089352,286.6386,-87.49722,-21.71979,0.11,0.19,0.1,20.36,0
404333,481163291,0,-0.9,-1.52,207.77,-0.0370767,0.00547611,1.439342,1.48404,0.01856126,0.01934926,-13.74158,0.1,0.12,0.13,20.36,4
5163,19663798,0,0.03,0.01,3.55,-0.00764284,0.00679478,-0.01035909,0.0029283,0.0,0.0,-0.02281938,0.0,0.0,-0.8,20.36,0
20043,53563566,0,0.6,1.86,3.98,-0.01638514,0.01013076,-2.049629,-2.105106,0.02214107,-0.03122443,-5.318096,0.02,0.02,-0.06,20.36,0
162211,212063474,0,-11.35,-5.07,92.02,0.425385,1.49108,0.06452519,0.05912463,241.5567,-14.49633,-21.82062,0.13,0.2,0.12,20.36,0
345464,415763628,0,0.98,-14.75,199.98,-1.353713,-0.5733612,-0.04421361,-0.00781497,49.15001,217.0997,-19.54115,0.16,0.18,0.2,20.36,0
191278,244363882,0,27.59,-5.76,91.41,0.6776247,3.255671,1.834031,1.369599,258.044,36.54192,-27.48987,0.18,0.13,0.12,20.36,2
151772,200463949,0,1.28,-27.91,134.3,-6.994006,7.094556,0.00377401,-0.01474522,291.5337,-92.49208,-21.71135,0.11,0.18,0.1,20.36,0
91470,133063420,0,-2.62,-28.21,329.01,-1.476867,2.504424,-0.2324493,-0.1302403,25.1185,-11.47746,-20.44892,0.07,-0.04,0.11,20.36,1
178329,229963811,0,9.27,4.11,85.74,-0.701236,4.984834,7.849068,7.011289,249.925,15.31536,-18.38771,0.17,0.17,0.16,20.36,0
263146,324263576,0,-1.74,3.62,157.15,-1.5295,0.9339622,-0.02969384,-0.00978051,202.0357,209.1617,-19.26989,0.23,0.29,0.21,20.36,0
224994,281863876,0,-29.01,-7.2,97.49,-3.475206,1.16875,0.2016017,-1.450844,246.6649,155.1011,-21.19851,0.23,0.03,-0.19,20.36,2
22023,55763519,0,0.43,1.74,3.48,-0.00466131,0.01002274,-2.234687,-2.281945,0.01378527,-0.02068631,-10.1228,0.01,0.02,-0.06,20.36,0
38508,74063696,0,5.19,-18.17,314.11,2.952567,-1.690976,0.05553187,0.06421559,1.66954,-1.308054,-20.12698,0.03,0.03,-0.01,20.36,0
231464,289063495,0,-29.64,-4.26,92.51,-3.172633,2.358413,-1.595226,-2.549557,250.025,177.4223,-21.3837,0.23,0.04,-0.19,20.36,2
123056,168563381,0,6.59,25.38,353.62,4.157313,-2.259043,0.02836324,0.01610499,517.6268,-267.4798,-21.55037,0.09,0.17,0.1,20.36,0
421351,500064061,0,1.26,-1.55,207.75,-0.02774895,-0.00810781,0.4752695,0.501942,0.00582355,-0.00462924,-2.318505,0.09,0.1,0.1,20.36,4
3237,17263925,0,0.02,0.01,3.72,-0.00531642,0.00404935,-0.01668392,0.00477542,0.0,0.0,-0.03169932,0.0,0.0,-1.07,0.0,0
371129,444263890,0,-1.82,-0.31,206.9,-0.0546424,-0.0150515,0.00568983,0.00880829,2.581924,197.3479,-19.94686,0.14,0.15,0.16,20.36,0
61134,99163652,0,0.13,-9.17,327.77,3.349547,-2.106818,0.00125679,0.00875942,50.25681,-30.94329,-20.06473,0.06,0.06,0.03,20.36,0
258730,319363870,0,-1.95,3.19,158.83,-1.388373,0.9990659,0.01298474,0.04498073,210.5845,204.6649,-19.39029,0.25,0.31,0.17,20.36,0
277821,340563720,0,-1.65,1.96,146.05,-0.4378389,0.4120382,-0.00030458,0.00486453,175.7143,226.2195,-18.71535,0.23,0.25,0.29,20.36,0
49233,85963934,0,-1.51,3.17,327.36,1.635034,-1.043496,0.00057886,-0.00161753,26.1899,-16.35217,-20.1883,0.04,0.05,0.0,20.36,0
307640,373763768,0,-0.2,-0.19,318.71,0.04167219,-0.04022171,-0.02101982,-0.00938629,155.144,239.9008,1.937632,0.19,0.22,0.3,20.36,3
263324,324463496,0,-1.76,3.16,157.16,-1.335923,0.8513796,-0.03006008,-0.01112152,201.7448,209.3476,-19.27209,0.23,0.29,0.21,20.36,0
73398,112764043,0,0.95,-15.46,325.51,1.049034,-0.6497319,-0.01083811,-0.00662731,75.77547,-46.57324,-20.25091,0.06,0.07,0.05,20.36,1
413517,491363376,0,-1.52,-0.72,207.8,-0.03538806,-0.00575941,0.489043,0.5067769,0.00229484,0.02044581,-6.656275,0.09,0.11,0.12,20.36,4
234968,292963601,0,-24.64,18.62,86.36,-4.474647,2.324511,0.3186953,-0.3436031,247.5009,188.6364,-16.29727,0.24,0.04,-0.21,20.36,2
272865,335063421,0,-1.79,2.82,154.75,-0.7720771,0.5550131,-0.01193341,-0.00893237,183.9516,220.2442,-18.88449,0.23,0.26,0.27,20.36,0
26441,60664058,0,-1.06,0.5,3.32,-0.02732941,0.00576606,-0.4859527,-0.5029597,0.02925639,-0.03934379,-19.92677,0.02,0.02,-0.05,20.36,0
245674,304863839,0,17.22,8.08,196.69,-1.538027,0.4224144,-1.402235,-2.137958,234.8359,187.7318,-19.66037,0.25,0.0,-0.29,20.36,0
307010,373064048,0,-0.2,-0.2,319.41,0.04296585,-0.04076972,-0.02096969,-0.01205778,155.1437,239.8996,1.945126,0.19,0.22,0.3,20.36,3
99383,141964025,0,3.13,-31.1,329.14,-4.406902,3.883984,0.23744,0.02065407,11.31067,-4.744399,-21.18335,0.08,0.1,0.15,20.36,1
173282,224363552,0,-0.75,3.0,83.37,-0.0095497,3.486183,0.02453201,0.03546135,250.1935,-0.8391505,-21.07903,0.16,0.18,0.15,20.36,0
233527,291363408,0,12.06,29.61,95.59,0.1854741,5.767173,3.18799,2.446376,255.2075,183.5747,-17.86587,0.23,0.05,-0.19,20.36,2
365179,437664031,0,0.92,2.07,207.02,-2.030112,-0.9234454,-0.01688527,-0.00570789,5.175269,198.6651,-19.77485,0.15,0.16,0.16,20.36,0
361037,433063372,0,-1.64,3.88,200.36,-1.605264,-0.5407963,0.00362995,0.0116005,13.69862,202.7336,-19.83287,0.16,0.16,0.17,20.36,0
294806,359463657,0,69.94,41.3,97.37,-0.2608275,-1.546343,1.09569,0.9987228,155.3317,240.1323,1.974359,0.23,0.23,0.3,20.36,3
373919,447363483,0,16.8,-6.96,205.98,-0.03928429,-3.54451,-0.01025291,0.00377473,2.545338,193.7924,-19.9505,0.15,0.14,0.16,20.36,4
91824,133463260,0,-2.33,-28.17,329.04,-1.867663,2.674893,-0.2010949,-0.1457968,24.05635,-10.88302,-20.50615,0.07,-0.04,0.11,20.36,1
412888,490663656,0,1.56,-0.07,207.74,-0.03473281,0.00291111,0.4929043,0.5086681,0.00410524,0.01973101,-7.012527,0.09,0.11,0.12,20.36,4
408116,485363277,0,1.56,-0.01,207.71,-0.02518407,-0.01125716,0.4785225,0.4780355,0.01650366,0.02674109,-9.67929,0.09,0.12,0.12,20.36,4
437966,519963598,0,-0.08,-0.15,207.42,-0.02744468,0.00487544,-0.01436673,-0.00041898,-0.00164557,0.01279276,-0.03343402,0.08,0.08,0.1,20.36,4
176793,228263658,0,-0.22,-22.32,89.74,-0.05109239,4.428834,-0.02445179,-0.02554677,250.1101,7.72425,-21.12867,0.16,0.18,0.15,20.36,0
79010,119064022,0,-0.92,-1.96,332.64,3.228516,-1.631003,-0.00110674,-0.00149594,88.63756,-55.31601,-20.29377,0.07,0.08,0.06,20.36,1
333580,402563910,0,-3.64,-28.93,187.82,-6.038727,-1.948574,-1.428871,-1.449535,144.3453,239.2192,-6.42678,0.16,0.16,0.21,20.36,0
329162,397663371,0,-0.23,-0.06,292.2,-0.00929943,-0.0167592,-0.01188872,0.00016318,155.1051,239.9232,1.923804,0.17,0.18,0.25,20.36,3
82748,123264008,0,1.96,-27.24,328.65,3.457724,-1.618909,-0.1811009,-0.1869804,24.10082,-15.10308,-20.49234,0.07,0.08,0.07,20.36,1
8764,24163664,0,0.04,0.02,3.02,-0.01292791,0.01323761,-0.00506937,0.00148823,0.0,0.0,-0.01368039,0.0,0.0,-0.49,20.36,0
412707,490463736,0,1.47,-0.45,207.73,-0.03496635,0.00727035,0.491936,0.5076799,0.00608817,0.01877222,-7.114109,0.09,0.11,0.12,20.36,4
382740,457163728,0,24.53,-8.57,206.0,-0.1549862,-9.885947,0.028976,0.01361534,1.365504,107.538,-19.6715,0.12,0.15,0.16,20.36,4
362118,434263725,0,-1.55,1.65,200.76,-0.6587977,-0.2099199,-0.00247592,0.00481251,12.36187,202.2484,-19.82537,0.15,0.16,0.17,20.36,0
193611,246963675,0,-17.09,-14.41,94.69,-1.197099,4.214561,2.709466,2.596998,248.9019,46.52356,-20.75853,0.19,0.14,0.12,20.36,2
335199,404364023,0,1.64,-27.55,190.88,-9.116095,-1.339861,-1.42773,-1.441957,130.1884,236.5155,-9.019341,0.17,0.16,0.21,20.36,0
113974,158363296,0,3.36,-29.74,334.54,1.188718,-0.6103323,0.04387457,0.01187287,23.43213,-15.02138,-21.42977,0.08,0.23,0.12,20.36,1
234518,292463801,0,-17.92,22.48,87.79,-4.234804,4.305357,0.7962524,0.1522408,249.8352,188.581,-16.3138,0.23,0.04,-0.2,20.36,2
243333,302264046,0,18.7,2.09,192.52,-3.320043,-0.06778735,1.820033,1.221139,242.713,185.9837,-17.37689,0.26,0.0,-0.31,20.36,0
41484,77364042,0,0.6,1.54,330.85,0.6547369,-0.3910598,-0.00396866,-0.00920888,9.060075,-5.623849,-20.08891,0.04,0.05,-0.01,20.36,0
362389,434563605,0,1.83,0.12,200.71,-0.5316325,-0.1802946,0.01229464,0.01830413,12.19121,202.181,-19.82284,0.15,0.16,0.17,20.36,0
311694,378263634,0,-0.2,-0.15,314.25,0.02651237,-0.03067157,-0.0187774,-0.00220494,155.1356,239.9077,1.914643,0.19,0.21,0.29,20.36,3
168417,218964046,0,-1.86,0.53,33.61,0.06946108,-0.02962645,-0.01207797,-0.00410167,250.0813,-8.227962,-21.45237,0.15,0.19,0.14,20.36,0
67264,105963431,0,1.42,4.73,329.4,1.657325,-0.9764077,-0.00366055,-0.00235743,64.6461,-39.68896,-20.37428,0.06,0.07,0.04,20.36,0
204945,259563633,0,29.05,4.91,76.41,2.443402,5.27514,-0.2155649,-0.6708961,253.9707,90.10744,-21.26469,0.19,0.14,0.09,20.36,2
89689,131063387,0,0.16,-28.37,329.27,0.5755134,1.292183,-0.1941605,0.04505157,30.77048,-15.47287,-20.35229,0.06,-0.03,0.09,20.36,1
145380,193363457,0,0.82,-31.89,137.55,-7.499413,6.538321,0.03556211,0.01261923,343.1184,-140.9933,-21.70328,0.1,0.18,0.1,20.36,0
290700,354863831,0,16.85,-6.91,342.11,0.2052749,-0.2485175,-0.5237041,-0.675668,154.4843,240.1729,1.655471,0.23,0.23,0.3,20.36,3
277189,339864000,0,1.55,3.22,146.42,-0.8150143,0.7220166,-0.01533737,-0.0123637,176.1785,225.8601,-18.71362,0.23,0.25,0.29,20.36,0
23557,57463672,0,-0.79,-1.22,3.12,-0.00299584,0.00473347,-2.343836,-2.38655,0.0206093,-0.0104533,-14.10576,0.01,0.02,-0.06,20.36,0
314843,381763900,0,-0.21,-0.12,310.82,0.01801783,-0.0281082,-0.0159997,0.00086642,155.1273,239.9127,1.913042,0.18,0.2,0.29,20.36,3
137102,184163805,0,1.18,-31.51,143.91,-8.059239,5.844144,0.01905432,-0.00100287,415.4678,-197.4687,-21.67219,0.09,0.16,0.1,20.36,0
207098,261963506,0,-25.38,-11.56,68.48,-3.998387,2.727662,0.4699457,-0.08448747,241.0184,99.55278,-23.96947,0.2,0.14,0.07,20.36,2
287367,351163645,0,37.27,25.76,309.34,-1.566126,1.776881,4.952166,4.855083,157.6103,238.5163,-16.38089,0.22,0.23,0.31,20.36,3
179405,231163331,0,0.68,0.81,95.01,-0.8752323,3.32396,0.03318164,-0.130852,249.5429,18.78934,-23.37479,0.18,0.13,0.14,20.36,0
286283,349963292,0,-1.84,3.71,147.15,-0.811354,0.6445867,-0.02156792,-0.00616171,159.0623,237.5066,-18.69397,0.22,0.24,0.31,20.36,0
177333,228863418,0,0.27,-6.03,89.23,0.0088619,4.573609,-0.00487867,-0.00976483,250.1208,10.43535,-21.1421,0.16,0.18,0.16,20.36,0
57982,95663386,0,0.86,2.21,321.82,1.938541,-1.474615,-0.00964625,-0.00132224,44.86724,-27.29624,-20.09651,0.05,0.06,0.02,20.36,0
382111,456464008,0,25.24,-11.74,204.47,-0.1673633,-9.885035,0.03157758,0.01683429,1.452985,114.4572,-19.68345,0.12,0.15,0.16,20.36,4
103831,146963691,0,3.35,-30.29,328.95,-2.611037,2.148837,0.0413751,0.00231893,13.00351,-6.966752,-21.09168,0.08,0.2,0.16,20.36,1
122604,168063581,0,-9.61,8.47,338.08,7.058841,-2.962909,0.03921891,0.02584138,514.3353,-266.0141,-21.56421,0.09,0.17,0.1,20.36,1
411628,489263383,0,1.1,-1.27,207.73,-0.03221541,0.00236622,0.4862897,0.5025051,0.01570428,0.00793553,-7.718273,0.09,0.11,0.12,20.36,4
69970,108963897,0,1.09,-12.98,327.35,3.289829,-2.055032,0.02743459,0.0294909,69.17006,-42.35312,-20.2713,0.06,0.07,0.05,20.36,1
245223,304364039,0,16.38,10.89,196.86,-2.845732,0.4388161,-1.567176,-2.257798,235.1079,187.1021,-18.77452,0.26,0.0,-0.3,20.36,0
368148,440963544,0,-0.64,-1.17,206.71,-0.1147206,-0.04745163,-0.057258,-0.04564515,2.619626,197.4086,-19.93925,0.15,0.16,0.16,20.36,0
14821,47763387,0,0.08,0.07,1.44,0.00113077,-0.00102478,-0.00039543,-3.456e-05,-0.00339623,0.00321583,-0.00043773,0.01,0.02,-0.08,20.36,0
409197,486563630,0,1.07,0.97,207.75,-0.02659143,-0.00524283,0.4962571,0.5043629,0.02012511,0.01590879,-9.082167,0.09,0.11,0.12,20.36,4
429668,509663553,0,-0.06,-0.16,207.82,-0.02669879,0.00178406,-0.00614335,0.0026394,-0.00064756,0.01116533,-0.02302699,0.09,0.09,0.1,20.36,4
82659,123164048,0,0.65,-30.8,328.89,3.164947,-1.45337,-0.1943122,-0.2006865,23.77058,-14.94953,-20.47309,0.07,0.08,0.07,20.36,1
196042,249663428,0,-27.68,0.44,92.3,-4.813866,4.378413,-0.3942342,-0.5828809,246.6143,57.23682,-19.95284,0.19,0.14,0.11,20.36,2
75719,115363836,0,0.94,1.25,322.26,1.976155,-1.500179,-0.00305832,0.00354178,82.31038,-51.46759,-20.25072,0.07,0.08,0.06,20.36,1
181298,233263324,0,-0.54,-11.1,90.95,-0.7302831,3.450597,0.3031836,0.1772738,249.7146,21.66501,-23.24146,0.19,0.12,0.13,20.36,0
36795,72163623,0,0.4,-1.75,3.27,-0.01392161,0.00598639,-0.0092787,-0.00492645,-0.2762055,-0.1734115,-20.28339,0.03,0.04,-0.02,20.36,0
185798,238263823,0,17.49,-27.57,80.39,2.84518,-3.537591,-1.824974,-2.2278,255.3411,22.60166,-28.78661,0.18,0.13,0.12,20.36,0
387687,462664027,0,23.33,-9.28,205.81,-0.1402709,-9.924734,0.00981002,-0.00542348,0.6674436,52.62594,-19.66899,0.11,0.14,0.16,20.36,4
341140,410963882,0,3.75,-24.06,194.17,-7.737315,-2.053616,-0.8885532,-0.9143117,68.11643,222.9164,-17.67843,0.17,0.18,0.2,20.36,0
36525,71863743,0,-0.43,1.42,3.27,-0.01483966,-0.0003413,-0.00944721,-0.00494153,-0.2758269,-0.1723572,-20.28188,0.03,0.04,-0.02,20.36,0
428799,508563993,0,-0.06,-0.16,207.86,-0.02614034,0.00276656,-0.00395658,0.00888768,0.00034129,0.01201218,-0.02902126,0.09,0.09,0.1,20.36,4
33375,68363477,0,1.64,-0.59,3.25,-0.04185398,0.02521753,-0.02374694,-0.00491328,-0.2693671,-0.176101,-20.26576,0.03,0.03,-0.04,20.36,0
110416,154364063,0,2.91,-30.07,332.89,0.4658571,-0.1088995,-0.01565579,-0.04270243,20.58067,-12.92035,-21.36574,0.08,0.25,0.13,20.36,1
154377,203363622,0,-1.24,-31.3,125.23,-6.049842,7.803289,0.03758026,0.02065958,272.2985,-71.06583,-21.70748,0.11,0.19,0.1,20.36,0
408387,485663990,0,-1.57,-0.93,207.64,-0.03171843,-0.02634903,0.4914799,0.4944268,0.01705349,0.02379164,-9.533229,0.09,0.12,0.12,20.36,4
218880,275063264,0,17.61,-11.86,89.45,1.946761,2.894604,4.092428,3.043939,250.8631,134.1004,-19.90052,0.2,0.15,0.07,20.36,2
134219,180963419,0,1.91,-31.2,145.2,-8.177486,5.590428,0.0147127,-0.00593813,441.3964,-215.9216,-21.66531,0.09,0.16,0.11,20.36,0
78209,118163549,0,0.65,-19.32,332.87,2.163741,-1.066526,-0.0215935,-0.02374776,85.75912,-53.91405,-20.28058,0.07,0.08,0.06,20.36,1
256841,317263877,0,0.01,-19.15,160.92,-2.972935,1.45416,0.1018032,0.1611732,215.8057,201.7715,-19.58487,0.25,0.3,0.15,20.36,0
238292,296663787,0,20.96,-23.15,206.86,-0.2385787,2.576625,0.6724594,-0.4815901,253.5217,187.6196,-19.91826,0.24,0.05,-0.18,20.36,2
111838,155963423,0,3.59,-29.81,332.9,0.8145294,-0.3863237,0.00086363,-0.03114988,21.90065,-13.92219,-21.42151,0.08,0.25,0.13,20.36,1
427297,506663920,0,-0.07,-0.15,207.92,-0.02570585,0.00513716,-0.00195941,0.01219409,0.00199894,0.0123971,-0.0664328,0.09,0.09,0.1,20.36,4
411717,489363343,0,-1.49,0.82,207.72,-0.0394803,0.0093134,0.4852033,0.5017952,0.01579363,0.00890696,-7.668108,0.09,0.11,0.12,20.36,4
425763,504963767,0,-0.07,-0.15,207.88,-0.02715585,0.00454114,0.01256366,0.06479155,0.0045716,0.00689382,-0.09498384,0.09,0.09,0.1,20.36,4
340332,410063409,0,-0.67,-11.48,193.27,-8.119675,-1.785897,-1.33955,-1.361149,75.11268,224.6152,-16.6804,0.17,0.18,0.2,20.36,0
122070,167463821,0,0.05,-29.84,335.57,0.938016,-0.5214213,-0.02171605,-0.03542617,507.7698,-263.7063,-21.54439,0.09,0.17,0.1,20.36,1
292487,356863864,0,81.23,23.18,176.9,1.313373,-0.8274605,0.7661235,0.8192394,155.142,240.5498,1.773782,0.23,0.23,0.3,20.36,3
12765,29163330,0,0.05,0.04,2.5,-0.01891014,0.01823534,-0.0018854,0.00130795,0.0,0.0,-0.00682194,0.0,0.01,-0.31,20.36,0
200089,254163294,0,-28.87,-4.06,83.92,-1.118425,4.381785,0.8574174,-0.3793257,248.1032,72.54115,-21.85767,0.2,0.13,0.09,20.36,2
364098,436463678,0,-0.27,-5.86,206.4,-3.351034,-1.673388,-0.00242617,0.00251941,8.431749,200.2606,-19.7797,0.15,0.15,0.17,20.36,0
116909,161663642,0,0.27,-29.02,334.25,1.430592,-0.7851472,0.03740672,0.00573964,24.80976,-15.86323,-21.39791,0.08,0.21,0.11,20.36,1
117532,162363362,0,3.71,-30.28,334.69,1.393498,-0.7810206,-0.00724545,-0.03748093,24.96936,-15.97408,-21.40913,0.08,0.21,0.11,20.36,1
241086,299763380,0,23.67,8.12,249.42,-4.185696,-2.167536,0.4563742,-0.9244082,239.6746,189.2655,-21.16209,0.26,0.01,-0.3,20.36,2
153206,202063309,0,-8.76,-26.03,133.77,-6.591644,7.361597,0.01389225,-0.0030509,280.3992,-81.03226,-21.72475,0.11,0.19,0.1,20.36,0
57259,94863706,0,0.93,-0.81,324.04,2.833439,-2.154178,0.01673691,0.02638053,42.90532,-25.77406,-20.10732,0.05,0.05,0.02,20.36,0
269354,331163315,0,-0.09,-13.58,151.28,-0.7475528,0.5053849,0.07418333,0.07680767,191.835,215.9431,-18.96743,0.22,0.27,0.25,20.36,0
413966,491864009,0,1.04,0.9,207.8,-0.02814456,-0.00513785,0.4846913,0.5041505,0.00354128,0.0206471,-6.403698,0.09,0.11,0.11,20.36,4
36075,71363943,0,1.1,-1.15,3.21,-0.01771751,0.00813493,-0.01084862,-0.00397657,-0.2747331,-0.1693118,-20.27958,0.03,0.03,-0.03,20.36,0
149971,198463916,0,0.35,-27.75,134.03,-7.010175,7.008084,0.0058759,-0.01192479,305.4986,-106.7121,-21.69514,0.11,0.18,0.1,20.36,0
2196,15963612,0,0.02,0.0,3.63,-0.00403251,0.00340608,-0.02264334,0.0069546,0.0,0.0,-0.03941692,0.0,0.0,-1.26,0.0,0
54283,91563360,0,-1.45,4.43,334.37,1.154613,-0.5270776,-0.00934842,-0.00578894,36.96249,-21.72525,-20.26373,0.05,0.06,0.01,20.36,0
356172,427663866,0,1.26,2.48,207.16,-2.078867,-0.9676473,0.00464816,0.01634548,23.87524,206.8763,-19.76076,0.16,0.17,0.18,20.36,0
9565,25163264,0,0.04,0.03,2.91,-0.01430546,0.01432722,-0.00439112,0.00135458,0.0,0.0,-0.01226206,0.0,0.0,-0.45,20.36,0
38327,73863776,0,2.68,-18.2,321.56,2.520729,-1.449683,0.07267768,0.08019217,1.140497,-0.997734,-20.14151,0.03,0.03,-0.01,20.36,0
353299,424463480,0,-1.38,1.17,194.16,-0.5508109,-0.1202431,-0.0129993,-0.00407476,30.73584,210.2803,-19.55279,0.16,0.17,0.19,20.36,0
87286,128363634,0,-1.4,-31.25,329.07,3.804937,-1.457732,0.07905056,0.1080859,38.16123,-21.62858,-20.64058,0.06,0.0,0.08,20.36,1
236048,294163954,0,-30.45,-0.14,90.01,-1.346596,-1.037816,-0.7107593,-1.945119,246.2095,186.0697,-17.4109,0.24,0.04,-0.2,20.36,2
435505,516963965,0,-0.07,-0.16,207.54,-0.02796034,0.0034885,-0.01373981,-0.00124424,-0.00194745,0.01143957,-0.02984093,0.08,0.08,0.1,20.36,4
386962,461863514,0,24.36,-8.82,205.88,-0.1503968,-9.939187,0.00708622,-0.00567468,0.771135,60.6257,-19.66444,0.11,0.14,0.16,20.36,4
312683,379364027,0,-0.21,-0.14,313.17,0.02396283,-0.02895129,-0.01785481,-0.00056716,155.1336,239.9104,1.913248,0.18,0.21,0.29,20.36,3
48332,84963501,0,-1.7,0.32,327.37,2.761893,-1.741716,0.01588348,0.01141159,23.91389,-14.88492,-20.19438,0.04,0.04,0.0,20.36,0
131698,178163706,0,1.17,-31.34,145.19,-8.183077,5.578959,0.02392575,0.00037483,464.2298,-231.6338,-21.64972,0.08,0.16,0.11,20.36,0
94225,136163846,0,0.98,-32.86,329.13,-3.753051,3.584862,0.07609252,-0.1335317,17.537,-8.037069,-20.9079,0.08,-0.01,0.12,20.36,1
84084,124763408,0,-0.49,-31.2,330.21,6.129408,-3.139256,-0.01731969,-0.02995412,31.22948,-18.67793,-20.61698,0.07,0.08,0.07,20.36,1
165986,216263460,0,1.56,3.5,34.85,0.5794481,0.4061823,0.00191373,-0.00294081,249.5463,-8.540187,-21.76422,0.15,0.19,0.14,20.36,0
153115,201963349,0,-9.95,-29.73,134.44,-6.751866,7.277674,0.01992799,0.00221886,281.0672,-81.76726,-21.72476,0.11,0.19,0.1,20.36,0
310071,376463521,0,-0.2,-0.16,316.03,0.03156632,-0.03599008,-0.01990158,-0.00433097,155.1402,239.9037,1.919625,0.19,0.21,0.29,20.36,3
66726,105363671,0,1.5,3.67,329.37,2.333598,-1.371075,0.00511922,0.00704,63.3909,-38.94173,-20.37565,0.06,0.07,0.04,20.36,0
276920,339563287,0,-1.58,3.87,146.15,-1.03607,0.881412,-0.02002119,-0.01484601,176.4724,225.6201,-18.70924,0.23,0.25,0.29,20.36,0
195230,248763788,0,9.99,-6.35,87.74,-1.414427,4.897027,0.1617189,0.03394356,252.5408,54.05056,-19.31692,0.19,0.14,0.11,20.36,2
234247,292163921,0,-12.81,29.91,88.42,-3.489522,5.238407,1.523799,0.8771423,251.5101,187.8949,-16.47982,0.23,0.04,-0.2,20.36,2
310162,376563481,0,-0.2,-0.16,315.93,0.0312998,-0.03492144,-0.01979326,-0.00357717,155.1396,239.9043,1.919307,0.19,0.21,0.29,20.36,3
128459,174563480,0,2.5,-30.94,145.99,-7.929816,5.044885,0.02661419,-0.00987979,493.6013,-250.8482,-21.62853,0.08,0.16,0.11,20.36,0
407754,484963437,0,1.6,-0.37,207.78,-0.02098126,-0.00667935,0.4544055,0.4520161,0.0137405,0.02642776,-9.866179,0.1,0.12,0.13,20.36,4
377157,450963709,0,25.08,-11.97,204.34,-0.180373,-9.380233,0.00726493,0.03944694,2.153265,168.436,-19.85839,0.14,0.15,0.15,20.36,4
255398,315663684,0,-1.64,1.5,154.44,-0.2645665,0.8442105,-0.03066687,-0.05240304,218.0385,200.8225,-19.71659,0.28,0.3,0.14,20.36,0
238203,296563827,0,19.26,-20.13,202.11,0.1718702,2.352096,0.6672003,-0.5036142,253.8602,187.111,-19.91885,0.24,0.05,-0.18,20.36,2
374278,447763323,0,18.31,-7.68,205.74,-0.04522958,-4.391627,-0.00914364,0.0062818,2.527522,192.2262,-19.94844,0.15,0.14,0.16,20.36,4
278179,340963560,0,-1.01,-8.98,146.09,-0.5224025,0.4080021,0.03569653,0.04226711,175.5295,226.339,-18.70517,0.22,0.25,0.29,20.36,0
46173,82563628,0,-0.89,-2.29,327.33,0.5634584,-0.303427,-0.03096589,-0.03645103,18.56205,-11.58155,-20.11101,0.04,0.05,-0.01,20.36,0
389217,464363347,0,26.84,-9.4,205.8,-0.1453048,-9.928588,0.02359943,0.00400328,0.4461238,35.62944,-19.6628,0.11,0.14,0.15,20.36,4
90223,131663980,0,-0.49,-28.29,329.38,-0.01213869,1.797447,-0.2211134,-0.00337759,29.01514,-14.11224,-20.34072,0.06,-0.04,0.1,20.36,1
49685,86463734,0,1.61,4.28,327.43,1.164774,-0.7397673,-0.00354294,-0.00698953,26.93647,-16.83101,-20.19092,0.04,0.05,0.0,20.36,0
220229,276563497,0,7.08,22.31,82.73,2.586199,4.486465,0.1031587,-0.5272551,256.1257,139.4439,-21.1071,0.23,0.06,-0.09,20.36,2
171030,221863719,0,12.42,-8.38,32.67,-0.0036844,0.4159817,0.2010677,0.1996188,250.1332,-8.236633,-21.41338,0.15,0.18,0.15,20.36,0
431011,511363706,0,-0.06,-0.16,207.76,-0.02724415,0.00077194,-0.00879586,-0.00028595,-0.0010116,0.0101719,-0.02159208,0.08,0.09,0.1,20.36,4
357073,428663466,0,1.5,3.88,206.35,-1.120408,-0.4828235,-0.02096963,-0.00635725,22.24366,206.0964,-19.7555,0.16,0.17,0.18,20.36,0
38690,74263616,0,4.14,-14.67,312.99,3.288379,-1.894259,0.03999609,0.04984267,2.278682,-1.665976,-20.11545,0.03,0.03,-0.01,20.36,0
438542,520663318,0,-0.08,-0.15,207.39,-0.02751563,0.00523455,-0.0145581,-0.00101596,-0.00190819,0.01313496,-0.03409902,0.08,0.08,0.1,20.36,4
110595,154563983,0,3.18,-29.76,333.13,0.5178592,-0.1567019,-0.01412061,-0.04106563,20.76065,-13.05582,-21.37356,0.08,0.25,0.13,20.36,1
421533,500263981,0,1.27,-1.03,207.78,-0.02412636,-0.01342516,0.4782716,0.5049799,0.0056146,-0.00642723,-2.217791,0.09,0.1,0.1,20.36,4
291335,355563551,0,0.82,0.03,61.75,-0.2423653,0.516273,-0.8096133,-0.9376496,154.9357,240.3889,1.859881,0.23,0.23,0.3,20.36,3
99029,141563352,0,2.68,-31.16,329.17,-4.498057,3.98947,0.2467001,0.00884303,11.42263,-4.741251,-21.19183,0.08,0.09,0.15,20.36,1
26352,60563265,0,1.22,1.64,3.34,-0.01425263,0.00617528,-0.5381775,-0.5601295,0.03013146,-0.03880033,-19.87386,0.02,0.02,-0.05,20.36,0
140248,187664071,0,-0.94,-28.12,142.08,-7.870724,6.101212,0.01015185,-0.01084453,387.3667,-176.6582,-21.68251,0.09,0.17,0.1,20.36,0
94582,136563686,0,0.92,-32.93,329.21,-3.896948,3.723519,0.1173685,-0.1195123,16.77774,-7.700056,-20.95753,0.08,0.0,0.13,20.36,1
75629,115263876,0,-1.42,3.69,322.33,2.076188,-1.58279,0.00041484,0.00701562,82.11111,-51.30965,-20.25128,0.07,0.08,0.06,20.36,1
287638,351463525,0,15.39,17.07,316.88,-1.446614,1.65093,5.949008,5.954927,157.2202,238.991,-14.74398,0.22,0.23,0.31,20.36,3
24277,58263352,0,-0.44,-1.43,3.19,0.00386836,-0.00389754,-2.374874,-2.419372,0.02521282,-0.01729975,-16.02897,0.02,0.02,-0.06,20.36,0
358874,430663499,0,0.71,-18.13,199.37,-2.544574,-1.012027,-0.06100544,-0.04589064,20.13966,205.1364,-19.82393,0.16,0.16,0.18,20.36,0
295791,360564050,0,-0.51,-0.07,327.42,0.02451681,-0.07993294,0.1056554,-0.00178876,155.15,239.8787,2.227847,0.23,0.23,0.3,20.36,3
351137,422063607,0,-1.8,2.8,195.58,-2.766176,-0.6722779,-0.01295745,0.0034939,34.4488,211.1564,-19.53615,0.16,0.17,0.19,20.36,0
313853,380663507,0,-0.21,-0.13,311.89,0.02137985,-0.02846387,-0.01684355,-0.00032131,155.1301,239.9118,1.912687,0.18,0.2,0.29,20.36,3
388588,463663627,0,23.61,-10.54,205.11,-0.1490438,-9.938947,0.02137121,0.00396583,0.53995,42.62448,-19.6664,0.11,0.14,0.15,20.36,4
148713,197063643,0,-3.74,-27.33,138.21,-7.26042,6.773311,0.00432017,-0.01354083,315.4583,-116.4419,-21.68275,0.11,0.18,0.1,20.36,0
355721,427164066,0,-1.81,2.47,205.38,-2.651713,-1.269782,-0.00048642,0.00992904,25.08183,207.4628,-19.76845,0.16,0.17,0.18,20.36,0
39229,74863376,0,-0.97,1.22,328.41,3.207335,-1.855414,0.019596,0.03381198,4.290916,-2.830211,-20.09239,0.03,0.03,-0.01,20.36,0
333489,402463950,0,-5.4,-24.72,187.62,-5.781857,-2.031637,-1.436208,-1.457353,144.9292,239.4262,-6.281417,0.16,0.16,0.21,20.36,0
435835,517363805,0,-0.07,-0.16,207.53,-0.02779712,0.00370659,-0.01391278,-0.001204,-0.00189672,0.01167692,-0.03041928,0.08,0.08,0.1,20.36,4
206107,260863946,0,-20.55,13.61,81.89,-5.589157,5.682446,-1.487054,-2.055216,246.6189,97.71706,-23.18785,0.2,0.13,0.06,20.36,2
115486,160063449,0,0.1,-30.0,334.34,1.356707,-0.7122779,0.04084801,0.00608864,24.2244,-15.51152,-21.41148,0.08,0.23,0.11,20.36,1
348706,419363854,0,-1.06,2.48,205.39,-1.021438,-0.5073476,-0.01120369,-0.00437026,40.58406,213.0125,-19.61394,0.16,0.17,0.2,20.36,0
170038,220763326,0,-1.18,0.77,33.59,0.0487405,-0.0031314,-0.0016574,0.00341367,250.1172,-8.281142,-21.4568,0.15,0.19,0.15,20.36,0
201350,255563567,0,32.26,-0.9,78.98,3.146029,3.761225,1.789245,0.701696,253.5305,76.22361,-20.46098,0.19,0.13,0.09,20.36,2
369503,442463777,0,-1.14,1.03,206.79,-0.07308708,-0.01751174,-0.01024116,0.0051908,2.604489,197.3697,-19.95085,0.15,0.15,0.16,20.36,0
24997,59063865,0,-0.34,-1.26,3.42,-0.00863357,0.0009987,-2.043928,-2.100565,0.02907201,-0.02728054,-17.88315,0.02,0.02,-0.05,20.36,0
201170,255363647,0,32.66,-3.49,80.15,3.319407,3.398277,1.776172,0.6584165,252.8009,75.46877,-20.70148,0.19,0.13,0.09,20.36,2
76787,116563356,0,1.01,0.76,322.57,1.060035,-0.7444442,-0.00729066,-0.00754712,84.01449,-52.82248,-20.25546,0.07,0.08,0.06,20.36,1
53561,90763680,0,-1.09,4.46,334.97,1.967244,-0.9276447,-0.00553503,0.00061529,35.64697,-21.10838,-20.26011,0.05,0.05,0.01,20.36,0
422882,501763381,0,-1.81,-0.53,207.85,-0.03002783,0.00028624,0.4758608,0.5010671,0.00789018,-0.01331204,-1.460305,0.09,0.1,0.1,20.36,4
70963,110063457,0,-1.68,2.53,327.5,2.341667,-1.503291,0.00834774,0.00883545,72.42535,-44.42455,-20.24761,0.06,0.07,0.05,20.36,1
329884,398463884,0,-25.98,20.66,258.66,-2.196502,1.741581,-1.851094,-1.793062,154.6423,240.2386,1.145775,0.17,0.18,0.24,20.36,3
268544,330263675,0,1.45,3.78,150.39,-0.6868004,0.6309397,-0.00485725,-0.00290535,192.3758,215.595,-18.99316,0.23,0.27,0.25,20.36,0
151413,200063276,0,1.39,-28.3,134.16,-6.981589,7.093358,0.00693631,-0.00933422,294.3351,-95.3547,-21.70726,0.11,0.18,0.1,20.36,0
119844,164963988,0,3.55,-29.65,334.69,1.181694,-0.7125547,-0.00443027,-0.02538259,25.15149,-16.12485,-21.48783,0.08,0.19,0.1,20.36,1
37608,73063263,0,-10.08,-12.06,3.54,0.7393426,-0.4162983,0.1364269,0.1281375,-0.1221909,-0.2554797,-20.23362,0.03,0.04,-0.02,20.36,0
111127,155163743,0,3.11,-30.09,333.45,0.6575571,-0.2565758,-0.00525721,-0.0356402,21.27677,-13.44371,-21.39573,0.08,0.25,0.13,20.36,1
429112,508963833,0,-0.06,-0.16,207.85,-0.02631229,0.00234987,-0.00468049,0.0061709,3.777e-05,0.0116836,-0.02604296,0.09,0.09,0.1,20.36,4
406497,483563997,0,1.02,-1.73,207.52,-0.03944772,-0.02021741,0.6261981,0.6656504,0.01089738,0.02597201,-10.49593,0.1,0.12,0.13,20.36,4
153658,202563942,0,-3.47,-31.28,130.91,-6.186315,7.644314,0.03707014,0.01889735,277.2003,-77.25617,-21.72132,0.11,0.19,0.1,20.36,0
222751,279364043,0,26.62,5.69,95.16,3.658937,3.040817,0.7718696,-0.1820775,253.7594,146.0982,-18.74154,0.23,0.04,-0.15,20.36,2
243604,302563926,0,16.24,-0.07,192.51,-4.130614,-0.2357451,1.519293,0.9219815,241.0167,186.0482,-17.02794,0.26,0.0,-0.31,20.36,0
70693,109763577,0,1.21,1.45,327.67,2.706047,-1.720556,0.01596145,0.01720893,71.67271,-43.93997,-20.25155,0.06,0.07,0.05,20.36,1
193432,246763755,0,-29.09,0.52,92.9,-2.34718,4.418173,2.93215,2.802431,248.3465,45.84364,-21.23414,0.19,0.13,0.12,20.36,2
279801,342763673,0,-0.28,-3.25,147.98,-3.033671,1.983411,-0.00815963,0.00388594,171.742,228.7234,-18.65784,0.23,0.24,0.3,20.36,0
228410,285664022,0,28.43,-4.38,100.63,0.7152295,2.884681,1.895233,1.342229,264.3047,164.6133,-21.9988,0.23,0.05,-0.17,20.36,2
247747,307163752,0,13.62,-10.75,183.16,-1.562757,-0.6874904,0.7744837,0.1210188,233.4059,188.9227,-20.43737,0.25,0.04,-0.22,20.36,0
283225,346563819,0,1.45,-17.68,147.79,-1.821089,1.199438,-0.03186663,-0.01166046,166.3181,232.5522,-18.68848,0.22,0.24,0.31,20.36,0
376620,450363949,0,24.99,-12.15,204.31,-0.1579797,-8.942145,0.00622905,0.04086807,2.249581,174.0187,-19.88309,0.14,0.15,0.15,20.36,4
340421,410163369,0,0.04,-14.6,193.26,-7.936815,-1.750143,-1.317519,-1.338944,74.30145,224.4294,-16.81542,0.17,0.18,0.2,20.36,0
375989,449663396,0,27.9,-10.99,204.72,-0.1196911,-8.155207,0.0034683,0.03126954,2.346718,180.092,-19.90797,0.15,0.15,0.16,20.36,4
26079,60263385,0,-0.71,-1.05,3.29,-0.01007869,0.00747595,-0.8153353,-0.8531088,0.0291754,-0.0366897,-19.6645,0.02,0.02,-0.05,20.36,0
78832,118863269,0,-0.92,-8.05,333.9,3.272985,-1.631235,-0.01056497,-0.01068516,87.93716,-54.96421,-20.2926,0.07,0.08,0.06,20.36,1
405686,482663524,0,-0.11,1.15,207.69,-0.0411388,-0.00677703,1.4261,1.468796,0.01346005,0.02875438,-11.51032,0.1,0.12,0.13,20.36,4
265037,326363569,0,-0.33,-15.4,153.87,-1.07719,0.657046,0.1946249,0.1960497,200.2347,210.2383,-19.21049,0.22,0.28,0.22,20.36,0
43376,79464035,0,-0.39,-4.36,327.93,3.348961,-2.113689,0.00427314,-0.00130213,13.00209,-8.019192,-20.11207,0.04,0.04,-0.01,20.36,0
334389,403463550,0,-6.47,-28.29,193.67,-8.042761,-1.399785,-1.414797,-1.436658,137.9894,237.6994,-7.726823,0.16,0.16,0.21,20.36,0
208184,263163859,0,-25.86,-16.66,98.31,1.20891,1.645875,1.996512,1.642475,244.031,100.4613,-22.42418,0.19,0.15,0.1,20.36,2
147812,196064043,0,0.72,-27.6,138.28,-7.46898,6.582171,0.02152715,0.00400757,322.911,-123.0985,-21.68295,0.11,0.18,0.1,20.36,0
272774,334963461,0,1.46,3.36,154.79,-0.8359399,0.585012,-0.01452285,-0.0113951,184.0385,220.1906,-18.88349,0.23,0.26,0.27,20.36,0
127738,173763800,0,0.76,-30.72,150.05,-7.529252,4.835664,0.020383,-0.01551025,499.7865,-254.8532,-21.61998,0.08,0.16,0.11,20.36,0
105077,148363964,0,2.33,-29.86,332.28,-1.957065,1.630673,-0.0235879,-0.04840638,14.2389,-8.030972,-21.14261,0.08,0.22,0.15,20.36,1
304668,370463422,0,-0.22,-0.21,321.79,0.03522027,-0.04023105,-0.01680765,-0.02099696,155.1259,239.8961,1.987236,0.19,0.23,0.3,20.36,3
286646,350363965,0,17.98,-10.12,139.85,-0.6996346,0.4458667,0.3784487,0.3900738,158.7576,237.7195,-18.67429,0.22,0.24,0.31,20.36,3
339612,409263729,0,-0.03,-19.36,193.75,-9.395984,-2.14542,-1.351116,-1.374414,82.19363,226.2528,-15.58394,0.17,0.18,0.2,20.36,0
193343,246663795,0,-27.59,0.02,95.18,-3.004554,4.524432,2.931976,2.793351,248.1621,45.47619,-21.49485,0.19,0.13,0.12,20.36,2
355272,426663433,0,0.65,-2.53,205.04,-3.204501,-1.581273,-0.03339354,-0.02744217,26.53452,208.1855,-19.76525,0.16,0.16,0.18,20.36,0
331865,400663837,0,22.57,-6.69,167.61,-1.654761,-2.061815,-1.351186,-1.43287,151.2751,243.9007,-3.67136,0.17,0.17,0.23,20.36,0
370137,443163497,0,1.21,-1.12,206.81,-0.06591339,-0.01622218,-0.00983654,-0.00073476,2.599535,197.3589,-19.94949,0.14,0.15,0.16,20.36,0
98405,140863632,0,-1.01,-29.76,329.13,-4.578667,4.126235,0.2662151,0.0069683,11.70007,-4.796451,-21.19568,0.08,0.08,0.15,20.36,1
182288,234363717,0,-0.78,2.66,90.51,-0.4821533,4.939187,0.4696956,0.3758401,249.8673,27.248,-23.05043,0.18,0.12,0.13,20.36,0
216716,272663391,0,24.17,1.33,87.21,0.2725373,4.687188,0.6490522,-0.4488942,254.2222,126.6281,-20.85238,0.21,0.13,0.05,20.36,2
353840,425064073,0,1.51,-16.84,198.86,-0.9734013,-0.4196351,-0.1681973,-0.1428721,30.38405,210.1451,-19.60649,0.16,0.17,0.19,20.36,0
