LineNo,TimeUS,Instance,Volt,VoltR,Curr,CurrTot,EnrgTot,Temp,Res,RemPct,labels
1704,15363852,0,12.58798,0,0,0,0,0,0,100,0
1788,15463812,0,12.58798,0,0,0,0,0,0,100,0
1867,15563772,0,12.58798,0,0,0,0,0,0,100,0
1946,15663732,0,12.58798,0,0,0,0,0,0,100,0
2025,15763692,0,12.58798,0,0,0,0,0,0,100,0
2106,15863652,0,12.58798,0,0,0,0,0,0,100,0
2186,15963612,0,12.58798,0,0,0,0,0,0,100,0
2266,16063572,0,12.58798,0,0,0,0,0,0,100,0
2345,16163532,0,12.58798,0,0,0,0,0,0,100,0
2424,16263492,0,12.58798,0,0,0,0,0,0,100,0
2508,16363452,0,12.58798,0,0,0,0,0,0,100,0
2588,16463412,0,12.58798,0,0,0,0,0,0,100,0
2667,16563372,0,12.58798,0,0,0,0,0,0,100,0
2746,16663332,0,12.58798,0,0,0,0,0,0,100,0
2825,16763292,0,12.58798,0,0,0,0,0,0,100,0
2906,16864085,0,12.58798,0,0,0,0,0,0,100,0
2986,16964045,0,12.58798,0,0,0,0,0,0,100,0
3066,17064005,0,12.58798,0,0,0,0,0,0,100,0
3145,17163965,0,12.58798,0,0,0,0,0,0,100,0
3224,17263925,0,12.58798,0,0,0,0,0,0,100,0
3309,17363885,0,12.58798,0,0,0,0,0,0,100,0
3389,17463845,0,12.58798,0,0,0,0,0,0,100,0
3468,17563805,0,12.58798,0,0,0,0,0,0,100,0
3547,17663765,0,12.58798,0,0,0,0,0,0,100,0
3626,17763725,0,12.58798,0,0,0,0,0,0,100,0
3707,17863685,0,12.58798,0,0,0,0,0,0,100,0
3787,17963645,0,12.58798,0,0,0,0,0,0,100,0
3867,18063605,0,12.58798,0,0,0,0,0,0,100,0
3946,18163565,0,12.58798,0,0,0,0,0,0,100,0
4025,18263525,0,12.58798,0,0,0,0,0,0,100,0
4109,18363485,0,12.58798,0,0,0,0,0,0,100,0
4189,18463445,0,12.58798,0,0,0,0,0,0,100,0
4268,18563405,0,12.58798,0,0,0,0,0,0,100,0
4353,18663365,0,12.58798,0,0,0,0,0,0,100,0
4432,18763325,0,12.58798,0,0,0,0,0,0,100,0
4513,18863285,0,12.58798,0,0,0,0,0,0,100,0
4593,18964078,0,12.58798,0,0,0,0,0,0,100,0
4673,19064038,0,12.58798,0,0,0,0,0,0,100,0
4752,19163998,0,12.58798,0,0,0,0,0,0,100,0
4831,19263958,0,12.58798,0,0,0,0,0,0,100,0
4915,19363918,0,12.58798,0,0,0,0,0,0,100,0
4995,19463878,0,12.58798,0,0,0,0,0,0,100,0
5074,19563838,0,12.58798,0,0,0,0,0,0,100,0
5153,19663798,0,12.58798,0,0,0,0,0,0,100,0
5232,19763758,0,12.58798,0,0,0,0,0,0,100,0
5313,19863718,0,12.58798,0,0,0,0,0,0,100,0
5394,19963678,0,12.58798,0,0,0,0,0,0,100,0
5474,20063638,0,12.58798,0,0,0,0,0,0,100,0
5553,20163598,0,12.58798,0,0,0,0,0,0,100,0
5632,20263558,0,12.58798,0,0,0,0,0,0,100,0
5716,20363518,0,12.58798,0,0,0,0,0,0,100,0
5796,20463478,0,12.58798,0,0,0,0,0,0,100,0
5875,20563438,0,12.58798,0,0,0,0,0,0,100,0
5954,20663398,0,12.58798,0,0,0,0,0,0,100,0
6033,20763358,0,12.58798,0,0,0,0,0,0,100,0
6114,20863318,0,12.58798,0,0,0,0,0,0,100,0
6194,20963278,0,12.58798,0,0,0,0,0,0,100,0
6273,21064071,0,12.58798,0,0,0,0,0,0,100,0
6353,21164031,0,12.58798,0,0,0,0,0,0,100,0
6432,21263991,0,12.58798,0,0,0,0,0,0,100,0
6516,21363951,0,12.58798,0,0,0,0,0,0,100,0
6596,21463911,0,12.58798,0,0,0,0,0,0,100,0
6675,21563871,0,12.58798,0,0,0,0,0,0,100,0
6754,21663831,0,12.58798,0,0,0,0,0,0,100,0
6833,21763791,0,12.58798,0,0,0,0,0,0,100,0
6914,21863751,0,12.58798,0,0,0,0,0,0,100,0
6994,21963711,0,12.58798,0,0,0,0,0,0,100,0
7073,22063671,0,12.58798,0,0,0,0,0,0,100,0
7153,22163631,0,12.58798,0,0,0,0,0,0,100,0
7232,22263591,0,12.58798,0,0,0,0,0,0,100,0
7317,22363551,0,12.58798,0,0,0,0,0,0,100,0
7397,22463511,0,12.58798,0,0,0,0,0,0,100,0
7476,22563471,0,12.58798,0,0,0,0,0,0,100,0
7555,22663431,0,12.58798,0,0,0,0,0,0,100,0
7634,22763391,0,12.58798,0,0,0,0,0,0,100,0
7715,22863351,0,12.58798,0,0,0,0,0,0,100,0
7794,22963311,0,12.58798,0,0,0,0,0,0,100,0
7874,23063271,0,12.58798,0,0,0,0,0,0,100,0
7954,23164064,0,12.58798,0,0,0,0,0,0,100,0
8033,23264024,0,12.58798,0,0,0,0,0,0,100,0
8117,23363984,0,12.58798,0,0,0,0,0,0,100,0
8196,23463944,0,12.58798,0,0,0,0,0,0,100,0
8276,23563904,0,12.58798,0,0,0,0,0,0,100,0
8355,23663864,0,12.58798,0,0,0,0,0,0,100,0
8434,23763824,0,12.58798,0,0,0,0,0,0,100,0
8515,23863784,0,12.58798,0,0,0,0,0,0,100,0
8594,23963744,0,12.58798,0,0,0,0,0,0,100,0
8674,24063704,0,12.58798,0,0,0,0,0,0,100,0
8754,24163664,0,12.58798,0,0,0,0,0,0,100,0
8833,24263624,0,12.58798,0,0,0,0,0,0,100,0
8917,24363584,0,12.58798,0,0,0,0,0,0,100,0
8996,24463544,0,12.58798,0,0,0,0,0,0,100,0
9076,24563504,0,12.58798,0,0,0,0,0,0,100,0
9155,24663464,0,12.58798,0,0,0,0,0,0,100,0
9234,24763424,0,12.58798,0,0,0,0,0,0,100,0
9315,24863384,0,12.58798,0,0,0,0,0,0,100,0
9394,24963344,0,12.58798,0,0,0,0,0,0,100,0
9475,25063304,0,12.58798,0,0,0,0,0,0,100,0
9555,25163264,0,12.58798,0,0,0,0,0,0,100,0
9634,25264057,0,12.58798,0,0,0,0,0,0,100,0
9718,25364017,0,12.58798,0,0,0,0,0,0,100,0
9797,25463977,0,12.58798,0,0,0,0,0,0,100,0
9877,25563937,0,12.58798,0,0,0,0,0,0,100,0
9956,25663897,0,12.58798,0,0,0,0,0,0,100,0
10035,25763857,0,12.58798,0,0,0,0,0,0,100,0
10116,25863817,0,12.58798,0,0,0,0,0,0,100,0
10195,25963777,0,12.58798,0,0,0,0,0,0,100,0
10275,26063737,0,12.58798,0,0,0,0,0,0,100,0
10355,26163697,0,12.58798,0,0,0,0,0,0,100,0
10434,26263657,0,12.58798,0,0,0,0,0,0,100,0
10518,26363617,0,12.58798,0,0,0,0,0,0,100,0
10597,26463577,0,12.58798,0,0,0,0,0,0,100,0
10677,26563537,0,12.58798,0,0,0,0,0,0,100,0
10756,26663497,0,12.58798,0,0,0,0,0,0,100,0
10835,26763457,0,12.58798,0,0,0,0,0,0,100,0
10916,26863417,0,12.58798,0,0,0,0,0,0,100,0
10995,26963377,0,12.58798,0,0,0,0,0,0,100,0
11075,27063337,0,12.58798,0,0,0,0,0,0,100,0
11155,27163297,0,12.58798,0,0,0,0,0,0,100,0
11234,27264090,0,12.58798,0,0,0,0,0,0,100,0
11318,27364050,0,12.58798,0,0,0,0,0,0,100,0
11397,27464010,0,12.58798,0,0,0,0,0,0,100,0
11477,27563970,0,12.58798,0,0,0,0,0,0,100,0
11556,27663930,0,12.58798,0,0,0,0,0,0,100,0
11635,27763890,0,12.58798,0,0,0,0,0,0,100,0
11716,27863850,0,12.58798,0,0,0,0,0,0,100,0
11795,27963810,0,12.58798,0,0,0,0,0,0,100,0
11875,28063770,0,12.58798,0,0,0,0,0,0,100,0
11955,28163730,0,12.58798,0,0,0,0,0,0,100,0
12034,28263690,0,12.58798,0,0,0,0,0,0,100,0
12118,28363650,0,12.58798,0,0,0,0,0,0,100,0
12197,28463610,0,12.58798,0,0,0,0,0,0,100,0
12277,28563570,0,12.58798,0,0,0,0,0,0,100,0
12356,28663530,0,12.58798,0,0,0,0,0,0,100,0
12435,28763490,0,12.58798,0,0,0,0,0,0,100,0
12516,28863450,0,12.58798,0,0,0,0,0,0,100,0
12595,28963410,0,12.58798,0,0,0,0,0,0,100,0
12675,29063370,0,12.58798,0,0,0,0,0,0,100,0
12755,29163330,0,12.58798,0,0,0,0,0,0,100,0
12834,29263290,0,12.58798,0,0,0,0,0,0,100,0
12918,29364083,0,12.58798,0,0,0,0,0,0,100,0
12997,29464043,0,12.58798,0,0,0,0,0,0,100,0
13077,29564003,0,12.58798,0,0,0,0,0,0,100,0
13156,29663963,0,12.58798,0,0,0,0,0,0,100,0
13278,45963274,0,12.58798,0,0,0,0,0,0,100,0
13360,46064067,0,12.58798,0,0,0,0,0,0,100,0
13440,46164027,0,12.58798,0,0,0,0,0,0,100,0
13524,46263987,0,12.58798,0,0,0,0,0,0,100,0
13609,46363947,0,12.58798,0,0,0,0,0,0,100,0
13693,46463907,0,12.58798,0,0,0,0,0,0,100,0
13780,46563867,0,12.58798,0,0,0,0,0,0,100,0
13865,46663827,0,12.58798,0,0,0,0,0,0,100,0
13951,46763787,0,12.58798,0,0,0,0,0,0,100,0
14036,46863747,0,12.58798,0,0,0,0,0,0,100,0
14121,46963707,0,12.58798,0,0,0,0,0,0,100,0
14208,47063667,0,12.58798,0,0,0,0,0,0,100,0
14294,47163627,0,12.58798,0,0,0,0,0,0,100,0
14380,47263587,0,12.58798,0,0,0,0,0,0,100,0
14467,47363547,0,12.58798,0,0,0,0,0,0,100,0
14553,47463507,0,12.58798,0,0,0,0,0,0,100,0
14640,47563467,0,12.58798,0,0,0,0,0,0,100,0
14725,47663427,0,12.58798,0,0,0,0,0,0,100,0
14811,47763387,0,12.58798,0,0,0,0,0,0,100,0
14896,47863347,0,12.58798,0,0,0,0,0,0,100,0
14982,47963307,0,12.58798,0,0,0,0,0,0,100,0
15073,48063267,0,12.58798,0,0,0,0,0,0,100,0
15163,48164060,0,12.58798,0,0,0,0,0,0,100,0
15253,48264020,0,12.58798,0,0,0,0,0,0,100,0
15344,48363980,0,12.58798,0,0,0,0,0,0,100,0
15435,48463940,0,12.58798,0,0,0,0,0,0,100,0
15526,48563900,0,12.58798,0,0,0,0,0,0,100,0
15615,48663860,0,12.58798,12.58798,0.2492669,0.00692186,0.00008713,0,0,99,0
15705,48763820,0,12.58798,12.58798,0.7478006,0.02768745,0.00034853,0,0,99,0
15794,48863780,0,12.58798,12.58798,1.57869,0.07152593,0.00090037,0,0,99,0
15883,48963740,0,12.58798,12.58798,2.741935,0.1476664,0.00185882,0,0,99,0
15974,49063700,0,12.58798,12.58798,4.154448,0.2630308,0.00331103,0,0,99,0
16064,49163660,0,12.58798,12.58798,5.982405,0.4291556,0.0054022,0,0,99,0
16154,49263620,0,12.58798,12.58798,8.225806,0.657577,0.00827757,0,0,99,0
16245,49363580,0,12.58798,12.58798,10.88465,0.9598317,0.01208234,0,0,99,0
16335,49463540,0,12.58798,12.58798,13.95894,1.347456,0.01696175,0,0,99,0
16426,49563500,0,12.58798,12.58798,17.44868,1.831987,0.02306101,0,0,99,0
16515,49663460,0,12.58798,12.58798,21.52004,2.429574,0.03058343,0,0,99,0
16605,49763420,0,12.58798,12.58798,25.92375,3.149448,0.03964518,0,0,99,0
16694,49863380,0,12.58798,12.58798,30.32747,3.991608,0.05024627,0,0,99,0
16783,49963340,0,12.58798,12.58798,32.48778,4.893757,0.06160251,0,0,99,0
16874,50063300,0,12.58798,12.58798,34.73118,5.858204,0.07374294,0,0,99,0
16964,50163260,0,12.58798,12.58798,37.30694,6.894176,0.08678374,0,0,99,0
17054,50264053,0,12.58798,12.58798,39.96579,8.01323,0.1008704,0,0,99,0
17145,50364013,0,12.58798,12.58798,42.04301,9.180718,0.1155667,0,0,99,0
17235,50463973,0,12.58798,12.58798,29.82893,10.00904,0.1259935,0,0,99,0
17326,50563933,0,12.58798,12.60134,23.76344,10.66892,0.1343001,0,0.0005623,99,0
17415,50663893,0,12.58798,12.61471,26.00684,11.3911,0.1433909,0,0.00102773,99,0
17505,50763853,0,12.58798,12.61744,28.66569,12.18711,0.1534111,0,0.00102773,99,0
17594,50863813,0,12.58798,12.61786,29.08113,12.99467,0.1635766,0,0.00102773,99,0
17683,50963773,0,12.58798,12.61906,30.24438,13.83452,0.1741486,0,0.00102773,99,0
17774,51063733,0,12.58798,12.61863,29.82893,14.66284,0.1845754,0,0.00102773,99,0
17865,51163693,0,12.58798,12.61838,29.57967,15.48423,0.1949151,0,0.00102773,99,0
17955,51263653,0,12.58798,12.61846,29.66276,16.30793,0.2052839,0,0.00102773,99,0
18046,51363613,0,12.58798,12.61855,29.74585,17.13394,0.2156816,0,0.00102773,99,0
18136,51463573,0,12.58798,12.61872,29.91202,17.96457,0.2261375,0,0.00102773,99,0
18227,51563533,0,12.58798,12.61897,30.16129,18.80211,0.2366805,0,0.00102773,99,0
18316,51663493,0,12.58798,12.61906,30.24438,19.64196,0.2472526,0,0.00102773,99,0
18406,51763453,0,12.58798,12.6194,30.57673,20.49105,0.2579408,0,0.00102773,99,0
18495,51863413,0,12.58798,12.61966,30.826,21.34705,0.2687162,0,0.00102773,99,0
18584,51963373,0,12.58798,12.61974,30.90909,22.20536,0.2795206,0,0.00102773,99,0
18675,52063333,0,12.58798,12.61974,30.90909,23.06367,0.290325,0,0.00102773,99,0
18766,52163293,0,12.58798,12.62008,31.24145,23.93121,0.3012456,0,0.00102773,99,0
18856,52264086,0,12.58798,12.62008,31.24145,24.80598,0.3122571,0,0.00102773,99,0
18949,52364046,0,12.58798,12.62008,31.24145,25.67352,0.3231777,0,0.00102773,99,0
19041,52464006,0,12.58798,12.62,31.15836,26.53875,0.3340693,0,0.00102773,99,0
19132,52563966,0,12.58798,12.62008,31.24145,27.40629,0.3449898,0,0.00102773,99,0
19221,52663926,0,12.58798,12.62,31.15836,28.27153,0.3558814,0,0.00102773,99,0
19311,52763886,0,12.58798,12.61991,31.07527,29.13445,0.3667439,0,0.00102773,99,0
19400,52863846,0,12.58798,12.61983,30.99218,29.99507,0.3775773,0,0.00102773,99,0
19489,52963806,0,12.58798,12.61978,30.74291,30.84877,0.3883236,0,0.00103436,99,0
19580,53063766,0,12.58798,12.61985,30.65982,31.70016,0.3990409,0,0.00103968,99,0
19670,53163726,0,12.58798,12.6198,30.49364,32.54693,0.4097001,0,0.00104369,99,0
19760,53263686,0,12.58798,12.61972,30.32747,33.38909,0.4203012,0,0.00104663,99,0
19851,53363646,0,12.58798,12.6197,30.24438,34.22894,0.4308732,0,0.00104886,99,0
19941,53463606,0,12.58798,12.61976,30.24438,35.06879,0.4414453,0,0.00105072,99,0
20033,53563566,0,12.58798,12.6198,30.24438,35.90865,0.4520173,0,0.00105226,99,0
20122,53663526,0,12.58798,12.61984,30.24438,36.7485,0.4625894,0,0.00105355,99,0
20212,53763486,0,12.58798,12.61987,30.24438,37.58835,0.4731614,0,0.00105462,99,0
20301,53863446,0,12.58798,12.62,30.32747,38.43051,0.4837625,0,0.00105572,99,0
20390,53963406,0,12.58798,12.61993,30.24438,39.27036,0.4943345,0,0.00105643,99,0
20481,54063366,0,12.58798,12.62004,30.32747,40.11252,0.5049356,0,0.00105723,99,0
20571,54163326,0,12.58798,12.62006,30.32747,40.95468,0.5155367,0,0.00105789,99,0
20661,54263286,0,12.58798,12.62008,30.32747,41.79684,0.5261378,0,0.00105844,99,0
20752,54364079,0,12.58798,12.62009,30.32747,42.64602,0.5368273,0,0.0010589,98,0
20842,54464039,0,12.58798,12.62018,30.41056,43.49048,0.5474574,0,0.0010589,98,0
20934,54563999,0,12.58798,12.62027,30.49364,44.33726,0.5581166,0,0.0010589,98,0
21023,54663959,0,12.58798,12.62027,30.49364,45.18403,0.5687757,0,0.0010589,98,0
21112,54763919,0,12.58798,12.62027,30.49364,46.03081,0.5794349,0,0.0010589,98,0
21202,54863879,0,12.58798,12.62027,30.49364,46.87758,0.590094,0,0.0010589,98,0
21291,54963839,0,12.58798,12.62027,30.49364,47.72436,0.6007532,0,0.0010589,98,0
21382,55063799,0,12.58798,12.62036,30.57673,48.57344,0.6114414,0,0.0010589,98,0
21472,55163759,0,12.58798,12.62044,30.65982,49.42483,0.6221587,0,0.0010589,98,0
21561,55263719,0,12.58798,12.62036,30.57673,50.27391,0.632847,0,0.0010589,98,0
21653,55363679,0,12.58798,12.62027,30.49364,51.12069,0.6435061,0,0.00105895,98,0
21743,55463639,0,12.58798,12.62036,30.57673,51.96977,0.6541944,0,0.00105895,98,0
21835,55563599,0,12.58798,12.62044,30.65982,52.82116,0.6649116,0,0.00105895,98,0
21924,55663559,0,12.58798,12.62036,30.57673,53.67025,0.6755999,0,0.00105895,98,0
22013,55763519,0,12.58798,12.62044,30.65982,54.52164,0.6863171,0,0.00105895,98,0
22103,55863479,0,12.58798,12.62044,30.65982,55.37303,0.6970344,0,0.00105895,98,0
22192,55963439,0,12.58798,12.62036,30.57673,56.22211,0.7077227,0,0.00105896,98,0
22283,56063399,0,12.58798,12.62036,30.57673,57.07119,0.7184109,0,0.00105897,98,0
22373,56163359,0,12.58798,12.62036,30.57673,57.92028,0.7290992,0,0.00105898,98,0
22463,56263319,0,12.58798,12.62045,30.65982,58.77167,0.7398164,0,0.00105898,98,0
22555,56363279,0,12.58798,12.62036,30.57673,59.62075,0.7505047,0,0.00105895,98,0
22646,56464072,0,12.58798,12.62044,30.65982,60.47923,0.7613112,0,0.00105895,98,0
22737,56564032,0,12.58798,12.62044,30.65982,61.33062,0.7720285,0,0.00105895,98,0
22826,56663992,0,12.58798,12.62044,30.65982,62.18201,0.7827458,0,0.00105895,98,0
22915,56763952,0,12.58798,12.62035,30.57673,63.0311,0.793434,0,0.00105885,98,0
23005,56863912,0,12.58798,12.62035,30.57673,63.88018,0.8041223,0,0.00105877,98,0
23094,56963872,0,12.58798,12.62035,30.57673,64.72926,0.8148105,0,0.0010587,98,0
23185,57063832,0,12.58798,12.62052,30.74291,65.58296,0.8255568,0,0.0010587,98,0
23275,57163792,0,12.58798,12.62035,30.57673,66.43204,0.8362451,0,0.00105858,98,0
23364,57263752,0,12.58798,12.62043,30.65982,67.28343,0.8469623,0,0.00105858,98,0
23456,57363712,0,12.58798,12.62034,30.57673,68.13251,0.8576506,0,0.00105846,98,0
23547,57463672,0,12.58798,12.62034,30.57673,68.9816,0.8683388,0,0.00105837,98,0
23638,57563632,0,12.58798,12.62034,30.57673,69.83068,0.8790271,0,0.00105829,98,0
23727,57663592,0,12.58798,12.6206,30.826,70.68668,0.8898024,0,0.00105829,98,0
23816,57763552,0,12.58798,12.62042,30.65982,71.53807,0.9005197,0,0.00105829,98,0
23906,57863512,0,12.58798,12.62042,30.65982,72.38946,0.9112369,0,0.00105829,98,0
23995,57963472,0,12.58798,12.62042,30.65982,73.24084,0.9219542,0,0.00105829,98,0
24086,58063432,0,12.58798,12.62033,30.57673,74.08993,0.9326425,0,0.00105811,98,0
24176,58163392,0,12.58798,12.62033,30.57673,74.93901,0.9433307,0,0.00105797,98,0
24265,58263352,0,12.58798,12.62013,30.41056,75.78348,0.9539608,0,0.00105743,98,0
24357,58363312,0,12.58798,12.61993,30.24438,76.62333,0.9645329,0,0.00105656,98,0
24448,58463272,0,12.58798,12.61953,29.91202,77.45395,0.9749888,0,0.001055,98,0
24539,58564065,0,12.58798,12.61912,29.57967,78.28219,0.9854146,0,0.00105287,98,0
24628,58664025,0,12.58798,12.6187,29.24731,79.09435,0.9956381,0,0.00105028,98,0
24717,58763985,0,12.58798,12.61817,28.83187,79.89498,1.005716,0,0.00104708,98,0
24807,58863945,0,12.58798,12.61763,28.41642,80.68407,1.01565,0,0.00104338,98,0
24896,58963905,0,12.58798,12.61708,28.00098,81.46163,1.025437,0,0.00103928,98,0
24987,59063865,0,12.58798,12.61652,27.58553,82.22765,1.03508,0,0.00103485,98,0
25077,59163825,0,12.58798,12.61597,27.17009,82.98214,1.044577,0,0.00103015,98,0
25166,59263785,0,12.58798,12.61541,26.75464,83.72509,1.05393,0,0.00102524,98,0
25258,59363745,0,12.58798,12.61512,26.58846,84.46342,1.063224,0,0.00102076,97,0
25349,59463705,0,12.58798,12.61484,26.42229,85.19714,1.07246,0,0.00101664,97,0
25440,59563665,0,12.58798,12.61466,26.3392,85.92855,1.081667,0,0.00101301,97,0
25529,59663625,0,12.58798,12.61449,26.25611,86.65765,1.090845,0,0.00100981,97,0
25618,59763585,0,12.58798,12.61442,26.25611,87.38676,1.100023,0,0.00100714,97,0
25708,59863545,0,12.58798,12.6141,26.00684,88.10894,1.109113,0,0.00100433,97,0
25797,59963505,0,12.58798,12.61395,25.92375,88.82881,1.118175,0,0.0010018,97,0
25888,60063465,0,12.58798,12.61389,25.92375,89.54868,1.127237,0,0.0009997,97,0
25978,60163425,0,12.58798,12.61376,25.84066,90.26625,1.13627,0,0.00099775,97,0
26067,60263385,0,12.58798,12.61363,25.75758,90.98151,1.145273,0,0.00099593,97,0
26159,60363345,0,12.58798,12.61368,25.84066,91.69907,1.154306,0,0.00099462,97,0
26249,60463305,0,12.58798,12.61356,25.75758,92.41433,1.16331,0,0.00099333,97,0
26342,60563265,0,12.58798,12.61431,26.50537,93.15035,1.172575,0,0.00099333,97,0
26431,60664058,0,12.58798,12.61505,27.25318,93.91345,1.182181,0,0.00099333,97,0
26520,60764018,0,12.58798,12.61497,27.17009,94.66794,1.191678,0,0.00099333,97,0
26610,60863978,0,12.58798,12.61488,27.087,95.42011,1.201146,0,0.00099333,97,0
26699,60963938,0,12.58798,12.61497,27.17009,96.1746,1.210644,0,0.00099333,97,0
26790,61063898,0,12.58798,12.61488,27.087,96.92677,1.220112,0,0.00099333,97,0
26880,61163858,0,12.58798,12.61513,27.33627,97.68587,1.229668,0,0.00099333,97,0
26969,61263818,0,12.58798,12.61505,27.25318,98.44266,1.239194,0,0.00099333,97,0
27064,61363778,0,12.58798,12.61546,27.66862,99.21098,1.248866,0,0.00099333,97,0
27154,61463738,0,12.58798,12.61521,27.41936,99.97239,1.25845,0,0.00099333,97,0
27245,61563698,0,12.58798,12.6153,27.50244,100.7361,1.268064,0,0.00099333,97,0
27334,61663658,0,12.58798,12.61546,27.66862,101.5044,1.277736,0,0.00099333,97,0
27423,61763618,0,12.58798,12.61546,27.66862,102.2728,1.287407,0,0.00099333,97,0
27513,61863578,0,12.58798,12.61563,27.8348,103.0457,1.297137,0,0.00099333,97,0
27602,61963538,0,12.58798,12.61571,27.91789,103.8209,1.306896,0,0.00099333,97,0
27693,62063498,0,12.58798,12.61587,28.08407,104.6008,1.316713,0,0.00099333,97,0
27782,62163458,0,12.58798,12.61579,28.00098,105.3784,1.326501,0,0.00099333,97,0
27872,62263418,0,12.58798,12.61579,28.00098,106.1559,1.336288,0,0.00099333,97,0
27965,62363378,0,12.58798,12.61596,28.16715,106.9381,1.346134,0,0.00099333,97,0
28055,62463338,0,12.58798,12.61596,28.16715,107.7203,1.35598,0,0.00099333,97,0
28146,62563298,0,12.58798,12.61596,28.16715,108.5024,1.365826,0,0.00099333,97,0
28235,62664091,0,12.58798,12.61587,28.08407,109.2888,1.375725,0,0.00099333,97,0
28324,62764051,0,12.58798,12.61579,28.00098,110.0664,1.385513,0,0.00099333,97,0
28414,62864011,0,12.58798,12.61553,27.75171,110.837,1.395214,0,0.00099286,97,0
28503,62963971,0,12.58798,12.61586,28.08407,111.6169,1.40503,0,0.00099286,97,0
28594,63063931,0,12.58798,12.61603,28.25024,112.4013,1.414905,0,0.00099286,97,0
28683,63163891,0,12.58798,12.61569,27.91789,113.1766,1.424664,0,0.00099268,97,0
28773,63263851,0,12.58798,12.61542,27.66862,113.9449,1.434336,0,0.00099194,97,0
28865,63363811,0,12.58798,12.61523,27.50244,114.7086,1.44395,0,0.00099094,97,0
28955,63463771,0,12.58798,12.61589,28.16715,115.4908,1.453796,0,0.00099094,97,0
29046,63563731,0,12.58798,12.61605,28.33333,116.2776,1.4637,0,0.00099094,97,0
29135,63663691,0,12.58798,12.61581,28.08407,117.0574,1.473516,0,0.00099094,97,0
29224,63763651,0,12.58798,12.61581,28.08407,117.8373,1.483333,0,0.00099094,97,0
29314,63863611,0,12.58798,12.61581,28.08407,118.6172,1.49315,0,0.00099094,97,0
29403,63963571,0,12.58798,12.61589,28.16715,119.3993,1.502996,0,0.00099094,97,0
29494,64063531,0,12.58798,12.61589,28.16715,120.1815,1.512842,0,0.00099094,97,0
29583,64163491,0,12.58798,12.61581,28.08407,120.9614,1.522659,0,0.00099094,97,0
29673,64263451,0,12.58798,12.61581,28.08407,121.7412,1.532476,0,0.00099094,97,0
29765,64363411,0,12.58798,12.61589,28.16715,122.5234,1.542322,0,0.00099094,97,0
29855,64463371,0,12.58798,12.61597,28.25024,123.3079,1.552197,0,0.00099094,97,0
29946,64563331,0,12.58798,12.61589,28.16715,124.09,1.562043,0,0.00099094,97,0
30035,64663291,0,12.58798,12.6158,28.08407,124.8699,1.57186,0,0.00099085,97,0
30124,64764084,0,12.58798,12.61597,28.25024,125.6609,1.581817,0,0.00099085,97,0
30214,64864044,0,12.58798,12.6158,28.08407,126.4408,1.591634,0,0.00099072,96,0
30303,64964004,0,12.58798,12.61588,28.16715,127.223,1.60148,0,0.00099072,96,0
30394,65063964,0,12.58798,12.6158,28.08407,128.0028,1.611297,0,0.0009906,96,0
30483,65163924,0,12.58798,12.61588,28.16715,128.785,1.621143,0,0.0009906,96,0
30573,65263884,0,12.58798,12.61588,28.16715,129.5672,1.630989,0,0.0009906,96,0
30665,65363844,0,12.58798,12.61588,28.16715,130.3493,1.640835,0,0.0009906,96,0
30755,65463804,0,12.58798,12.61588,28.16715,131.1315,1.650681,0,0.0009906,96,0
30846,65563764,0,12.58798,12.61588,28.16715,131.9137,1.660527,0,0.0009906,96,0
30935,65663724,0,12.58798,12.61588,28.16715,132.6958,1.670373,0,0.0009906,96,0
31024,65763684,0,12.58798,12.61588,28.16715,133.478,1.680219,0,0.0009906,96,0
31114,65863644,0,12.58798,12.61579,28.08407,134.2578,1.690035,0,0.00099043,96,0
31203,65963604,0,12.58798,12.61579,28.08407,135.0377,1.699852,0,0.00099029,96,0
31294,66063564,0,12.58798,12.61587,28.16715,135.8199,1.709698,0,0.00099029,96,0
31383,66163524,0,12.58798,12.61587,28.16715,136.602,1.719544,0,0.00099029,96,0
31473,66263484,0,12.58798,12.61587,28.16715,137.3842,1.72939,0,0.00099029,96,0
31564,66363444,0,12.58798,12.61587,28.16715,138.1664,1.739236,0,0.00099029,96,0
31656,66463404,0,12.58798,12.61595,28.25024,138.9509,1.749111,0,0.00099029,96,0
31747,66563364,0,12.58798,12.61595,28.25024,139.7353,1.758986,0,0.00099029,96,0
31836,66663324,0,12.58798,12.61578,28.08407,140.5152,1.768803,0,0.00099006,96,0
31925,66763284,0,12.58798,12.61586,28.16715,141.2974,1.778649,0,0.00099006,96,0
32014,66864077,0,12.58798,12.61586,28.16715,142.0861,1.788577,0,0.00099006,96,0
32104,66964037,0,12.58798,12.61578,28.08407,142.8659,1.798394,0,0.00098987,96,0
32195,67063997,0,12.58798,12.61586,28.16715,143.6481,1.80824,0,0.00098987,96,0
32284,67163957,0,12.58798,12.61577,28.08407,144.4279,1.818057,0,0.00098971,96,0
32374,67263917,0,12.58798,12.61585,28.16715,145.2101,1.827903,0,0.00098971,96,0
32465,67363877,0,12.58798,12.61577,28.08407,145.99,1.83772,0,0.00098956,96,0
32556,67463837,0,12.58798,12.61576,28.08407,146.7698,1.847536,0,0.00098944,96,0
32647,67563797,0,12.58798,12.61576,28.08407,147.5497,1.857353,0,0.00098934,96,0
32736,67663757,0,12.58798,12.61576,28.08407,148.3296,1.86717,0,0.00098926,96,0
32825,67763717,0,12.58798,12.61576,28.08407,149.1094,1.876987,0,0.00098919,96,0
32914,67863677,0,12.58798,12.61592,28.25024,149.8939,1.886862,0,0.00098919,96,0
33004,67963637,0,12.58798,12.61576,28.08407,150.6738,1.896679,0,0.00098908,96,0
33095,68063597,0,12.58798,12.61584,28.16715,151.4559,1.906525,0,0.00098908,96,0
33184,68163557,0,12.58798,12.61584,28.16715,152.2381,1.916371,0,0.00098908,96,0
33274,68263517,0,12.58798,12.61592,28.25024,153.0226,1.926246,0,0.00098908,96,0
33365,68363477,0,12.58798,12.61575,28.08407,153.8024,1.936063,0,0.00098891,96,0
33456,68463437,0,12.58798,12.61575,28.08407,154.5823,1.94588,0,0.00098877,96,0
33547,68563397,0,12.58798,12.61583,28.16715,155.3645,1.955726,0,0.00098877,96,0
33636,68663357,0,12.58798,12.61574,28.08407,156.1443,1.965542,0,0.00098864,96,0
33725,68763317,0,12.58798,12.61574,28.08407,156.9242,1.975359,0,0.00098853,96,0
33814,68863277,0,12.58798,12.61574,28.08407,157.7041,1.985176,0,0.00098844,96,0
33904,68964070,0,12.58798,12.61582,28.16715,158.4927,1.995104,0,0.00098844,96,0
33995,69064030,0,12.58798,12.61582,28.16715,159.2749,2.00495,0,0.00098844,96,0
34084,69163990,0,12.58798,12.61573,28.08407,160.0548,2.014767,0,0.00098833,96,0
34174,69263950,0,12.58798,12.61573,28.08407,160.8346,2.024584,0,0.00098824,96,0
34265,69363910,0,12.58798,12.61573,28.08407,161.6145,2.034401,0,0.00098816,96,0
34356,69463870,0,12.58798,12.61581,28.16715,162.3967,2.044247,0,0.00098816,96,0
34447,69563830,0,12.58798,12.61589,28.25024,163.1811,2.054122,0,0.00098816,96,0
34536,69663790,0,12.58798,12.61573,28.08407,163.961,2.063939,0,0.00098803,96,0
34625,69763750,0,12.58798,12.61581,28.16715,164.7432,2.073785,0,0.00098803,96,0
34714,69863710,0,12.58798,12.61581,28.16715,165.5253,2.083631,0,0.00098803,96,0
34804,69963670,0,12.58798,12.61581,28.16715,166.3075,2.093477,0,0.00098803,96,0
34895,70063630,0,12.58798,12.61572,28.08407,167.0874,2.103293,0,0.00098788,96,0
34984,70163590,0,12.58798,12.6158,28.16715,167.8695,2.113139,0,0.00098788,96,0
35074,70263550,0,12.58798,12.61572,28.08407,168.6494,2.122956,0,0.00098775,95,0
35165,70363510,0,12.58798,12.61571,28.08407,169.4292,2.132773,0,0.00098764,95,0
35256,70463470,0,12.58798,12.61571,28.08407,170.2091,2.14259,0,0.00098755,95,0
35347,70563430,0,12.58798,12.61571,28.08407,170.989,2.152407,0,0.00098747,95,0
35436,70663390,0,12.58798,12.61579,28.16715,171.7711,2.162253,0,0.00098747,95,0
35525,70763350,0,12.58798,12.61579,28.16715,172.5533,2.172099,0,0.00098747,95,0
35614,70863310,0,12.58798,12.61571,28.08407,173.3332,2.181916,0,0.00098737,95,0
35704,70963270,0,12.58798,12.61579,28.16715,174.1153,2.191762,0,0.00098737,95,0
35795,71064063,0,12.58798,12.6157,28.08407,174.9017,2.20166,0,0.00098726,95,0
35884,71164023,0,12.58798,12.61611,28.49951,175.6931,2.211622,0,0.00098726,95,0
35974,71263983,0,12.58798,12.61587,28.25024,176.4776,2.221498,0,0.00098726,95,0
36065,71363943,0,12.58798,12.61578,28.16715,177.2597,2.231344,0,0.0009872,95,0
36156,71463903,0,12.58798,12.61587,28.25024,178.0442,2.241219,0,0.0009872,95,0
36248,71563863,0,12.58798,12.61603,28.41642,178.8333,2.251152,0,0.0009872,95,0
36337,71663823,0,12.58798,12.61603,28.41642,179.6224,2.261085,0,0.0009872,95,0
36426,71763783,0,12.58798,12.61578,28.16715,180.4046,2.270931,0,0.00098697,95,0
36515,71863743,0,12.58798,12.61577,28.16715,181.1867,2.280777,0,0.00098678,95,0
36605,71963703,0,12.58798,12.61533,27.75171,181.9574,2.290477,0,0.00098564,95,0
36696,72063663,0,12.58798,12.61565,28.08407,182.7372,2.300294,0,0.00098548,95,0
36785,72163623,0,12.58798,12.61565,28.08407,183.5171,2.310111,0,0.00098534,95,0
36875,72263583,0,12.58798,12.61565,28.08407,184.297,2.319928,0,0.00098523,95,0
36967,72363543,0,12.58798,12.61573,28.16715,185.0791,2.329774,0,0.00098523,95,0
37059,72463503,0,12.58798,12.61521,27.66862,185.8474,2.339446,0,0.00098414,95,0
37150,72563463,0,12.58798,12.6144,26.92082,186.595,2.348856,0,0.00098149,95,0
37239,72663423,0,12.58798,12.6146,27.17009,187.3495,2.358353,0,0.00097987,95,0
37328,72763383,0,12.58798,12.61533,27.91789,188.1247,2.368112,0,0.00097987,95,0
37417,72863343,0,12.58798,12.61533,27.91789,188.9,2.377871,0,0.00097987,95,0
37507,72963303,0,12.58798,12.61647,29.08113,189.7076,2.388036,0,0.00097987,95,0
37598,73063263,0,12.58798,12.61631,28.91496,190.5105,2.398144,0,0.00097987,95,0
37687,73164056,0,12.58798,12.61688,29.49658,191.3364,2.40854,0,0.00097987,95,0
37777,73264016,0,12.58798,12.6168,29.41349,192.1532,2.418822,0,0.00097987,95,0
37868,73363976,0,12.58798,12.61704,29.66276,192.9769,2.42919,0,0.00097987,95,0
37959,73463936,0,12.58798,12.61729,29.91202,193.8075,2.439646,0,0.00097987,95,0
38050,73563896,0,12.58798,12.61737,29.99511,194.6404,2.450131,0,0.00097987,95,0
38139,73663856,0,12.58798,12.61704,29.66276,195.4641,2.4605,0,0.00097987,95,0
38228,73763816,0,12.58798,12.61696,29.57967,196.2855,2.47084,0,0.00097987,95,0
38317,73863776,0,12.58798,12.61688,29.49658,197.1046,2.48115,0,0.00097987,95,0
38407,73963736,0,12.58798,12.61778,30.41056,197.9491,2.491781,0,0.00097987,95,0
38498,74063696,0,12.58798,12.61729,29.91202,198.7797,2.502236,0,0.00097987,95,0
38588,74163656,0,12.58798,12.61729,29.91202,199.6103,2.512692,0,0.00097987,95,0
38678,74263616,0,12.58798,12.61679,29.41349,200.4271,2.522974,0,0.00097939,95,0
38769,74363576,0,12.58798,12.61625,28.91496,201.23,2.533081,0,0.00097783,95,0
38860,74463536,0,12.58798,12.61587,28.5826,202.0237,2.543072,0,0.00097576,95,0
38951,74563496,0,12.58798,12.61547,28.25024,202.8082,2.552947,0,0.00097327,95,0
39040,74663456,0,12.58798,12.61533,28.16715,203.5904,2.562793,0,0.00097101,95,0
39130,74763416,0,12.58798,12.61519,28.08407,204.3703,2.57261,0,0.00096894,95,0
39219,74863376,0,12.58798,12.61523,28.16715,205.1524,2.582456,0,0.00096741,95,0
39309,74963336,0,12.58798,12.61519,28.16715,205.9346,2.592302,0,0.00096613,95,0
39400,75063296,0,12.58798,12.61542,28.41642,206.7237,2.602235,0,0.00096565,95,0
39489,75164089,0,12.58798,12.61464,27.66862,207.4984,2.611987,0,0.00096352,95,0
39579,75264049,0,12.58798,12.61544,28.49951,208.2898,2.621949,0,0.00096352,95,0
39670,75364009,0,12.58798,12.61527,28.33333,209.0766,2.631854,0,0.00096326,95,0
39762,75463969,0,12.58798,12.61543,28.49951,209.868,2.641816,0,0.00096326,95,0
39853,75563929,0,12.58798,12.61526,28.33333,210.6548,2.65172,0,0.00096302,94,0
39942,75663889,0,12.58798,12.61534,28.41642,211.4439,2.661653,0,0.000963,94,0
40031,75763849,0,12.58798,12.615,28.08407,212.2237,2.67147,0,0.00096223,94,0
40120,75863809,0,12.58798,12.61473,27.8348,212.9967,2.6812,0,0.00096102,94,0
40210,75963769,0,12.58798,12.61512,28.25024,213.7812,2.691075,0,0.00096096,94,0
40301,76063729,0,12.58798,12.6152,28.33333,214.5679,2.700979,0,0.00096096,94,0
40390,76163689,0,12.58798,12.61504,28.16715,215.3501,2.710825,0,0.0009607,94,0
40480,76263649,0,12.58798,12.6152,28.33333,216.1369,2.720729,0,0.0009607,94,0
40571,76363609,0,12.58798,12.61503,28.16715,216.9191,2.730575,0,0.00096045,94,0
40663,76463569,0,12.58798,12.61519,28.33333,217.7059,2.740479,0,0.00096045,94,0
40754,76563529,0,12.58798,12.61502,28.16715,218.488,2.750325,0,0.00096022,94,0
40844,76663489,0,12.58798,12.6151,28.25024,219.2725,2.7602,0,0.00096022,94,0
40933,76763449,0,12.58798,12.61502,28.16715,220.0547,2.770046,0,0.00096003,94,0
41022,76863409,0,12.58798,12.61518,28.33333,220.8415,2.77995,0,0.00096003,94,0
41112,76963369,0,12.58798,12.61493,28.08407,221.6213,2.789767,0,0.00095964,94,0
41203,77063329,0,12.58798,12.61509,28.25024,222.4058,2.799642,0,0.00095964,94,0
41292,77163289,0,12.58798,12.61492,28.08407,223.1857,2.809459,0,0.00095931,94,0
41382,77264082,0,12.58798,12.615,28.16715,223.9744,2.819387,0,0.00095923,94,0
41474,77364042,0,12.58798,12.61516,28.33333,224.7612,2.829291,0,0.00095923,94,0
41564,77464002,0,12.58798,12.61524,28.41642,225.5502,2.839224,0,0.00095923,94,0
41656,77563962,0,12.58798,12.61508,28.25024,226.3347,2.849099,0,0.00095922,94,0
41745,77663922,0,12.58798,12.61499,28.16715,227.1169,2.858945,0,0.00095903,94,0
41834,77763882,0,12.58798,12.61539,28.5826,227.9106,2.868936,0,0.00095903,94,0
41923,77863842,0,12.58798,12.61523,28.41642,228.6997,2.878869,0,0.00095903,94,0
42012,77963802,0,12.58798,12.61627,29.49658,229.5188,2.88918,0,0.00095903,94,0
42104,78063762,0,12.58798,12.61571,28.91496,230.3217,2.899287,0,0.00095903,94,0
42193,78163722,0,12.58798,12.61682,30.0782,231.157,2.909801,0,0.00095903,94,0
42283,78263682,0,12.58798,12.61603,29.24731,231.9691,2.920025,0,0.00095903,94,0
42374,78363642,0,12.58798,12.61698,30.24438,232.809,2.930597,0,0.00095903,94,0
42465,78463602,0,12.58798,12.61619,29.41349,233.6257,2.940878,0,0.00095903,94,0
42557,78563562,0,12.58798,12.61706,30.32747,234.4679,2.951479,0,0.00095903,94,0
42646,78663522,0,12.58798,12.61635,29.57967,235.2893,2.961819,0,0.00095903,94,0
42735,78763482,0,12.58798,12.61722,30.49364,236.1361,2.972478,0,0.00095903,94,0
42824,78863442,0,12.58798,12.6165,29.74585,236.9621,2.982876,0,0.00095903,94,0
42913,78963402,0,12.58798,12.61658,29.82893,237.7904,2.993303,0,0.00095903,94,0
43005,79063362,0,12.58798,12.616,29.24731,238.6026,3.003526,0,0.00095812,94,0
43094,79163322,0,12.58798,12.61538,28.66569,239.3986,3.013547,0,0.00095604,94,0
43184,79263282,0,12.58798,12.61508,28.41642,240.1877,3.02348,0,0.00095374,94,0
43275,79364075,0,12.58798,12.61469,28.08407,240.974,3.033378,0,0.00095108,94,0
43366,79464035,0,12.58798,12.61454,28.00098,241.7516,3.043166,0,0.00094868,94,0
43458,79563995,0,12.58798,12.61432,27.8348,242.5245,3.052896,0,0.00094631,94,0
43547,79663955,0,12.58798,12.61443,28.00098,243.3021,3.062684,0,0.00094472,94,0
43636,79763915,0,12.58798,12.61439,28.00098,244.0797,3.072472,0,0.00094339,94,0
43725,79863875,0,12.58798,12.61453,28.16715,244.8618,3.082318,0,0.00094266,94,0
43814,79963835,0,12.58798,12.61443,28.08407,245.6417,3.092134,0,0.00094186,94,0
43906,80063795,0,12.58798,12.61474,28.41642,246.4308,3.102067,0,0.00094186,94,0
43996,80163755,0,12.58798,12.61449,28.16715,247.2129,3.111913,0,0.00094137,94,0
44086,80263715,0,12.58798,12.61465,28.33333,247.9997,3.121818,0,0.00094134,94,0
44177,80363675,0,12.58798,12.61448,28.16715,248.7819,3.131664,0,0.00094094,94,0
44267,80463635,0,12.58798,12.61472,28.41642,249.571,3.141597,0,0.00094094,94,0
44359,80563595,0,12.58798,12.61455,28.25024,250.3555,3.151472,0,0.00094075,94,0
44448,80663555,0,12.58798,12.61471,28.41642,251.1446,3.161405,0,0.00094075,94,0
44537,80763515,0,12.58798,12.61446,28.16715,251.9267,3.171251,0,0.00094038,94,0
44626,80863475,0,12.58798,12.6147,28.41642,252.7158,3.181184,0,0.00094038,93,0
44715,80963435,0,12.58798,12.61446,28.16715,253.498,3.19103,0,0.00094003,93,0
44807,81063395,0,12.58798,12.61453,28.25024,254.2825,3.200905,0,0.00093992,93,0
44897,81163355,0,12.58798,12.61444,28.16715,255.0646,3.210751,0,0.00093964,93,0
44987,81263315,0,12.58798,12.61452,28.25024,255.8491,3.220626,0,0.0009396,93,0
45078,81363275,0,12.58798,12.61444,28.16715,256.6313,3.230472,0,0.00093938,93,0
45168,81464068,0,12.58798,12.61452,28.25024,257.4223,3.240429,0,0.00093938,93,0
45260,81564028,0,12.58798,12.61443,28.16715,258.2045,3.250275,0,0.0009392,93,0
45350,81663988,0,12.58798,12.61459,28.33333,258.9912,3.260179,0,0.0009392,93,0
45439,81763948,0,12.58798,12.61443,28.16715,259.7734,3.270025,0,0.00093901,93,0
45528,81863908,0,12.58798,12.61442,28.16715,260.5556,3.279871,0,0.00093885,93,0
45617,81963868,0,12.58798,12.61434,28.08407,261.3354,3.289688,0,0.00093854,93,0
45709,82063828,0,12.58798,12.61449,28.25024,262.1199,3.299563,0,0.00093854,93,0
45798,82163788,0,12.58798,12.61433,28.08407,262.8998,3.30938,0,0.00093826,93,0
45888,82263748,0,12.58798,12.6144,28.16715,263.682,3.319226,0,0.00093821,93,0
45981,82363708,0,12.58798,12.61487,28.66569,264.478,3.329246,0,0.00093821,93,0
46071,82463668,0,12.58798,12.61495,28.74878,265.2763,3.339295,0,0.00093821,93,0
46163,82563628,0,12.58798,12.61479,28.5826,266.07,3.349287,0,0.00093821,93,0
46252,82663588,0,12.58798,12.61472,28.49951,266.8614,3.359249,0,0.00093821,93,0
46341,82763548,0,12.58798,12.61518,28.99804,267.6667,3.369385,0,0.00093821,93,0
46430,82863508,0,12.58798,12.61487,28.66569,268.4627,3.379405,0,0.00093821,93,0
46519,82963468,0,12.58798,12.61596,29.82893,269.291,3.389832,0,0.00093821,93,0
46612,83063428,0,12.58798,12.61534,29.16422,270.1008,3.400027,0,0.00093821,93,0
46701,83163388,0,12.58798,12.61627,30.16129,270.9384,3.41057,0,0.00093821,93,0
46791,83263348,0,12.58798,12.61542,29.24731,271.7505,3.420793,0,0.00093821,93,0
46882,83363308,0,12.58798,12.61635,30.24438,272.5904,3.431365,0,0.00093821,93,0
46972,83463268,0,12.58798,12.61542,29.24731,273.4026,3.441589,0,0.00093816,93,0
47064,83564061,0,12.58798,12.61643,30.32747,274.2517,3.452278,0,0.00093816,93,0
47153,83664021,0,12.58798,12.61588,29.74585,275.0778,3.462676,0,0.00093816,93,0
47242,83763981,0,12.58798,12.61659,30.49364,275.9245,3.473335,0,0.00093816,93,0
47331,83863941,0,12.58798,12.61564,29.49658,276.7436,3.483646,0,0.0009378,93,0
47420,83963901,0,12.58798,12.61595,29.82893,277.5719,3.494073,0,0.0009378,93,0
47513,84063861,0,12.58798,12.61521,29.08113,278.3795,3.504238,0,0.0009365,93,0
47602,84163821,0,12.58798,12.61485,28.74878,279.1778,3.514287,0,0.00093467,93,0
47692,84263781,0,12.58798,12.61472,28.66569,279.9738,3.524308,0,0.00093297,93,0
47783,84363741,0,12.58798,12.61402,28.00098,280.7514,3.534096,0,0.00093008,93,0
47873,84463701,0,12.58798,12.61362,27.66862,281.5197,3.543767,0,0.00092695,93,0
47965,84563661,0,12.58798,12.61372,27.8348,282.2927,3.553497,0,0.00092471,93,0
48054,84663621,0,12.58798,12.61383,28.00098,283.0702,3.563285,0,0.00092322,93,0
48144,84763581,0,12.58798,12.61379,28.00098,283.8478,3.573073,0,0.00092198,93,0
48233,84863541,0,12.58798,12.61401,28.25024,284.6323,3.582948,0,0.00092149,93,0
48322,84963501,0,12.58798,12.61384,28.08407,285.4121,3.592765,0,0.00092072,93,0
48414,85063461,0,12.58798,12.61406,28.33333,286.1989,3.602669,0,0.00092063,93,0
48503,85163421,0,12.58798,12.6139,28.16715,286.9811,3.612515,0,0.00092018,93,0
48593,85263381,0,12.58798,12.61405,28.33333,287.7679,3.622419,0,0.00092018,93,0
48684,85363341,0,12.58798,12.61389,28.16715,288.55,3.632265,0,0.00091981,93,0
48774,85463301,0,12.58798,12.61396,28.25024,289.3345,3.64214,0,0.00091969,93,0
48867,85563261,0,12.58798,12.61379,28.08407,290.1144,3.651957,0,0.00091922,93,0
48956,85664054,0,12.58798,12.61386,28.16715,290.9031,3.661885,0,0.00091902,93,0
49045,85764014,0,12.58798,12.61329,27.58553,291.6691,3.671527,0,0.00091758,93,0
49134,85863974,0,12.58798,12.61398,28.33333,292.4559,3.681432,0,0.00091758,93,0
49223,85963934,0,12.58798,12.61374,28.08407,293.2357,3.691248,0,0.00091739,93,0
49315,86063894,0,12.58798,12.61357,27.91789,294.011,3.701007,0,0.00091688,92,0
49404,86163854,0,12.58798,12.61324,27.58553,294.777,3.71065,0,0.00091573,92,0
49494,86263814,0,12.58798,12.61329,27.66862,295.5453,3.720321,0,0.00091495,92,0
49585,86363774,0,12.58798,12.6136,28.00098,296.3229,3.730109,0,0.00091495,92,0
49675,86463734,0,12.58798,12.61382,28.25024,297.1074,3.739984,0,0.00091495,92,0
49768,86563694,0,12.58798,12.61367,28.08407,297.8873,3.749801,0,0.00091495,92,0
49857,86663654,0,12.58798,12.61367,28.08407,298.6671,3.759618,0,0.00091495,92,0
49947,86763614,0,12.58798,12.61375,28.16715,299.4493,3.769464,0,0.00091495,92,0
50036,86863574,0,12.58798,12.61367,28.08407,300.2292,3.779281,0,0.00091495,92,0
50125,86963534,0,12.58798,12.61367,28.08407,301.0091,3.789098,0,0.00091495,92,0
50216,87063494,0,12.58798,12.6139,28.33333,301.7958,3.799002,0,0.00091495,92,0
50306,87163454,0,12.58798,12.61367,28.08407,302.5757,3.808819,0,0.00091489,92,0
50396,87263414,0,12.58798,12.61382,28.25024,303.3602,3.818694,0,0.00091489,92,0
50488,87363374,0,12.58798,12.6142,28.66569,304.1562,3.828714,0,0.00091489,92,0
50577,87463334,0,12.58798,12.61405,28.49951,304.9476,3.838676,0,0.00091489,92,0
50669,87563294,0,12.58798,12.61405,28.49951,305.739,3.848638,0,0.00091489,92,0
50759,87664087,0,12.58798,12.61405,28.49951,306.537,3.858683,0,0.00091489,92,0
50848,87764047,0,12.58798,12.61428,28.74878,307.3354,3.868733,0,0.00091489,92,0
50937,87864007,0,12.58798,12.61428,28.74878,308.1337,3.878782,0,0.00091489,92,0
51026,87963967,0,12.58798,12.61489,29.41349,308.9504,3.889064,0,0.00091489,92,0
51117,88063927,0,12.58798,12.61458,29.08113,309.758,3.899229,0,0.00091489,92,0
51207,88163887,0,12.58798,12.61504,29.57967,310.5794,3.909569,0,0.00091489,92,0
51297,88263847,0,12.58798,12.61466,29.16422,311.3892,3.919763,0,0.00091489,92,0
51388,88363807,0,12.58798,12.61512,29.66276,312.2129,3.930132,0,0.00091489,92,0
51478,88463767,0,12.58798,12.61474,29.24731,313.0251,3.940356,0,0.00091489,92,0
51570,88563727,0,12.58798,12.61519,29.74585,313.8511,3.950753,0,0.00091489,92,0
51660,88663687,0,12.58798,12.61489,29.41349,314.6679,3.961035,0,0.00091489,92,0
51749,88763647,0,12.58798,12.61527,29.82893,315.4962,3.971462,0,0.00091489,92,0
51838,88863607,0,12.58798,12.61489,29.41349,316.313,3.981743,0,0.00091489,92,0
51927,88963567,0,12.58798,12.61489,29.41349,317.1297,3.992025,0,0.00091489,92,0
52018,89063527,0,12.58798,12.61432,28.83187,317.9304,4.002103,0,0.00091377,92,0
52108,89163487,0,12.58798,12.61413,28.66569,318.7264,4.012124,0,0.00091248,92,0
52198,89263447,0,12.58798,12.6137,28.25024,319.5109,4.021998,0,0.0009105,92,0
52289,89363407,0,12.58798,12.61341,28.00098,320.2884,4.031786,0,0.00090832,92,0
52379,89463367,0,12.58798,12.61328,27.91789,321.0637,4.041545,0,0.00090632,92,0
52471,89563327,0,12.58798,12.61331,28.00098,321.8412,4.051333,0,0.00090485,92,0
52561,89663287,0,12.58798,12.6132,27.91789,322.6165,4.061092,0,0.00090344,92,0
52650,89764080,0,12.58798,12.61325,28.00098,323.4005,4.070962,0,0.00090244,92,0
52739,89864040,0,12.58798,12.6133,28.08407,324.1804,4.080779,0,0.0009018,92,0
52828,89964000,0,12.58798,12.61337,28.16715,324.9625,4.090625,0,0.00090144,92,0
52920,90063960,0,12.58798,12.61344,28.25024,325.747,4.1005,0,0.00090132,92,0
53010,90163920,0,12.58798,12.61336,28.16715,326.5292,4.110345,0,0.00090104,92,0
53100,90263880,0,12.58798,12.61343,28.25024,327.3137,4.12022,0,0.00090098,92,0
53191,90363840,0,12.58798,12.61343,28.25024,328.0981,4.130095,0,0.00090094,92,0
53280,90463800,0,12.58798,12.61343,28.25024,328.8826,4.13997,0,0.0009009,92,0
53372,90563760,0,12.58798,12.6135,28.33333,329.6694,4.149874,0,0.0009009,92,0
53462,90663720,0,12.58798,12.61343,28.25024,330.4539,4.159749,0,0.00090085,92,0
53551,90763680,0,12.58798,12.61335,28.16715,331.2361,4.169594,0,0.00090063,92,0
53640,90863640,0,12.58798,12.61334,28.16715,332.0182,4.17944,0,0.00090044,92,0
53729,90963600,0,12.58798,12.61356,28.41642,332.8073,4.189373,0,0.00090044,92,0
53821,91063560,0,12.58798,12.61333,28.16715,333.5895,4.199219,0,0.00090022,92,0
53911,91163520,0,12.58798,12.61333,28.16715,334.3716,4.209064,0,0.00090004,92,0
54001,91263480,0,12.58798,12.61333,28.16715,335.1538,4.21891,0,0.00089989,92,0
54092,91363440,0,12.58798,12.61332,28.16715,335.936,4.228756,0,0.00089977,92,0
54181,91463400,0,12.58798,12.61332,28.16715,336.7181,4.238602,0,0.00089967,91,0
54273,91563360,0,12.58798,12.61332,28.16715,337.5003,4.248447,0,0.00089958,91,0
54363,91663320,0,12.58798,12.61323,28.08407,338.2802,4.258265,0,0.00089933,91,0
54452,91763280,0,12.58798,12.61323,28.08407,339.0601,4.268082,0,0.00089912,91,0
54542,91864073,0,12.58798,12.6133,28.16715,339.8488,4.27801,0,0.00089912,91,0
54631,91964033,0,12.58798,12.6133,28.16715,340.6309,4.287856,0,0.00089912,91,0
54722,92063993,0,12.58798,12.61322,28.08407,341.4108,4.297673,0,0.00089895,91,0
54812,92163953,0,12.58798,12.61322,28.08407,342.1907,4.30749,0,0.00089881,91,0
54903,92263913,0,12.58798,12.61322,28.08407,342.9706,4.317307,0,0.00089869,91,0
54997,92363873,0,12.58798,12.6125,27.33627,343.7296,4.326862,0,0.00089699,91,0
55086,92463833,0,12.58798,12.61238,27.25318,344.4865,4.336389,0,0.0008954,91,0
55178,92563793,0,12.58798,12.6125,27.41936,345.2479,4.345973,0,0.00089443,91,0
55268,92663753,0,12.58798,12.61287,27.8348,346.0208,4.355703,0,0.00089443,91,0
55357,92763713,0,12.58798,12.6131,28.08407,346.8007,4.36552,0,0.00089443,91,0
55446,92863673,0,12.58798,12.61421,29.3304,347.6152,4.375772,0,0.00089443,91,0
55535,92963633,0,12.58798,12.61377,28.83187,348.4158,4.385851,0,0.00089443,91,0
55627,93063593,0,12.58798,12.61466,29.82893,349.2441,4.396278,0,0.00089443,91,0
55717,93163553,0,12.58798,12.61429,29.41349,350.0609,4.406559,0,0.00089443,91,0
55807,93263513,0,12.58798,12.61451,29.66276,350.8846,4.416928,0,0.00089443,91,0
55898,93363473,0,12.58798,12.61451,29.66276,351.7083,4.427297,0,0.00089443,91,0
55987,93463433,0,12.58798,12.61451,29.66276,352.532,4.437666,0,0.00089443,91,0
56079,93563393,0,12.58798,12.61451,29.66276,353.3557,4.448035,0,0.00089443,91,0
56169,93663353,0,12.58798,12.61481,29.99511,354.1886,4.458519,0,0.00089443,91,0
56258,93763313,0,12.58798,12.61473,29.91202,355.0192,4.468976,0,0.00089443,91,0
56347,93863273,0,12.58798,12.61473,29.91202,355.8499,4.479432,0,0.00089443,91,0
56436,93964066,0,12.58798,12.61481,29.99511,356.6897,4.490004,0,0.00089443,91,0
56528,94064026,0,12.58798,12.61443,29.57967,357.5111,4.500344,0,0.00089443,91,0
56618,94163986,0,12.58798,12.61388,28.99804,358.3163,4.51048,0,0.0008932,91,0
56708,94263946,0,12.58798,12.61337,28.49951,359.1078,4.520442,0,0.00089112,91,0
56799,94363906,0,12.58798,12.61309,28.25024,359.8922,4.530317,0,0.00088886,91,0
56888,94463866,0,12.58798,12.61288,28.08407,360.6721,4.540134,0,0.00088663,91,0
56980,94563826,0,12.58798,12.61275,28.00098,361.4497,4.549922,0,0.0008846,91,0
57070,94663786,0,12.58798,12.61286,28.16715,362.2318,4.559768,0,0.00088326,91,0
57160,94763746,0,12.58798,12.61298,28.33333,363.0186,4.569672,0,0.0008825,91,0
57249,94863706,0,12.58798,12.61281,28.16715,363.8008,4.579518,0,0.00088151,91,0
57338,94963666,0,12.58798,12.61294,28.33333,364.5876,4.589422,0,0.00088104,91,0
57429,95063626,0,12.58798,12.61285,28.25024,365.372,4.599297,0,0.00088048,91,0
57519,95163586,0,12.58798,12.61307,28.49951,366.1635,4.609259,0,0.00088048,91,0
57609,95263546,0,12.58798,12.61284,28.25024,366.9479,4.619133,0,0.00088,91,0
57700,95363506,0,12.58798,12.61313,28.5826,367.7416,4.629125,0,0.00088,91,0
57790,95463466,0,12.58798,12.6129,28.33333,368.5284,4.639029,0,0.00087973,91,0
57882,95563426,0,12.58798,12.6129,28.33333,369.3152,4.648932,0,0.0008795,91,0
57972,95663386,0,12.58798,12.61281,28.25024,370.0997,4.658807,0,0.00087914,91,0
58061,95763346,0,12.58798,12.61288,28.33333,370.8864,4.668711,0,0.00087901,91,0
58150,95863306,0,12.58798,12.6128,28.25024,371.6709,4.678586,0,0.00087873,91,0
58239,95963266,0,12.58798,12.61279,28.25024,372.4554,4.688461,0,0.0008785,91,0
58330,96064059,0,12.58798,12.61271,28.16715,373.2441,4.698389,0,0.00087813,91,0
58420,96164019,0,12.58798,12.61224,27.66862,374.0125,4.708061,0,0.00087678,91,0
58510,96263979,0,12.58798,12.61267,28.16715,374.7946,4.717906,0,0.0008767,91,0
58602,96363939,0,12.58798,12.61274,28.25024,375.5791,4.727781,0,0.0008767,91,0
58691,96463899,0,12.58798,12.61244,27.91789,376.3543,4.73754,0,0.0008761,91,0
58783,96563859,0,12.58798,12.61234,27.8348,377.1273,4.74727,0,0.00087542,91,0
58872,96663819,0,12.58798,12.61194,27.41936,377.8887,4.756855,0,0.000874,91,0
58962,96763779,0,12.58798,12.61274,28.33333,378.6755,4.766758,0,0.000874,90,0
59051,96863739,0,12.58798,12.61252,28.08407,379.4554,4.776576,0,0.000874,90,0
59141,96963699,0,12.58798,12.6126,28.16715,380.2375,4.786421,0,0.000874,90,0
59232,97063659,0,12.58798,12.61252,28.08407,381.0174,4.796238,0,0.000874,90,0
59321,97163619,0,12.58798,12.61274,28.33333,381.8042,4.806142,0,0.000874,90,0
59413,97263579,0,12.58798,12.61244,28.00098,382.5817,4.81593,0,0.00087375,90,0
59504,97363539,0,12.58798,12.61228,27.8348,383.3547,4.82566,0,0.00087321,90,0
59593,97463499,0,12.58798,12.61235,27.91789,384.1299,4.835419,0,0.00087293,90,0
59685,97563459,0,12.58798,12.61242,28.00098,384.9075,4.845207,0,0.00087286,90,0
59774,97663419,0,12.58798,12.61285,28.49951,385.6989,4.855169,0,0.00087286,90,0
59864,97763379,0,12.58798,12.61271,28.33333,386.4857,4.865073,0,0.00087286,90,0
59953,97863339,0,12.58798,12.61372,29.49658,387.3047,4.875384,0,0.00087286,90,0
60042,97963299,0,12.58798,12.61329,28.99804,388.11,4.88552,0,0.00087286,90,0
60133,98064092,0,12.58798,12.61438,30.24438,388.9568,4.896181,0,0.00087286,90,0
60222,98164052,0,12.58798,12.61358,29.3304,389.7713,4.906433,0,0.00087286,90,0
60313,98264012,0,12.58798,12.61416,29.99511,390.6042,4.916918,0,0.00087286,90,0
60405,98363972,0,12.58798,12.61372,29.49658,391.4233,4.927228,0,0.00087286,90,0
60494,98463932,0,12.58798,12.61445,30.32747,392.2655,4.937829,0,0.00087286,90,0
60586,98563892,0,12.58798,12.61387,29.66276,393.0892,4.948198,0,0.00087286,90,0
60675,98663852,0,12.58798,12.61452,30.41056,393.9337,4.958828,0,0.00087286,90,0
60765,98763812,0,12.58798,12.61394,29.74585,394.7597,4.969226,0,0.00087286,90,0
60854,98863772,0,12.58798,12.61364,29.41349,395.5765,4.979508,0,0.00087251,90,0
60943,98963732,0,12.58798,12.6134,29.16422,396.3863,4.989702,0,0.0008717,90,0
61035,99063692,0,12.58798,12.61299,28.74878,397.1846,4.999752,0,0.00087016,90,0
61124,99163652,0,12.58798,12.61265,28.41642,397.9737,5.009685,0,0.00086819,90,0
61215,99263612,0,12.58798,12.61237,28.16715,398.7559,5.01953,0,0.00086604,90,0
61306,99363572,0,12.58798,12.61217,28.00098,399.5334,5.029318,0,0.00086391,90,0
61395,99463532,0,12.58798,12.61212,28.00098,400.311,5.039106,0,0.00086214,90,0
61487,99563492,0,12.58798,12.61238,28.33333,401.0978,5.04901,0,0.00086135,90,0
61576,99663452,0,12.58798,12.61206,28.00098,401.8753,5.058798,0,0.00086002,90,0
61667,99763412,0,12.58798,12.61233,28.33333,402.6621,5.068702,0,0.00085958,90,0
61756,99863372,0,12.58798,12.61217,28.16715,403.4443,5.078548,0,0.00085888,90,0
61845,99963332,0,12.58798,12.61246,28.49951,404.2357,5.08851,0,0.00085888,90,0
61936,100063292,0,12.58798,12.61215,28.16715,405.0179,5.098356,0,0.00085828,90,0
62025,100164085,0,12.58798,12.61229,28.33333,405.8112,5.108342,0,0.00085813,90,0
62116,100264045,0,12.58798,12.61221,28.25024,406.5957,5.118217,0,0.00085783,90,0
62208,100364005,0,12.58798,12.61242,28.49951,407.3871,5.128179,0,0.00085783,90,0
62297,100463965,0,12.58798,12.6122,28.25024,408.1716,5.138054,0,0.00085753,90,0
62389,100563925,0,12.58798,12.61227,28.33333,408.9583,5.147958,0,0.00085746,90,0
62478,100663885,0,12.58798,12.61212,28.16715,409.7405,5.157804,0,0.00085706,90,0
62568,100763845,0,12.58798,12.61226,28.33333,410.5273,5.167707,0,0.00085706,90,0
62657,100863805,0,12.58798,12.61211,28.16715,411.3094,5.177553,0,0.00085672,90,0
62746,100963765,0,12.58798,12.61225,28.33333,412.0962,5.187457,0,0.00085672,90,0
62837,101063725,0,12.58798,12.6121,28.16715,412.8784,5.197303,0,0.00085644,90,0
62926,101163685,0,12.58798,12.61231,28.41642,413.6675,5.207236,0,0.00085644,90,0
63017,101263645,0,12.58798,12.61202,28.08407,414.4474,5.217053,0,0.00085598,90,0
63109,101363605,0,12.58798,12.6123,28.41642,415.2365,5.226986,0,0.00085598,90,0
63198,101463565,0,12.58798,12.61208,28.16715,416.0186,5.236832,0,0.00085572,90,0
63290,101563525,0,12.58798,12.61207,28.16715,416.8008,5.246677,0,0.00085551,90,0
63379,101663485,0,12.58798,12.61207,28.16715,417.5829,5.256523,0,0.00085533,90,0
63469,101763445,0,12.58798,12.61207,28.16715,418.3651,5.266369,0,0.00085519,90,0
63558,101863405,0,12.58798,12.61199,28.08407,419.145,5.276186,0,0.00085489,90,0
63647,101963365,0,12.58798,12.61213,28.25024,419.9295,5.286061,0,0.00085489,90,0
63739,102063325,0,12.58798,12.61198,28.08407,420.7094,5.295878,0,0.00085464,89,0
63828,102163285,0,12.58798,12.61212,28.25024,421.4938,5.305753,0,0.00085464,89,0
63920,102264078,0,12.58798,12.61276,28.99804,422.3058,5.315974,0,0.00085464,89,0
64012,102364038,0,12.58798,12.61347,29.82893,423.1341,5.326401,0,0.00085464,89,0
64101,102463998,0,12.58798,12.6134,29.74585,423.9601,5.336799,0,0.00085464,89,0
64193,102563958,0,12.58798,12.61312,29.41349,424.7769,5.34708,0,0.00085464,89,0
64282,102663918,0,12.58798,12.6134,29.74585,425.6029,5.357478,0,0.00085464,89,0
64372,102763878,0,12.58798,12.61304,29.3304,426.4174,5.367731,0,0.00085464,89,0
64461,102863838,0,12.58798,12.6139,30.32747,427.2596,5.378332,0,0.00085464,89,0
64550,102963798,0,12.58798,12.61319,29.49658,428.0786,5.388642,0,0.00085464,89,0
64641,103063758,0,12.58798,12.61375,30.16129,428.9162,5.399185,0,0.00085464,89,0
64730,103163718,0,12.58798,12.61304,29.3304,429.7307,5.409438,0,0.00085437,89,0
64821,103263678,0,12.58798,12.61396,30.41056,430.5752,5.420068,0,0.00085437,89,0
64913,103363638,0,12.58798,12.61287,29.16422,431.385,5.430262,0,0.00085349,89,0
65002,103463598,0,12.58798,12.61365,30.0782,432.2202,5.440776,0,0.00085349,89,0
65094,103563558,0,12.58798,12.61292,29.24731,433.0324,5.450999,0,0.00085273,89,0
65183,103663518,0,12.58798,12.61377,30.24438,433.8723,5.461571,0,0.00085273,89,0
65273,103763478,0,12.58798,12.61297,29.3304,434.6867,5.471824,0,0.00085204,89,0
65362,103863438,0,12.58798,12.61339,29.82893,435.515,5.482251,0,0.00085204,89,0
65451,103963398,0,12.58798,12.61257,28.91496,436.318,5.492358,0,0.00085055,89,0
65543,104063358,0,12.58798,12.61216,28.49951,437.1094,5.50232,0,0.00084848,89,0
65632,104163318,0,12.58798,12.61188,28.25024,437.8939,5.512195,0,0.00084625,89,0
65722,104263278,0,12.58798,12.61153,27.91789,438.6691,5.521954,0,0.00084372,89,0
65814,104364071,0,12.58798,12.61147,27.91789,439.4508,5.531794,0,0.00084163,89,0
65903,104464031,0,12.58798,12.6115,28.00098,440.2284,5.541582,0,0.00084005,89,0
65995,104563991,0,12.58798,12.61139,27.91789,441.0036,5.551341,0,0.00083858,89,0
66084,104663951,0,12.58798,12.61121,27.75171,441.7743,5.561042,0,0.00083702,89,0
66175,104763911,0,12.58798,12.61147,28.08407,442.5541,5.570859,0,0.00083639,89,0
66264,104863871,0,12.58798,12.6113,27.91789,443.3294,5.580618,0,0.00083553,89,0
66353,104963831,0,12.58798,12.61158,28.25024,444.1139,5.590493,0,0.00083548,89,0
66444,105063791,0,12.58798,12.61172,28.41642,444.903,5.600426,0,0.00083548,89,0
66533,105163751,0,12.58798,12.61158,28.25024,445.6874,5.610301,0,0.00083538,89,0
66623,105263711,0,12.58798,12.61113,27.75171,446.4581,5.620001,0,0.00083432,89,0
66716,105363671,0,12.58798,12.61162,28.33333,447.2448,5.629905,0,0.00083432,89,0
66805,105463631,0,12.58798,12.6114,28.08407,448.0247,5.639722,0,0.00083404,89,0
66897,105563591,0,12.58798,12.61168,28.41642,448.8138,5.649655,0,0.00083404,89,0
66986,105663551,0,12.58798,12.61147,28.16715,449.596,5.659501,0,0.00083391,89,0
67076,105763511,0,12.58798,12.61154,28.25024,450.3805,5.669376,0,0.00083391,89,0
67165,105863471,0,12.58798,12.61146,28.16715,451.1626,5.679222,0,0.00083379,89,0
67254,105963431,0,12.58798,12.61153,28.25024,451.9471,5.689096,0,0.00083379,89,0
67345,106063391,0,12.58798,12.61146,28.16715,452.7293,5.698942,0,0.00083368,89,0
67434,106163351,0,12.58798,12.6116,28.33333,453.5161,5.708846,0,0.00083368,89,0
67524,106263311,0,12.58798,12.61146,28.16715,454.2982,5.718692,0,0.00083355,89,0
67617,106363271,0,12.58798,12.61153,28.25024,455.0827,5.728567,0,0.00083355,89,0
67708,106464064,0,12.58798,12.61145,28.16715,455.8714,5.738495,0,0.00083344,89,0
67800,106564024,0,12.58798,12.6113,28.00098,456.649,5.748283,0,0.00083301,89,0
67889,106663984,0,12.58798,12.61129,28.00098,457.4265,5.758071,0,0.00083265,89,0
67979,106763944,0,12.58798,12.6115,28.25024,458.211,5.767946,0,0.00083265,89,0
68068,106863904,0,12.58798,12.61106,27.75171,458.9816,5.777647,0,0.00083183,89,0
68157,106963864,0,12.58798,12.6109,27.58553,459.7477,5.787289,0,0.00083082,89,0
68248,107063824,0,12.58798,12.6108,27.50244,460.5114,5.796903,0,0.00082981,89,0
68339,107163784,0,12.58798,12.61128,28.08407,461.2912,5.80672,0,0.00082981,89,1
68429,107263744,0,12.58798,12.61063,27.33627,462.0503,5.816275,0,0.0008286,88,1
68521,107363704,0,12.58798,12.6106,27.33627,462.8094,5.82583,0,0.00082758,88,1
68610,107463664,0,12.58798,12.6108,27.58553,463.5754,5.835473,0,0.00082723,88,1
68702,107563624,0,12.58798,12.61107,27.91789,464.3507,5.845232,0,0.00082723,88,1
68791,107663584,0,12.58798,12.61142,28.33333,465.1375,5.855136,0,0.00082723,88,1
68880,107763544,0,12.58798,12.61155,28.49951,465.9289,5.865098,0,0.00082723,88,1
68970,107863504,0,12.58798,12.61224,29.3304,466.7433,5.87535,0,0.00082723,88,1
69059,107963464,0,12.58798,12.61203,29.08113,467.5509,5.885516,0,0.00082723,88,1
69150,108063424,0,12.58798,12.61258,29.74585,468.3769,5.895914,0,0.00082723,88,1
69239,108163384,0,12.58798,12.61224,29.3304,469.1914,5.906166,0,0.00082723,88,1
69328,108263344,0,12.58798,12.61272,29.91202,470.022,5.916622,0,0.00082723,88,1
69422,108363304,0,12.58798,12.61231,29.41349,470.8388,5.926904,0,0.00082723,88,1
69511,108463264,0,12.58798,12.61286,30.0782,471.674,5.937418,0,0.00082723,88,1
69603,108564057,0,12.58798,12.61238,29.49658,472.5,5.947814,0,0.00082723,88,1
69692,108664017,0,12.58798,12.61286,30.0782,473.3352,5.958328,0,0.00082723,88,1
69781,108763977,0,12.58798,12.61231,29.41349,474.152,5.968609,0,0.00082723,88,1
69871,108863937,0,12.58798,12.61231,29.41349,474.9688,5.978891,0,0.00082723,88,1
69960,108963897,0,12.58798,12.61172,28.74878,475.7671,5.98894,0,0.00082599,88,1
70052,109063857,0,12.58798,12.61147,28.49951,476.5585,5.998902,0,0.00082447,88,1
70141,109163817,0,12.58798,12.61115,28.16715,477.3406,6.008748,0,0.00082255,88,1
70230,109263777,0,12.58798,12.61103,28.08407,478.1205,6.018565,0,0.00082079,88,1
70323,109363737,0,12.58798,12.61092,28.00098,478.8981,6.028353,0,0.00081917,88,1
70412,109463697,0,12.58798,12.61102,28.16715,479.6802,6.038199,0,0.00081814,88,1
70504,109563657,0,12.58798,12.611,28.16715,480.4624,6.048045,0,0.00081729,88,1
70594,109663617,0,12.58798,12.61105,28.25024,481.2469,6.05792,0,0.00081674,88,1
70683,109763577,0,12.58798,12.61097,28.16715,482.0291,6.067765,0,0.00081612,88,1
70773,109863537,0,12.58798,12.61095,28.16715,482.8112,6.077611,0,0.00081561,88,1
70862,109963497,0,12.58798,12.61094,28.16715,483.5934,6.087457,0,0.00081518,88,1
70953,110063457,0,12.58798,12.61093,28.16715,484.3755,6.097302,0,0.00081483,88,1
71042,110163417,0,12.58798,12.61099,28.25024,485.16,6.107177,0,0.00081469,88,1
71131,110263377,0,12.58798,12.61106,28.33333,485.9468,6.117081,0,0.00081469,88,1
71224,110363337,0,12.58798,12.61092,28.16715,486.729,6.126927,0,0.00081441,88,1
71313,110463297,0,12.58798,12.61084,28.08407,487.5089,6.136744,0,0.00081402,88,1
71405,110564090,0,12.58798,12.6109,28.16715,488.2975,6.146672,0,0.00081385,88,1
71495,110664050,0,12.58798,12.61083,28.08407,489.0774,6.156489,0,0.00081355,88,1
71584,110764010,0,12.58798,12.61082,28.08407,489.8573,6.166306,0,0.0008133,88,1
71674,110863970,0,12.58798,12.61081,28.08407,490.6372,6.176124,0,0.00081309,88,1
71763,110963930,0,12.58798,12.61088,28.16715,491.4193,6.185969,0,0.00081308,88,1
71854,111063890,0,12.58798,12.61088,28.16715,492.2015,6.195815,0,0.00081307,88,1
71943,111163850,0,12.58798,12.61088,28.16715,492.9837,6.205661,0,0.00081306,88,1
72032,111263810,0,12.58798,12.61088,28.16715,493.7658,6.215507,0,0.00081306,88,1
72125,111363770,0,12.58798,12.61081,28.08407,494.5457,6.225324,0,0.00081289,88,1
72214,111463730,0,12.58798,12.6108,28.08407,495.3256,6.235141,0,0.00081276,88,1
72306,111563690,0,12.58798,12.61087,28.16715,496.1078,6.244987,0,0.00081276,88,1
72395,111663650,0,12.58798,12.61087,28.16715,496.8899,6.254832,0,0.00081276,88,1
72484,111763610,0,12.58798,12.61094,28.25024,497.6744,6.264707,0,0.00081276,88,1
72574,111863570,0,12.58798,12.61094,28.25024,498.4589,6.274582,0,0.00081276,88,1
72663,111963530,0,12.58798,12.61087,28.16715,499.2411,6.284428,0,0.00081273,88,1
72754,112063490,0,12.58798,12.61087,28.16715,500.0232,6.294273,0,0.00081271,88,1
72844,112163450,0,12.58798,12.6108,28.08407,500.8031,6.30409,0,0.00081253,88,1
72934,112263410,0,12.58798,12.61086,28.16715,501.5853,6.313936,0,0.00081253,88,1
73029,112363370,0,12.58798,12.61086,28.16715,502.3674,6.323782,0,0.00081253,88,1
73118,112463330,0,12.58798,12.61093,28.25024,503.1519,6.333657,0,0.00081253,88,1
73210,112563290,0,12.58798,12.611,28.33333,503.9387,6.343561,0,0.00081253,88,1
73299,112664083,0,12.58798,12.6112,28.5826,504.739,6.353635,0,0.00081253,87,1
73388,112764043,0,12.58798,12.61154,28.99804,505.5443,6.363772,0,0.00081253,87,1
73478,112864003,0,12.58798,12.61167,29.16422,506.3541,6.373966,0,0.00081253,87,1
73567,112963963,0,12.58798,12.61174,29.24731,507.1663,6.38419,0,0.00081253,87,1
73658,113063923,0,12.58798,12.61181,29.3304,507.9807,6.394442,0,0.00081253,87,1
73747,113163883,0,12.58798,12.61181,29.3304,508.7952,6.404695,0,0.00081253,87,1
73836,113263843,0,12.58798,12.61188,29.41349,509.612,6.414976,0,0.00081253,87,1
73929,113363803,0,12.58798,12.61174,29.24731,510.4242,6.4252,0,0.00081253,87,1
74018,113463763,0,12.58798,12.61188,29.41349,511.2409,6.435481,0,0.00081253,87,1
74110,113563723,0,12.58798,12.61194,29.49658,512.06,6.445792,0,0.00081253,87,1
74198,113663683,0,12.58798,12.61221,29.82893,512.8883,6.456219,0,0.00081253,87,1
74286,113763643,0,12.58798,12.61194,29.49658,513.7074,6.466529,0,0.00081253,87,1
74375,113863603,0,12.58798,12.61174,29.24731,514.5196,6.476753,0,0.00081245,87,1
74463,113963563,0,12.58798,12.61123,28.66569,515.3156,6.486773,0,0.00081125,87,1
74553,114063523,0,12.58798,12.61099,28.41642,516.1047,6.496706,0,0.00080978,87,1
74641,114163483,0,12.58798,12.61067,28.08407,516.8845,6.506523,0,0.00080791,87,1
74729,114263443,0,12.58798,12.61055,28.00098,517.662,6.516311,0,0.0008062,87,1
74820,114363403,0,12.58798,12.61044,27.91789,518.4373,6.52607,0,0.00080462,87,1
74908,114463363,0,12.58798,12.61055,28.08407,519.2172,6.535887,0,0.00080362,87,1
