LineNo,TimeUS,LiftMax,BatVolt,BatRes,ThLimit,labels
1732,15363852,0.9728535,0.9834396,0,1,0
1814,15463812,0.9728535,0.9834396,0,1,0
1893,15563772,0.9728535,0.9834396,0,1,0
1972,15663732,0.9728535,0.9834396,0,1,0
2053,15763692,0.9728535,0.9834396,0,1,0
2132,15863652,0.9728535,0.9834396,0,1,0
2212,15963612,0.9728535,0.9834396,0,1,0
2292,16063572,0.9728535,0.9834396,0,1,0
2371,16163532,0.9728535,0.9834396,0,1,0
2454,16263492,0.9728535,0.9834396,0,1,0
2534,16363452,0.9728535,0.9834396,0,1,0
2614,16463412,0.9728535,0.9834396,0,1,0
2693,16563372,0.9728535,0.9834396,0,1,0
2772,16663332,0.9728535,0.9834396,0,1,0
2853,16763292,0.9728535,0.9834396,0,1,0
2932,16864085,0.9728535,0.9834396,0,1,0
3012,16964045,0.9728535,0.9834396,0,1,0
3092,17064005,0.9728535,0.9834396,0,1,0
3171,17163965,0.9728535,0.9834396,0,1,0
3255,17263925,0.9728535,0.9834396,0,1,0
3335,17363885,0.9728535,0.9834396,0,1,0
3415,17463845,0.9728535,0.9834396,0,1,0
3494,17563805,0.9728535,0.9834396,0,1,0
3573,17663765,0.9728535,0.9834396,0,1,0
3654,17763725,0.9728535,0.9834396,0,1,0
3733,17863685,0.9728535,0.9834396,0,1,0
3813,17963645,0.9728535,0.9834396,0,1,0
3893,18063605,0.9728535,0.9834396,0,1,0
3972,18163565,0.9728535,0.9834396,0,1,0
4055,18263525,0.9728535,0.9834396,0,1,0
4135,18363485,0.9728535,0.9834396,0,1,0
4215,18463445,0.9728535,0.9834396,0,1,0
4294,18563405,0.9728535,0.9834396,0,1,0
4379,18663365,0.9728535,0.9834396,0,1,0
4460,18763325,0.9728535,0.9834396,0,1,0
4539,18863285,0.9728535,0.9834396,0,1,0
4619,18964078,0.9728535,0.9834396,0,1,0
4699,19064038,0.9728535,0.9834396,0,1,0
4778,19163998,0.9728535,0.9834396,0,1,0
4861,19263958,0.9728535,0.9834396,0,1,0
4941,19363918,0.9728535,0.9834396,0,1,0
5021,19463878,0.9728535,0.9834396,0,1,0
5100,19563838,0.9728535,0.9834396,0,1,0
5179,19663798,0.9728535,0.9834396,0,1,0
5260,19763758,0.9728535,0.9834396,0,1,0
5340,19863718,0.9728535,0.9834396,0,1,0
5420,19963678,0.9728535,0.9834396,0,1,0
5500,20063638,0.9728535,0.9834396,0,1,0
5579,20163598,0.9728535,0.9834396,0,1,0
5662,20263558,0.9728535,0.9834396,0,1,0
5742,20363518,0.9728535,0.9834396,0,1,0
5822,20463478,0.9728535,0.9834396,0,1,0
5901,20563438,0.9728535,0.9834396,0,1,0
5980,20663398,0.9728535,0.9834396,0,1,0
6061,20763358,0.9728535,0.9834396,0,1,0
6140,20863318,0.9728535,0.9834396,0,1,0
6220,20963278,0.9728535,0.9834396,0,1,0
6300,21064071,0.9728535,0.9834396,0,1,0
6379,21164031,0.9728535,0.9834396,0,1,0
6462,21263991,0.9728535,0.9834396,0,1,0
6542,21363951,0.9728535,0.9834396,0,1,0
6622,21463911,0.9728535,0.9834396,0,1,0
6701,21563871,0.9728535,0.9834396,0,1,0
6780,21663831,0.9728535,0.9834396,0,1,0
6861,21763791,0.9728535,0.9834396,0,1,0
6940,21863751,0.9728535,0.9834396,0,1,0
7020,21963711,0.9728535,0.9834396,0,1,0
7099,22063671,0.9728535,0.9834396,0,1,0
7179,22163631,0.9728535,0.9834396,0,1,0
7262,22263591,0.9728535,0.9834396,0,1,0
7343,22363551,0.9728535,0.9834396,0,1,0
7423,22463511,0.9728535,0.9834396,0,1,0
7502,22563471,0.9728535,0.9834396,0,1,0
7581,22663431,0.9728535,0.9834396,0,1,0
7662,22763391,0.9728535,0.9834396,0,1,0
7741,22863351,0.9728535,0.9834396,0,1,0
7820,22963311,0.9728535,0.9834396,0,1,0
7900,23063271,0.9728535,0.9834396,0,1,0
7980,23164064,0.9728535,0.9834396,0,1,0
8063,23264024,0.9728535,0.9834396,0,1,0
8143,23363984,0.9728535,0.9834396,0,1,0
8222,23463944,0.9728535,0.9834396,0,1,0
8302,23563904,0.9728535,0.9834396,0,1,0
8381,23663864,0.9728535,0.9834396,0,1,0
8462,23763824,0.9728535,0.9834396,0,1,0
8541,23863784,0.9728535,0.9834396,0,1,0
8620,23963744,0.9728535,0.9834396,0,1,0
8700,24063704,0.9728535,0.9834396,0,1,0
8780,24163664,0.9728535,0.9834396,0,1,0
8863,24263624,0.9728535,0.9834396,0,1,0
8943,24363584,0.9728535,0.9834396,0,1,0
9022,24463544,0.9728535,0.9834396,0,1,0
9102,24563504,0.9728535,0.9834396,0,1,0
9181,24663464,0.9728535,0.9834396,0,1,0
9262,24763424,0.9728535,0.9834396,0,1,0
9341,24863384,0.9728535,0.9834396,0,1,0
9421,24963344,0.9728535,0.9834396,0,1,0
9501,25063304,0.9728535,0.9834396,0,1,0
9581,25163264,0.9728535,0.9834396,0,1,0
9664,25264057,0.9728535,0.9834396,0,1,0
9744,25364017,0.9728535,0.9834396,0,1,0
9823,25463977,0.9728535,0.9834396,0,1,0
9903,25563937,0.9728535,0.9834396,0,1,0
9982,25663897,0.9728535,0.9834396,0,1,0
10063,25763857,0.9728535,0.9834396,0,1,0
10142,25863817,0.9728535,0.9834396,0,1,0
10221,25963777,0.9728535,0.9834396,0,1,0
10301,26063737,0.9728535,0.9834396,0,1,0
10381,26163697,0.9728535,0.9834396,0,1,0
10464,26263657,0.9728535,0.9834396,0,1,0
10544,26363617,0.9728535,0.9834396,0,1,0
10623,26463577,0.9728535,0.9834396,0,1,0
10703,26563537,0.9728535,0.9834396,0,1,0
10782,26663497,0.9728535,0.9834396,0,1,0
10863,26763457,0.9728535,0.9834396,0,1,0
10942,26863417,0.9728535,0.9834396,0,1,0
11021,26963377,0.9728535,0.9834396,0,1,0
11101,27063337,0.9728535,0.9834396,0,1,0
11181,27163297,0.9728535,0.9834396,0,1,0
11264,27264090,0.9728535,0.9834396,0,1,0
11344,27364050,0.9728535,0.9834396,0,1,0
11423,27464010,0.9728535,0.9834396,0,1,0
11503,27563970,0.9728535,0.9834396,0,1,0
11582,27663930,0.9728535,0.9834396,0,1,0
11663,27763890,0.9728535,0.9834396,0,1,0
11742,27863850,0.9728535,0.9834396,0,1,0
11821,27963810,0.9728535,0.9834396,0,1,0
11901,28063770,0.9728535,0.9834396,0,1,0
11981,28163730,0.9728535,0.9834396,0,1,0
12064,28263690,0.9728535,0.9834396,0,1,0
12144,28363650,0.9728535,0.9834396,0,1,0
12223,28463610,0.9728535,0.9834396,0,1,0
12303,28563570,0.9728535,0.9834396,0,1,0
12382,28663530,0.9728535,0.9834396,0,1,0
12463,28763490,0.9728535,0.9834396,0,1,0
12542,28863450,0.9728535,0.9834396,0,1,0
12621,28963410,0.9728535,0.9834396,0,1,0
12701,29063370,0.9728535,0.9834396,0,1,0
12781,29163330,0.9728535,0.9834396,0,1,0
12864,29263290,0.9728535,0.9834396,0,1,0
12944,29364083,0.9728535,0.9834396,0,1,0
13023,29464043,0.9728535,0.9834396,0,1,0
13103,29564003,0.9728535,0.9834396,0,1,0
13182,29663963,0.9728535,0.9834396,0,1,0
13307,45963274,0.9728535,0.9834396,0,1,0
13386,46064067,0.9728535,0.9834396,0,1,0
13470,46164027,0.9728535,0.9834396,0,1,0
13556,46263987,0.9728535,0.9834396,0,1,0
13639,46363947,0.9728535,0.9834396,0,1,0
13725,46463907,0.9728535,0.9834396,0,1,0
13810,46563867,0.9728535,0.9834396,0,1,0
13895,46663827,0.9728535,0.9834396,0,1,0
13981,46763787,0.9728535,0.9834396,0,1,0
14066,46863747,0.9728535,0.9834396,0,1,0
14153,46963707,0.9728535,0.9834396,0,1,0
14238,47063667,0.9728535,0.9834396,0,1,0
14324,47163627,0.9728535,0.9834396,0,1,0
14412,47263587,0.9728535,0.9834396,0,1,0
14497,47363547,0.9728535,0.9834396,0,1,0
14585,47463507,0.9728535,0.9834396,0,1,0
14670,47563467,0.9728535,0.9834396,0,1,0
14755,47663427,0.9728535,0.9834396,0,1,0
14841,47763387,0.9728535,0.9834396,0,1,0
14926,47863347,0.9728535,0.9834396,0,1,0
15014,47963307,0.9728535,0.9834396,0,1,0
15103,48063267,0.9728535,0.9834396,0,1,0
15193,48164060,0.9728535,0.9834396,0,1,0
15285,48264020,0.9728535,0.9834396,0,1,0
15374,48363980,0.9728535,0.9834396,0,1,0
15467,48463940,0.9728535,0.9834396,0,1,0
15556,48563900,0.9728535,0.9834396,0,1,0
15645,48663860,0.9728535,0.9834396,0,1,0
15735,48763820,0.9728535,0.9834396,0,1,0
15824,48863780,0.9728535,0.9834396,0,1,0
15915,48963740,0.9728535,0.9834396,0,1,0
16004,49063700,0.9728535,0.9834396,0,1,0
16094,49163660,0.9728535,0.9834396,0,1,0
16186,49263620,0.9728535,0.9834396,0,1,0
16275,49363580,0.9728535,0.9834396,0,1,0
16367,49463540,0.9728535,0.9834396,0,1,0
16456,49563500,0.9728535,0.9834396,0,1,0
16545,49663460,0.9728535,0.9834396,0,1,0
16635,49763420,0.9728535,0.9834396,0,1,0
16724,49863380,0.9728535,0.9834396,0,1,0
16815,49963340,0.9728535,0.9834396,0,1,0
16904,50063300,0.9728535,0.9834396,0,1,0
16994,50163260,0.9728535,0.9834396,0,1,0
17086,50264053,0.9728535,0.9834396,0,1,0
17175,50364013,0.9728535,0.9834396,0,1,0
17267,50463973,0.9728535,0.9834396,0,1,0
17356,50563933,0.9728535,0.9834396,0.0005623,1,0
17445,50663893,0.9733089,0.9837192,0.00102773,1,0
17535,50763853,0.974099,0.9842041,0.00102773,1,0
17624,50863813,0.9747704,0.9846161,0.00102773,1,0
17715,50963773,0.9752759,0.9849262,0.00102773,1,0
17805,51063733,0.9756869,0.9851782,0.00102773,1,0
17895,51163693,0.9759728,0.9853535,0.00102773,1,0
17987,51263653,0.9761731,0.9854764,0.00102773,1,0
18076,51363613,0.9763228,0.9855681,0.00102773,1,0
18168,51463573,0.9764349,0.9856368,0.00102773,1,0
18257,51563533,0.9765228,0.9856907,0.00102773,1,0
18346,51663493,0.9765959,0.9857355,0.00102773,1,0
18436,51763453,0.9766523,0.98577,0.00102773,1,0
18525,51863413,0.9767051,0.9858025,0.00102773,1,0
18616,51963373,0.9767526,0.9858316,0.00102773,1,0
18705,52063333,0.9767903,0.9858547,0.00102773,1,0
18796,52163293,0.9768177,0.9858715,0.00102773,1,0
18888,52264086,0.9768494,0.9858909,0.00102773,1,0
18979,52364046,0.9768727,0.9859052,0.00102773,1,0
19073,52464006,0.9768898,0.9859157,0.00102773,1,0
19162,52563966,0.9768991,0.9859214,0.00102773,1,0
19251,52663926,0.9769089,0.9859274,0.00102773,1,0
19341,52763886,0.9769129,0.9859298,0.00102773,1,0
19430,52863846,0.9769129,0.9859298,0.00102773,1,0
19521,52963806,0.9769099,0.9859279,0.00103436,1,0
19610,53063766,0.9769059,0.9859256,0.00103968,1,0
19700,53163726,0.9769059,0.9859256,0.00104369,1,0
19792,53263686,0.9769059,0.9859256,0.00104663,1,0
19881,53363646,0.976902,0.9859232,0.00104886,1,0
19973,53463606,0.9768982,0.9859208,0.00105072,1,0
20063,53563566,0.9768982,0.9859208,0.00105226,1,0
20152,53663526,0.9768982,0.9859208,0.00105355,1,0
20242,53763486,0.976899,0.9859213,0.00105462,1,0
20331,53863446,0.9769028,0.9859237,0.00105572,1,0
20422,53963406,0.9769084,0.9859271,0.00105643,1,0
20511,54063366,0.97691,0.9859281,0.00105723,1,0
20601,54163326,0.9769149,0.985931,0.00105789,1,0
20693,54263286,0.9769187,0.9859334,0.00105844,1,0
20782,54364079,0.9769226,0.9859358,0.0010589,1,0
20874,54464039,0.9769266,0.9859382,0.0010589,1,0
20964,54563999,0.976932,0.9859415,0.0010589,1,0
21053,54663959,0.9769398,0.9859463,0.0010589,1,0
21142,54763919,0.9769441,0.985949,0.0010589,1,0
21232,54863879,0.976948,0.9859514,0.0010589,1,0
21323,54963839,0.976952,0.9859537,0.0010589,1,0
21412,55063799,0.9769531,0.9859545,0.0010589,1,0
21502,55163759,0.9769571,0.9859569,0.0010589,1,0
21593,55263719,0.9769641,0.9859612,0.0010589,1,0
21683,55363679,0.9769645,0.9859614,0.00105895,1,0
21776,55463639,0.9769645,0.9859614,0.00105895,1,0
21865,55563599,0.9769647,0.9859616,0.00105895,1,0
21954,55663559,0.9769686,0.9859639,0.00105895,1,0
22043,55763519,0.9769686,0.9859639,0.00105895,1,0
22133,55863479,0.9769725,0.9859663,0.00105895,1,0
22224,55963439,0.9769759,0.9859684,0.00105896,1,0
22313,56063399,0.9769759,0.9859684,0.00105897,1,0
22404,56163359,0.9769759,0.9859684,0.00105898,1,0
22495,56263319,0.9769759,0.9859684,0.00105898,1,0
22585,56363279,0.976976,0.9859685,0.00105895,1,0
22678,56464072,0.976976,0.9859685,0.00105895,1,0
22767,56564032,0.976976,0.9859685,0.00105895,1,0
22856,56663992,0.976976,0.9859685,0.00105895,1,0
22945,56763952,0.976976,0.9859685,0.00105885,1,0
23035,56863912,0.976976,0.9859685,0.00105877,1,0
23126,56963872,0.976976,0.9859685,0.0010587,1,0
23215,57063832,0.976976,0.9859685,0.0010587,1,0
23305,57163792,0.9769799,0.9859709,0.00105858,1,0
23396,57263752,0.976976,0.9859685,0.00105858,1,0
23486,57363712,0.976976,0.9859685,0.00105846,1,0
23579,57463672,0.9769752,0.985968,0.00105837,1,0
23668,57563632,0.9769748,0.9859678,0.00105829,1,0
23757,57663592,0.9769745,0.9859676,0.00105829,1,0
23846,57763552,0.9769823,0.9859723,0.00105829,1,0
23936,57863512,0.9769823,0.9859723,0.00105829,1,0
24027,57963472,0.9769823,0.9859723,0.00105829,1,0
24116,58063432,0.9769823,0.9859723,0.00105811,1,0
24206,58163392,0.9769784,0.98597,0.00105797,1,0
24297,58263352,0.9769745,0.9859676,0.00105743,1,0
24387,58363312,0.9769664,0.9859626,0.00105656,1,0
24480,58463272,0.9769531,0.9859545,0.001055,1,0
24569,58564065,0.9769298,0.9859402,0.00105287,1,0
24658,58664025,0.9768987,0.9859211,0.00105028,1,0
24747,58763985,0.9768612,0.9858981,0.00104708,1,0
24837,58863945,0.9768158,0.9858703,0.00104338,1,0
24928,58963905,0.976764,0.9858385,0.00103928,1,0
25017,59063865,0.9767072,0.9858037,0.00103485,1,0
25107,59163825,0.9766468,0.9857667,0.00103015,1,0
25198,59263785,0.9765834,0.9857279,0.00102524,1,0
25288,59363745,0.976518,0.9856879,0.00102076,1,0
25381,59463705,0.9764602,0.9856524,0.00101664,1,0
25470,59563665,0.9764085,0.9856207,0.00101301,1,0
25559,59663625,0.9763645,0.9855937,0.00100981,1,0
25648,59763585,0.9763265,0.9855704,0.00100714,1,0
25738,59863545,0.9762963,0.9855519,0.00100433,1,0
25829,59963505,0.9762632,0.9855316,0.0010018,1,0
25918,60063465,0.9762338,0.9855136,0.0009997,1,0
26008,60163425,0.9762105,0.9854993,0.00099775,1,0
26099,60263385,0.9761891,0.9854861,0.00099593,1,0
26189,60363345,0.9761686,0.9854736,0.00099462,1,0
26283,60463305,0.9761556,0.9854656,0.00099333,1,0
26372,60563265,0.9761422,0.9854574,0.00099333,1,0
26461,60664058,0.9761575,0.9854668,0.00099333,1,0
26550,60764018,0.9761943,0.9854894,0.00099333,1,0
26640,60863978,0.9762183,0.9855041,0.00099333,1,0
26731,60963938,0.9762328,0.985513,0.00099333,1,0
26820,61063898,0.9762464,0.9855213,0.00099333,1,0
26910,61163858,0.9762541,0.985526,0.00099333,1,0
27002,61263818,0.9762676,0.9855343,0.00099333,1,0
27094,61363778,0.9762754,0.9855391,0.00099333,1,0
27186,61463738,0.9762944,0.9855508,0.00099333,1,0
27275,61563698,0.9762994,0.9855538,0.00099333,1,0
27364,61663658,0.9763072,0.9855586,0.00099333,1,0
27453,61763618,0.9763179,0.9855651,0.00099333,1,0
27543,61863578,0.9763257,0.9855699,0.00099333,1,0
27634,61963538,0.9763372,0.985577,0.00099333,1,0
27723,62063498,0.9763484,0.9855838,0.00099333,1,0
27813,62163458,0.976362,0.9855922,0.00099333,1,0
27904,62263418,0.9763698,0.985597,0.00099333,1,0
27995,62363378,0.976374,0.9855995,0.00099333,1,0
28087,62463338,0.9763834,0.9856053,0.00099333,1,0
28176,62563298,0.9763912,0.9856101,0.00099333,1,0
28265,62664091,0.9763952,0.9856125,0.00099333,1,0
28354,62764051,0.9763952,0.9856125,0.00099333,1,0
28444,62864011,0.9763952,0.9856125,0.00099286,1,0
28535,62963971,0.9763846,0.985606,0.00099286,1,0
28624,63063931,0.9763885,0.9856084,0.00099286,1,0
28713,63163891,0.9763963,0.9856132,0.00099268,1,0
28805,63263851,0.9763917,0.9856104,0.00099194,1,0
28895,63363811,0.9763784,0.9856023,0.00099094,1,0
28987,63463771,0.9763619,0.9855921,0.00099094,1,0
29076,63563731,0.9763725,0.9855986,0.00099094,1,0
29165,63663691,0.9763858,0.9856067,0.00099094,1,0
29254,63763651,0.9763858,0.9856067,0.00099094,1,0
29344,63863611,0.9763858,0.9856067,0.00099094,1,0
29435,63963571,0.9763858,0.9856067,0.00099094,1,0
29524,64063531,0.9763896,0.9856091,0.00099094,1,0
29613,64163491,0.9763936,0.9856115,0.00099094,1,0
29705,64263451,0.9763936,0.9856115,0.00099094,1,0
29795,64363411,0.9763936,0.9856115,0.00099094,1,0
29887,64463371,0.9763952,0.9856126,0.00099094,1,0
29976,64563331,0.9763992,0.985615,0.00099094,1,0
30065,64663291,0.9763992,0.985615,0.00099085,1,0
30154,64764084,0.9763969,0.9856135,0.00099085,1,0
30244,64864044,0.9764007,0.9856159,0.00099072,1,0
30335,64964004,0.9763969,0.9856135,0.00099072,1,0
30424,65063964,0.9763969,0.9856135,0.0009906,1,0
30513,65163924,0.9763958,0.9856129,0.0009906,1,0
30605,65263884,0.9763958,0.9856129,0.0009906,1,0
30695,65363844,0.9763958,0.9856129,0.0009906,1,0
30787,65463804,0.9763958,0.9856129,0.0009906,1,0
30876,65563764,0.9763958,0.9856129,0.0009906,1,0
30965,65663724,0.9763958,0.9856129,0.0009906,1,0
31054,65763684,0.9763958,0.9856129,0.0009906,1,0
31144,65863644,0.9763958,0.9856129,0.00099043,1,0
31235,65963604,0.9763952,0.9856126,0.00099029,1,0
31324,66063564,0.9763948,0.9856123,0.00099029,1,0
31413,66163524,0.9763948,0.9856123,0.00099029,1,0
31505,66263484,0.9763948,0.9856123,0.00099029,1,0
31595,66363444,0.9763948,0.9856123,0.00099029,1,0
31688,66463404,0.9763948,0.9856123,0.00099029,1,0
31777,66563364,0.9763987,0.9856147,0.00099029,1,0
31866,66663324,0.9764026,0.985617,0.00099006,1,0
31955,66763284,0.9763987,0.9856147,0.00099006,1,0
32044,66864077,0.9763987,0.9856147,0.00099006,1,0
32136,66964037,0.9763987,0.9856147,0.00098987,1,0
32225,67063997,0.9763948,0.9856123,0.00098987,1,0
32314,67163957,0.9763948,0.9856123,0.00098971,1,0
32406,67263917,0.9763927,0.985611,0.00098971,1,0
32495,67363877,0.9763927,0.985611,0.00098956,1,0
32588,67463837,0.9763923,0.9856107,0.00098944,1,0
32677,67563797,0.9763918,0.9856104,0.00098934,1,0
32766,67663757,0.9763913,0.9856102,0.00098926,1,0
32855,67763717,0.9763912,0.9856101,0.00098919,1,0
32944,67863677,0.9763909,0.9856099,0.00098919,1,0
33036,67963637,0.9763948,0.9856123,0.00098908,1,0
33125,68063597,0.9763909,0.9856099,0.00098908,1,0
33214,68163557,0.9763909,0.9856099,0.00098908,1,0
33306,68263517,0.9763909,0.9856099,0.00098908,1,0
33395,68363477,0.9763948,0.9856123,0.00098891,1,0
33488,68463437,0.9763909,0.9856099,0.00098877,1,0
33577,68563397,0.9763894,0.9856089,0.00098877,1,0
33666,68663357,0.9763894,0.9856089,0.00098864,1,0
33755,68763317,0.976389,0.9856087,0.00098853,1,0
33844,68863277,0.9763886,0.9856085,0.00098844,1,0
33936,68964070,0.9763883,0.9856083,0.00098844,1,0
34025,69064030,0.9763883,0.9856083,0.00098844,1,0
34114,69163990,0.9763883,0.9856083,0.00098833,1,0
34206,69263950,0.9763879,0.985608,0.00098824,1,0
34295,69363910,0.9763875,0.9856078,0.00098816,1,0
34388,69463870,0.9763873,0.9856077,0.00098816,1,0
34477,69563830,0.9763873,0.9856077,0.00098816,1,0
34566,69663790,0.9763912,0.9856101,0.00098803,1,0
34655,69763750,0.9763873,0.9856077,0.00098803,1,0
34744,69863710,0.9763873,0.9856077,0.00098803,1,0
34836,69963670,0.9763873,0.9856077,0.00098803,1,0
34925,70063630,0.9763873,0.9856077,0.00098788,1,0
35014,70163590,0.9763861,0.985607,0.00098788,1,0
35106,70263550,0.9763861,0.985607,0.00098775,1,0
35195,70363510,0.9763858,0.9856068,0.00098764,1,0
35288,70463470,0.9763854,0.9856065,0.00098755,1,0
35377,70563430,0.9763851,0.9856063,0.00098747,1,0
35466,70663390,0.9763848,0.9856061,0.00098747,1,0
35555,70763350,0.9763848,0.9856061,0.00098747,1,0
35644,70863310,0.9763848,0.9856061,0.00098737,1,0
35736,70963270,0.9763844,0.9856059,0.00098737,1,0
35825,71064063,0.9763844,0.9856059,0.00098726,1,0
35914,71164023,0.976384,0.9856057,0.00098726,1,0
36006,71263983,0.9763963,0.9856132,0.00098726,1,0
36095,71363943,0.9763963,0.9856132,0.0009872,1,0
36189,71463903,0.9763942,0.9856119,0.0009872,1,0
36278,71563863,0.9763942,0.9856119,0.0009872,1,0
36367,71663823,0.9764013,0.9856163,0.0009872,1,0
36456,71763783,0.9764053,0.9856187,0.00098697,1,0
36545,71863743,0.9764013,0.9856163,0.00098678,1,0
36637,71963703,0.9763975,0.9856139,0.00098564,1,0
36726,72063663,0.9763796,0.985603,0.00098548,1,0
36815,72163623,0.9763777,0.9856018,0.00098534,1,0
36907,72263583,0.9763771,0.9856015,0.00098523,1,0
36997,72363543,0.9763767,0.9856012,0.00098523,1,0
37091,72463503,0.9763767,0.9856012,0.00098414,1,0
37180,72563463,0.9763599,0.9855909,0.00098149,1,0
37269,72663423,0.97632,0.9855664,0.00097987,1,0
37358,72763383,0.976298,0.9855529,0.00097987,1,0
37447,72863343,0.9763063,0.985558,0.00097987,1,0
37539,72963303,0.976313,0.9855621,0.00097987,1,0
37628,73063263,0.9763569,0.985589,0.00097987,1,0
37717,73164056,0.9763832,0.9856052,0.00097987,1,0
37809,73264016,0.9764221,0.985629,0.00097987,1,0
37898,73363976,0.9764478,0.9856448,0.00097987,1,0
37991,73463936,0.9764748,0.9856613,0.00097987,1,0
38080,73563896,0.9765028,0.9856785,0.00097987,1,0
38169,73663856,0.9765261,0.9856928,0.00097987,1,0
38258,73763816,0.976532,0.9856963,0.00097987,1,0
38347,73863776,0.976532,0.9856963,0.00097987,1,0
38439,73963736,0.976532,0.9856963,0.00097987,1,0
38528,74063696,0.9765615,0.9857145,0.00097987,1,0
38618,74163656,0.9765655,0.9857169,0.00097987,1,0
38710,74263616,0.9765694,0.9857193,0.00097939,1,0
38799,74363576,0.9765552,0.9857106,0.00097783,1,0
38892,74463536,0.9765263,0.9856929,0.00097576,1,0
38981,74563496,0.9764919,0.9856718,0.00097327,1,0
39070,74663456,0.9764532,0.9856481,0.00097101,1,0
39160,74763416,0.9764201,0.9856278,0.00096894,1,0
39249,74863376,0.9763911,0.98561,0.00096741,1,0
39341,74963336,0.9763712,0.9855978,0.00096613,1,0
39430,75063296,0.9763553,0.985588,0.00096565,1,0
39519,75164089,0.9763514,0.9855856,0.00096352,1,0
39611,75264049,0.9763218,0.9855675,0.00096352,1,0
39700,75364009,0.9763274,0.985571,0.00096326,1,0
39794,75463969,0.9763274,0.985571,0.00096326,1,0
39883,75563929,0.9763314,0.9855734,0.00096302,1,0
39972,75663889,0.9763278,0.9855712,0.000963,1,0
40061,75763849,0.9763278,0.9855712,0.00096223,1,0
40150,75863809,0.9763172,0.9855647,0.00096102,1,0
40242,75963769,0.9763001,0.9855542,0.00096096,1,0
40331,76063729,0.9763001,0.9855542,0.00096096,1,0
40420,76163689,0.976304,0.9855566,0.0009607,1,0
40512,76263649,0.9763001,0.9855542,0.0009607,1,0
40601,76363609,0.976304,0.9855566,0.00096045,1,0
40695,76463569,0.9763001,0.9855542,0.00096045,1,0
40785,76563529,0.976304,0.9855566,0.00096022,1,0
40874,76663489,0.9763001,0.9855542,0.00096022,1,0
40963,76763449,0.9763001,0.9855542,0.00096003,1,0
41052,76863409,0.9762967,0.9855521,0.00096003,1,0
41144,76963369,0.9763006,0.9855545,0.00095964,1,0
41233,77063329,0.9762952,0.9855512,0.00095964,1,0
41322,77163289,0.9762952,0.9855512,0.00095931,1,0
41414,77264082,0.9762914,0.9855489,0.00095923,1,0
41504,77364042,0.9762914,0.9855489,0.00095923,1,0
41596,77464002,0.9762952,0.9855512,0.00095923,1,0
41686,77563962,0.9763013,0.9855549,0.00095922,1,0
41775,77663922,0.9763013,0.9855549,0.00095903,1,0
41864,77763882,0.9762974,0.9855525,0.00095903,1,0
41953,77863842,0.9763083,0.9855592,0.00095903,1,0
42044,77963802,0.9763112,0.985561,0.00095903,1,0
42134,78063762,0.9763482,0.9855837,0.00095903,1,0
42223,78163722,0.976356,0.9855885,0.00095903,1,0
42315,78263682,0.9764001,0.9856156,0.00095903,1,0
42404,78363642,0.9764041,0.9856179,0.00095903,1,0
42497,78463602,0.9764408,0.9856405,0.00095903,1,0
42587,78563562,0.9764408,0.9856405,0.00095903,1,0
42676,78663522,0.9764705,0.9856586,0.00095903,1,0
42765,78763482,0.9764665,0.9856563,0.00095903,1,0
42854,78863442,0.9764946,0.9856734,0.00095903,1,0
42945,78963402,0.9764907,0.985671,0.00095903,1,0
43035,79063362,0.9764907,0.985671,0.00095812,1,0
43124,79163322,0.9764704,0.9856586,0.00095604,1,0
43216,79263282,0.9764346,0.9856367,0.00095374,1,0
43305,79364075,0.9763979,0.9856142,0.00095108,1,0
43398,79464035,0.9763577,0.9855896,0.00094868,1,0
43488,79563995,0.9763232,0.9855684,0.00094631,1,0
43577,79663955,0.9762906,0.9855484,0.00094472,1,0
43666,79763915,0.9762702,0.9855359,0.00094339,1,0
43755,79863875,0.9762541,0.985526,0.00094266,1,0
43846,79963835,0.9762465,0.9855214,0.00094186,1,0
43936,80063795,0.9762387,0.9855165,0.00094186,1,0
44026,80163755,0.9762425,0.9855189,0.00094137,1,0
44118,80263715,0.9762385,0.9855164,0.00094134,1,0
44207,80363675,0.9762385,0.9855164,0.00094094,1,0
44299,80463635,0.9762346,0.985514,0.00094094,1,0
44389,80563595,0.9762385,0.9855164,0.00094075,1,0
44478,80663555,0.9762374,0.9855158,0.00094075,1,0
44567,80763515,0.9762413,0.9855182,0.00094038,1,0
44656,80863475,0.9762361,0.9855149,0.00094038,1,0
44747,80963435,0.9762399,0.9855173,0.00094003,1,0
44837,81063395,0.9762348,0.9855142,0.00093992,1,0
44927,81163355,0.9762344,0.985514,0.00093964,1,0
45019,81263315,0.9762305,0.9855116,0.0009396,1,0
45108,81363275,0.9762305,0.9855116,0.00093938,1,0
45200,81464068,0.9762267,0.9855092,0.00093938,1,0
45291,81564028,0.9762267,0.9855092,0.0009392,1,0
45380,81663988,0.9762228,0.9855068,0.0009392,1,0
45469,81763948,0.9762267,0.9855092,0.00093901,1,0
45558,81863908,0.9762228,0.9855068,0.00093885,1,0
45649,81963868,0.9762207,0.9855055,0.00093854,1,0
45739,82063828,0.9762168,0.9855031,0.00093854,1,0
45828,82163788,0.9762171,0.9855033,0.00093826,1,0
45920,82263748,0.9762132,0.9855009,0.00093821,1,0
46011,82363708,0.9762132,0.9855009,0.00093821,1,0
46103,82463668,0.976229,0.9855106,0.00093821,1,0
46193,82563628,0.976243,0.9855192,0.00093821,1,0
46282,82663588,0.976247,0.9855217,0.00093821,1,0
46371,82763548,0.976247,0.9855217,0.00093821,1,0
46460,82863508,0.9762643,0.9855323,0.00093821,1,0
46551,82963468,0.9762655,0.9855331,0.00093821,1,0
46642,83063428,0.9763047,0.985557,0.00093821,1,0
46731,83163388,0.9763125,0.9855618,0.00093821,1,0
46823,83263348,0.9763495,0.9855845,0.00093821,1,0
46912,83363308,0.9763476,0.9855833,0.00093821,1,0
47004,83463268,0.9763779,0.9856019,0.00093816,1,0
47094,83564061,0.9763682,0.9855959,0.00093816,1,0
47183,83664021,0.9763955,0.9856127,0.00093816,1,0
47272,83763981,0.9763955,0.9856127,0.00093816,1,0
47361,83863941,0.9764209,0.9856283,0.0009378,1,0
47452,83963901,0.9764073,0.98562,0.0009378,1,0
47543,84063861,0.9764073,0.98562,0.0009365,1,0
47632,84163821,0.9763826,0.9856048,0.00093467,1,0
47724,84263781,0.976352,0.985586,0.00093297,1,0
47813,84363741,0.9763254,0.9855697,0.00093008,1,0
47905,84463701,0.9762817,0.985543,0.00092695,1,0
47995,84563661,0.9762363,0.9855152,0.00092471,1,0
48084,84663621,0.9762063,0.9854967,0.00092322,1,0
48174,84763581,0.9761884,0.9854857,0.00092198,1,0
48263,84863541,0.9761741,0.985477,0.00092149,1,0
48354,84963501,0.9761702,0.9854746,0.00092072,1,0
48444,85063461,0.9761624,0.9854698,0.00092063,1,0
48533,85163421,0.9761624,0.9854698,0.00092018,1,0
48625,85263381,0.9761586,0.9854674,0.00092018,1,0
48714,85363341,0.9761607,0.9854687,0.00091981,1,0
48806,85463301,0.9761568,0.9854664,0.00091969,1,0
48897,85563261,0.9761568,0.9854664,0.00091922,1,0
48986,85664054,0.976151,0.9854628,0.00091902,1,0
49075,85764014,0.9761496,0.985462,0.00091758,1,0
49164,85863974,0.9761282,0.9854489,0.00091758,1,0
49255,85963934,0.9761361,0.9854537,0.00091739,1,0
49345,86063894,0.9761341,0.9854524,0.00091688,1,0
49434,86163854,0.9761263,0.9854476,0.00091573,1,0
49526,86263814,0.9761094,0.9854373,0.00091495,1,0
49615,86363774,0.976099,0.9854309,0.00091495,1,0
49707,86463734,0.9761028,0.9854333,0.00091495,1,0
49798,86563694,0.9761121,0.9854389,0.00091495,1,0
49888,86663654,0.9761128,0.9854394,0.00091495,1,0
49977,86763614,0.9761128,0.9854394,0.00091495,1,0
50066,86863574,0.9761167,0.9854418,0.00091495,1,0
50157,86963534,0.9761167,0.9854418,0.00091495,1,0
50246,87063494,0.9761167,0.9854418,0.00091495,1,0
50336,87163454,0.9761246,0.9854466,0.00091489,1,0
50428,87263414,0.9761246,0.9854466,0.00091489,1,0
50518,87363374,0.9761285,0.985449,0.00091489,1,0
50609,87463334,0.9761441,0.9854586,0.00091489,1,0
50699,87563294,0.9761503,0.9854624,0.00091489,1,0
50789,87664087,0.9761541,0.9854648,0.00091489,1,0
50878,87764047,0.976158,0.9854671,0.00091489,1,0
50967,87864007,0.9761683,0.9854734,0.00091489,1,0
51058,87963967,0.976176,0.9854782,0.00091489,1,0
51147,88063927,0.9762023,0.9854943,0.00091489,1,0
51237,88163887,0.9762107,0.9854994,0.00091489,1,0
51329,88263847,0.9762328,0.9855129,0.00091489,1,0
51418,88363807,0.9762367,0.9855153,0.00091489,1,0
51510,88463767,0.9762542,0.9855261,0.00091489,1,0
51600,88563727,0.9762542,0.9855261,0.00091489,1,0
51690,88663687,0.97627,0.9855357,0.00091489,1,0
51779,88763647,0.97627,0.9855357,0.00091489,1,0
51868,88863607,0.9762838,0.9855443,0.00091489,1,0
51959,88963567,0.97628,0.9855419,0.00091489,1,0
52048,89063527,0.97628,0.9855419,0.00091377,1,0
52138,89163487,0.9762589,0.9855289,0.00091248,1,0
52230,89263447,0.9762372,0.9855157,0.0009105,1,0
52319,89363407,0.9762063,0.9854967,0.00090832,1,0
52411,89463367,0.9761739,0.9854769,0.00090632,1,0
52501,89563327,0.9761459,0.9854597,0.00090485,1,0
52591,89663287,0.9761263,0.9854477,0.00090344,1,0
52680,89764080,0.9761085,0.9854367,0.00090244,1,0
52769,89864040,0.9760967,0.9854295,0.0009018,1,0
52860,89964000,0.9760897,0.9854252,0.00090144,1,0
52950,90063960,0.9760864,0.9854232,0.00090132,1,0
53040,90163920,0.9760864,0.9854232,0.00090104,1,0
53132,90263880,0.9760851,0.9854224,0.00090098,1,0
53221,90363840,0.9760851,0.9854224,0.00090094,1,0
53312,90463800,0.9760851,0.9854224,0.0009009,1,0
53402,90563760,0.9760851,0.9854224,0.0009009,1,0
53492,90663720,0.9760889,0.9854248,0.00090085,1,0
53581,90763680,0.9760889,0.9854248,0.00090063,1,0
53670,90863640,0.9760851,0.9854224,0.00090044,1,0
53761,90963600,0.9760828,0.985421,0.00090044,1,0
53851,91063560,0.9760885,0.9854245,0.00090022,1,0
53941,91163520,0.9760847,0.9854221,0.00090004,1,0
54033,91263480,0.9760814,0.9854201,0.00089989,1,0
54122,91363440,0.9760809,0.9854198,0.00089977,1,0
54213,91463400,0.9760804,0.9854195,0.00089967,1,0
54303,91563360,0.9760801,0.9854193,0.00089958,1,0
54393,91663320,0.9760797,0.9854191,0.00089933,1,0
54483,91763280,0.9760758,0.9854167,0.00089912,1,0
54572,91864073,0.9760718,0.9854143,0.00089912,1,0
54663,91964033,0.9760718,0.9854143,0.00089912,1,0
54752,92063993,0.9760718,0.9854143,0.00089895,1,0
54842,92163953,0.976068,0.9854119,0.00089881,1,0
54935,92263913,0.9760674,0.9854116,0.00089869,1,0
55027,92363873,0.9760671,0.9854113,0.00089699,1,0
55118,92463833,0.9760408,0.9853953,0.0008954,1,0
55208,92563793,0.9760177,0.9853811,0.00089443,1,0
55298,92663753,0.976005,0.9853733,0.00089443,1,0
55387,92763713,0.9760089,0.9853756,0.00089443,1,0
55476,92863673,0.9760184,0.9853815,0.00089443,1,0
55567,92963633,0.9760638,0.9854094,0.00089443,1,0
55657,93063593,0.9760816,0.9854203,0.00089443,1,0
55747,93163553,0.9761255,0.9854472,0.00089443,1,0
55839,93263513,0.9761447,0.9854589,0.00089443,1,0
55928,93363473,0.9761662,0.9854721,0.00089443,1,0
56019,93463433,0.9761823,0.985482,0.00089443,1,0
56109,93563393,0.976194,0.9854892,0.00089443,1,0
56199,93663353,0.976202,0.9854941,0.00089443,1,0
56288,93763313,0.9762186,0.9855043,0.00089443,1,0
56377,93863273,0.9762279,0.9855099,0.00089443,1,0
56468,93964066,0.9762354,0.9855146,0.00089443,1,0
56558,94064026,0.9762432,0.9855193,0.00089443,1,0
56648,94163986,0.9762354,0.9855146,0.0008932,1,0
56740,94263946,0.9762112,0.9854997,0.00089112,1,0
56829,94363906,0.9761763,0.9854783,0.00088886,1,0
56920,94463866,0.976141,0.9854566,0.00088663,1,0
57010,94563826,0.9761077,0.9854363,0.0008846,1,0
57100,94663786,0.9760792,0.9854188,0.00088326,1,0
57190,94763746,0.976062,0.9854082,0.0008825,1,0
57279,94863706,0.9760543,0.9854035,0.00088151,1,0
57370,94963666,0.9760421,0.985396,0.00088104,1,0
57459,95063626,0.9760382,0.9853936,0.00088048,1,0
57549,95163586,0.9760317,0.9853896,0.00088048,1,0
57641,95263546,0.9760355,0.985392,0.00088,1,0
57731,95363506,0.9760295,0.9853883,0.00088,1,0
57822,95463466,0.9760343,0.9853913,0.00087973,1,0
57912,95563426,0.9760304,0.9853889,0.0008795,1,0
58002,95663386,0.9760265,0.9853865,0.00087914,1,0
58091,95763346,0.9760227,0.9853841,0.00087901,1,0
58180,95863306,0.9760227,0.9853841,0.00087873,1,0
58271,95963266,0.9760187,0.9853817,0.0008785,1,0
58360,96064059,0.9760149,0.9853793,0.00087813,1,0
58450,96164019,0.976011,0.985377,0.00087678,1,0
58542,96263979,0.9759908,0.9853646,0.0008767,1,0
58632,96363939,0.9759908,0.9853646,0.0008767,1,0
58723,96463899,0.9759945,0.9853668,0.0008761,1,0
58813,96563859,0.975986,0.9853616,0.00087542,1,0
58902,96663819,0.9759765,0.9853558,0.000874,1,0
58992,96763779,0.9759554,0.9853429,0.000874,1,0
59082,96863739,0.9759673,0.9853502,0.000874,1,0
59173,96963699,0.9759673,0.9853502,0.000874,1,0
59262,97063659,0.9759712,0.9853526,0.000874,1,0
59351,97163619,0.9759712,0.9853526,0.000874,1,0
59445,97263579,0.975979,0.9853573,0.00087375,1,0
59534,97363539,0.9759751,0.985355,0.00087321,1,0
59625,97463499,0.9759665,0.9853497,0.00087293,1,0
59715,97563459,0.9759626,0.9853473,0.00087286,1,0
59804,97663419,0.9759626,0.9853473,0.00087286,1,0
59894,97763379,0.9759765,0.9853558,0.00087286,1,0
59983,97863339,0.9759809,0.9853585,0.00087286,1,0
60074,97963299,0.9760198,0.9853824,0.00087286,1,0
60163,98064092,0.9760332,0.9853905,0.00087286,1,0
60252,98164052,0.9760804,0.9854195,0.00087286,1,0
60345,98264012,0.9760882,0.9854243,0.00087286,1,0
60435,98363972,0.9761131,0.9854396,0.00087286,1,0
60526,98463932,0.976117,0.985442,0.00087286,1,0
60616,98563892,0.9761441,0.9854586,0.00087286,1,0
60705,98663852,0.9761441,0.9854586,0.00087286,1,0
60795,98763812,0.9761662,0.9854721,0.00087286,1,0
60884,98863772,0.9761623,0.9854698,0.00087251,1,0
60975,98963732,0.9761497,0.985462,0.0008717,1,0
61065,99063692,0.9761322,0.9854513,0.00087016,1,0
61154,99163652,0.9761054,0.9854348,0.00086819,1,0
61247,99263612,0.976074,0.9854156,0.00086604,1,0
61336,99363572,0.9760417,0.9853958,0.00086391,1,0
61427,99463532,0.976011,0.985377,0.00086214,1,0
61517,99563492,0.9759868,0.9853621,0.00086135,1,0
61606,99663452,0.9759786,0.9853571,0.00086002,1,0
61697,99763412,0.9759612,0.9853464,0.00085958,1,0
61786,99863372,0.9759573,0.9853441,0.00085888,1,0
61877,99963332,0.9759495,0.9853393,0.00085888,1,0
61966,100063292,0.9759534,0.9853417,0.00085828,1,0
62055,100164085,0.9759457,0.9853369,0.00085813,1,0
62148,100264045,0.9759457,0.9853369,0.00085783,1,0
62238,100364005,0.9759418,0.9853345,0.00085783,1,0
62329,100463965,0.9759457,0.9853369,0.00085753,1,0
62419,100563925,0.9759418,0.9853345,0.00085746,1,0
62508,100663885,0.9759418,0.9853345,0.00085706,1,0
62598,100763845,0.9759368,0.9853315,0.00085706,1,0
62687,100863805,0.9759368,0.9853315,0.00085672,1,0
62778,100963765,0.9759329,0.9853291,0.00085672,1,0
62867,101063725,0.9759329,0.9853291,0.00085644,1,0
62956,101163685,0.975929,0.9853267,0.00085644,1,0
63049,101263645,0.9759329,0.9853291,0.00085598,1,0
63139,101363605,0.9759258,0.9853247,0.00085598,1,0
63230,101463565,0.9759297,0.9853271,0.00085572,1,0
63320,101563525,0.9759258,0.9853247,0.00085551,1,0
63409,101663485,0.975922,0.9853224,0.00085533,1,0
63499,101763445,0.975921,0.9853218,0.00085519,1,0
63588,101863405,0.9759204,0.9853214,0.00085489,1,0
63680,101963365,0.9759165,0.985319,0.00085489,1,0
63769,102063325,0.9759165,0.985319,0.00085464,1,0
63858,102163285,0.9759126,0.9853166,0.00085464,1,0
63952,102264078,0.975915,0.9853181,0.00085464,1,0
64042,102364038,0.9759386,0.9853325,0.00085464,1,0
64133,102463998,0.97598,0.9853579,0.00085464,1,0
64223,102563958,0.9760077,0.985375,0.00085464,1,0
64312,102663918,0.9760185,0.9853816,0.00085464,1,0
64402,102763878,0.9760361,0.9853923,0.00085464,1,0
64491,102863838,0.9760361,0.9853923,0.00085464,1,0
64582,102963798,0.9760662,0.9854108,0.00085464,1,0
64671,103063758,0.9760632,0.985409,0.00085464,1,0
64760,103163718,0.9760808,0.9854198,0.00085437,1,0
64853,103263678,0.9760691,0.9854126,0.00085437,1,0
64943,103363638,0.9760922,0.9854268,0.00085349,1,0
65034,103463598,0.9760717,0.9854142,0.00085349,1,0
65124,103563558,0.9760835,0.9854215,0.00085273,1,0
65213,103663518,0.9760671,0.9854113,0.00085273,1,0
65303,103763478,0.9760843,0.9854219,0.00085204,1,0
65392,103863438,0.9760697,0.985413,0.00085204,1,0
65483,103963398,0.9760736,0.9854153,0.00085055,1,0
65573,104063358,0.976048,0.9853997,0.00084848,1,0
65662,104163318,0.9760153,0.9853796,0.00084625,1,0
65755,104263278,0.975982,0.9853591,0.00084372,1,0
65844,104364071,0.9759455,0.9853368,0.00084163,1,0
65935,104464031,0.975917,0.9853193,0.00084005,1,0
66025,104563991,0.9758967,0.9853069,0.00083858,1,0
66114,104663951,0.9758786,0.9852958,0.00083702,1,0
66205,104763911,0.9758586,0.9852836,0.00083639,1,0
66294,104863871,0.9758537,0.9852805,0.00083553,1,0
66385,104963831,0.9758441,0.9852746,0.00083548,1,0
66474,105063791,0.9758462,0.9852759,0.00083548,1,0
66563,105163751,0.9758526,0.9852799,0.00083538,1,0
66655,105263711,0.9758526,0.9852799,0.00083432,1,0
66746,105363671,0.9758372,0.9852704,0.00083432,1,0
66837,105463631,0.9758416,0.9852731,0.00083404,1,0
66927,105563591,0.9758377,0.9852707,0.00083404,1,0
67016,105663551,0.9758456,0.9852755,0.00083391,1,0
67106,105763511,0.9758441,0.9852746,0.00083391,1,0
67195,105863471,0.9758441,0.9852746,0.00083379,1,0
67286,105963431,0.9758435,0.9852743,0.00083379,1,0
67375,106063391,0.9758435,0.9852743,0.00083368,1,0
67464,106163351,0.9758432,0.9852741,0.00083368,1,0
67556,106263311,0.9758471,0.9852765,0.00083355,1,0
67647,106363271,0.9758432,0.9852741,0.00083355,1,0
67740,106464064,0.9758432,0.9852741,0.00083344,1,0
67830,106564024,0.9758424,0.9852736,0.00083301,1,0
67919,106663984,0.9758351,0.9852691,0.00083265,1,0
68009,106763944,0.9758308,0.9852665,0.00083265,1,0
68098,106863904,0.9758347,0.9852689,0.00083183,1,0
68189,106963864,0.9758218,0.985261,0.00083082,1,0
68279,107063824,0.9758068,0.9852518,0.00082981,1,0
68369,107163784,0.9757925,0.985243,0.00082981,1,0
68461,107263744,0.975798,0.9852464,0.0008286,1,0
68551,107363704,0.9757802,0.9852355,0.00082758,1,1
68642,107463664,0.9757663,0.9852269,0.00082723,1,1
68732,107563624,0.9757624,0.9852245,0.00082723,1,1
68821,107663584,0.9757696,0.985229,0.00082723,1,1
68910,107763544,0.9757863,0.9852392,0.00082723,1,1
69000,107863504,0.9758033,0.9852496,0.00082723,1,1
69091,107963464,0.975839,0.9852715,0.00082723,1,1
69180,108063424,0.975858,0.9852831,0.00082723,1,1
69269,108163384,0.9758909,0.9853033,0.00082723,1,1
69360,108263344,0.975903,0.9853108,0.00082723,1,1
69452,108363304,0.9759285,0.9853264,0.00082723,1,1
69543,108463264,0.9759325,0.9853288,0.00082723,1,1
69633,108564057,0.9759544,0.9853423,0.00082723,1,1
69722,108664017,0.9759544,0.9853423,0.00082723,1,1
69811,108763977,0.975971,0.9853525,0.00082723,1,1
69901,108863937,0.9759636,0.9853479,0.00082723,1,1
69992,108963897,0.9759597,0.9853455,0.00082599,1,1
70082,109063857,0.9759358,0.9853309,0.00082447,1,1
70171,109163817,0.9759097,0.9853149,0.00082255,1,1
70262,109263777,0.9758794,0.9852963,0.00082079,1,1
70353,109363737,0.9758533,0.9852803,0.00081917,1,1
70444,109463697,0.9758304,0.9852662,0.00081814,1,1
70534,109563657,0.9758173,0.9852582,0.00081729,1,1
70624,109663617,0.9758068,0.9852518,0.00081674,1,1
70713,109763577,0.9758013,0.9852484,0.00081612,1,1
70803,109863537,0.9757935,0.9852436,0.00081561,1,1
70894,109963497,0.9757882,0.9852404,0.00081518,1,1
70983,110063457,0.9757844,0.985238,0.00081483,1,1
71072,110163417,0.9757805,0.9852356,0.00081469,1,1
71163,110263377,0.9757805,0.9852356,0.00081469,1,1
71254,110363337,0.9757805,0.9852356,0.00081441,1,1
71345,110463297,0.9757766,0.9852332,0.00081402,1,1
71435,110564090,0.9757726,0.9852308,0.00081385,1,1
71525,110664050,0.975772,0.9852304,0.00081355,1,1
71614,110764010,0.9757681,0.9852281,0.0008133,1,1
71704,110863970,0.9757643,0.9852257,0.00081309,1,1
71795,110963930,0.9757608,0.9852235,0.00081308,1,1
71884,111063890,0.9757608,0.9852235,0.00081307,1,1
71973,111163850,0.9757608,0.9852235,0.00081306,1,1
72064,111263810,0.9757608,0.9852235,0.00081306,1,1
72155,111363770,0.9757608,0.9852235,0.00081289,1,1
72246,111463730,0.97576,0.9852231,0.00081276,1,1
72336,111563690,0.9757595,0.9852228,0.00081276,1,1
72425,111663650,0.9757595,0.9852228,0.00081276,1,1
72514,111763610,0.9757595,0.9852228,0.00081276,1,1
72604,111863570,0.9757633,0.9852251,0.00081276,1,1
72695,111963530,0.9757643,0.9852257,0.00081273,1,1
72784,112063490,0.9757643,0.9852257,0.00081271,1,1
72875,112163450,0.9757643,0.9852257,0.00081253,1,1
72966,112263410,0.9757605,0.9852234,0.00081253,1,1
73059,112363370,0.9757605,0.9852234,0.00081253,1,1
73150,112463330,0.9757605,0.9852234,0.00081253,1,1
73240,112563290,0.9757635,0.9852252,0.00081253,1,1
73329,112664083,0.9757674,0.9852276,0.00081253,1,1
73418,112764043,0.9757771,0.9852335,0.00081253,1,1
73508,112864003,0.9757956,0.9852449,0.00081253,1,1
73599,112963963,0.9758139,0.9852561,0.00081253,1,1
73688,113063923,0.9758298,0.9852659,0.00081253,1,1
73777,113163883,0.9758435,0.9852743,0.00081253,1,1
73868,113263843,0.9758537,0.9852805,0.00081253,1,1
73959,113363803,0.9758633,0.9852864,0.00081253,1,1
74050,113463763,0.9758667,0.9852885,0.00081253,1,1
74139,113563723,0.975873,0.9852924,0.00081253,1,1
74227,113663683,0.9758804,0.9852969,0.00081253,1,1
74315,113763643,0.9758945,0.9853055,0.00081253,1,1
74404,113863603,0.9758945,0.9853055,0.00081245,1,1
74494,113963563,0.975889,0.9853022,0.00081125,1,1
74582,114063523,0.9758674,0.9852889,0.00080978,1,1
74670,114163483,0.9758431,0.985274,0.00080791,1,1
74759,114263443,0.9758143,0.9852564,0.0008062,1,1
74849,114363403,0.9757893,0.9852411,0.00080462,1,1
74939,114463363,0.9757674,0.9852276,0.00080362,1,1
75028,114563323,0.9757549,0.98522,0.00080279,1,1
75116,114663283,0.9757451,0.9852139,0.00080242,1,1
75204,114764076,0.9757412,0.9852116,0.00080211,1,1
75293,114864036,0.9757384,0.9852098,0.00080211,1,1
75383,114963996,0.9757422,0.9852122,0.00080184,1,1
75471,115063956,0.9757384,0.9852098,0.00080162,1,1
75559,115163916,0.9757366,0.9852087,0.00080143,1,1
75648,115263876,0.975736,0.9852083,0.00080128,1,1
75738,115363836,0.9757355,0.985208,0.00080128,1,1
75828,115463796,0.9757394,0.9852104,0.00080128,1,1
75917,115563756,0.9757458,0.9852144,0.00080088,1,1
76005,115663716,0.975738,0.9852096,0.00080008,1,1
76093,115763676,0.9757255,0.9852019,0.00079988,1,1
76182,115863636,0.975722,0.9851997,0.00079988,1,1
76272,115963596,0.9757258,0.9852021,0.00079954,1,1
76360,116063556,0.9757214,0.9851994,0.00079954,1,1
76448,116163516,0.9757252,0.9852017,0.00079938,1,1
76537,116263476,0.9757213,0.9851993,0.00079938,1,1
76627,116363436,0.9757246,0.9852014,0.00079906,1,1
76717,116463396,0.9757198,0.9851984,0.00079895,1,1
76806,116563356,0.9757186,0.9851977,0.00079886,1,1
76894,116663316,0.9757183,0.9851975,0.00079863,1,1
76982,116763276,0.9757144,0.9851951,0.00079859,1,1
77071,116864069,0.9757144,0.9851951,0.00079859,1,1
77161,116964029,0.9757144,0.9851951,0.00079838,1,1
77249,117063989,0.9757105,0.9851927,0.00079773,1,1
77338,117163949,0.975701,0.9851869,0.00079751,1,1
77428,117263909,0.9756971,0.9851845,0.00079685,1,1
77518,117363869,0.9756881,0.985179,0.00079685,1,1
77608,117463829,0.975692,0.9851814,0.00079685,1,1
77697,117563789,0.9756973,0.9851846,0.00079685,1,1
77785,117663749,0.9757176,0.9851971,0.00079685,1,1
77873,117763709,0.9757254,0.9852018,0.00079685,1,1
77962,117863669,0.9757629,0.9852248,0.00079685,1,1
78052,117963629,0.9757745,0.985232,0.00079685,1,1
78140,118063589,0.975808,0.9852525,0.00079685,1,1
78228,118163549,0.9758083,0.9852527,0.00079685,1,1
78317,118263509,0.9758235,0.985262,0.00079685,1,1
78407,118363469,0.9758207,0.9852603,0.00079685,1,1
78497,118463429,0.9758248,0.9852628,0.00079685,1,1
78586,118563389,0.9758209,0.9852604,0.00079685,1,1
78674,118663349,0.9758209,0.9852604,0.00079646,1,1
78762,118763309,0.9758124,0.9852552,0.00079535,1,1
78851,118863269,0.9757936,0.9852437,0.00079396,1,1
78941,118964062,0.9757717,0.9852302,0.00079233,1,1
79029,119064022,0.975747,0.9852151,0.00079082,1,1
79117,119163982,0.9757257,0.985202,0.00078941,1,1
79206,119263942,0.9757061,0.98519,0.00078885,1,1
79295,119363902,0.9757008,0.9851868,0.00078793,1,1
79386,119463862,0.9756888,0.9851794,0.00078778,1,1
79475,119563822,0.9756888,0.9851794,0.00078719,1,1
79563,119663782,0.9756811,0.9851747,0.00078685,1,1
79651,119763742,0.9756771,0.9851723,0.00078657,1,1
79739,119863702,0.9756743,0.9851705,0.00078657,1,1
79830,119963662,0.9756781,0.9851729,0.0007863,1,1
79918,120063622,0.9756743,0.9851705,0.00078608,1,1
80006,120163582,0.9756724,0.9851694,0.00078589,1,1
80095,120263542,0.9756718,0.985169,0.00078573,1,1
80184,120363502,0.9756712,0.9851686,0.00078545,1,1
80275,120463462,0.9756672,0.9851662,0.00078545,1,1
80364,120563422,0.9756712,0.9851686,0.00078533,1,1
80452,120663382,0.9756697,0.9851677,0.00078533,1,1
80540,120763342,0.9756697,0.9851677,0.00078507,1,1
80628,120863302,0.9756658,0.9851653,0.00078507,1,1
80719,120963262,0.9756658,0.9851653,0.00078483,1,1
80807,121064055,0.9756619,0.9851629,0.00078483,1,1
80895,121164015,0.9756638,0.9851641,0.00078462,1,1
80984,121263975,0.97566,0.9851617,0.00078462,1,1
81073,121363935,0.9756629,0.9851636,0.00078442,1,1
81164,121463895,0.9756591,0.9851612,0.00078442,1,1
81255,121563855,0.9756629,0.9851636,0.00078421,1,1
81343,121663815,0.9756591,0.9851612,0.00078421,1,1
81431,121763775,0.9756615,0.9851627,0.00078421,1,1
81519,121863735,0.9756877,0.9851788,0.00078421,1,1
81610,121963695,0.9756917,0.9851812,0.00078421,1,1
81699,122063655,0.9756956,0.9851835,0.00078401,1,1
81787,122163615,0.9756908,0.9851807,0.00078401,1,1
81876,122263575,0.9757247,0.9852014,0.00078401,1,1
81967,122363535,0.9757537,0.9852192,0.00078401,1,1
82058,122463495,0.9757996,0.9852473,0.00078401,1,1
82147,122563455,0.9758198,0.9852598,0.00078401,1,1
82235,122663415,0.975868,0.9852893,0.00078401,1,1
82323,122763375,0.9758786,0.9852958,0.00078401,1,1
82411,122863335,0.97594,0.9853334,0.00078401,1,1
82502,122963295,0.9759476,0.9853381,0.00078401,1,1
82590,123064088,0.9759949,0.9853671,0.00078401,1,1
82678,123164048,0.9759901,0.9853641,0.00078401,1,1
82767,123264008,0.9760213,0.9853833,0.00078401,1,1
82858,123363968,0.9760087,0.9853756,0.00078401,1,1
82949,123463928,0.9760306,0.9853889,0.00078345,1,1
83038,123563888,0.9760102,0.9853765,0.00078345,1,1
83126,123663848,0.9760198,0.9853824,0.00078278,1,1
83214,123763808,0.976002,0.9853715,0.00078278,1,1
83302,123863768,0.9760197,0.9853823,0.0007818,1,1
83393,123963728,0.9759984,0.9853693,0.0007818,1,1
83481,124063688,0.9760116,0.9853774,0.00078063,1,1
83569,124163648,0.9759891,0.9853636,0.00078063,1,1
83658,124263608,0.9760104,0.9853766,0.00077954,1,1
83747,124363568,0.9759891,0.9853636,0.00077954,1,1
83838,124463528,0.9760025,0.9853717,0.00077845,1,1
83927,124563488,0.9759821,0.9853593,0.00077845,1,1
84015,124663448,0.9759985,0.9853693,0.00077733,1,1
84103,124763408,0.975978,0.9853567,0.00077733,1,1
84191,124863368,0.975982,0.9853592,0.00077633,1,1
84282,124963328,0.9759649,0.9853488,0.00077633,1,1
84370,125063288,0.9759744,0.9853545,0.00077507,1,1
84458,125164081,0.9759535,0.9853417,0.00077507,1,1
84547,125264041,0.9759669,0.98535,0.00077387,1,1
84636,125364001,0.9759469,0.9853377,0.00077387,1,1
84727,125463961,0.9759469,0.9853377,0.00077285,1,1
84816,125563921,0.9759312,0.9853281,0.00077285,1,1
84904,125663881,0.9759352,0.9853305,0.00077197,1,1
84992,125763841,0.975922,0.9853224,0.00077197,1,1
85080,125863801,0.9759316,0.9853283,0.00077113,1,1
85171,125963761,0.9759184,0.9853202,0.00077104,1,1
85259,126063721,0.9759184,0.9853202,0.00077021,1,1
85347,126163681,0.9759055,0.9853123,0.00077021,1,1
85436,126263641,0.97592,0.9853212,0.00076905,1,1
85525,126363601,0.9759011,0.9853096,0.00076905,1,1
85616,126463561,0.9759049,0.985312,0.00076789,1,1
85704,126563521,0.9758869,0.9853009,0.00076789,1,1
85793,126663481,0.975893,0.9853046,0.00076701,1,1
85881,126763441,0.9758793,0.9852962,0.00076701,1,1
85969,126863401,0.9758909,0.9853033,0.0007663,1,1
86060,126963361,0.9758791,0.9852961,0.0007663,1,1
86149,127063321,0.97589,0.9853028,0.00076558,1,1
86237,127163281,0.9758777,0.9852952,0.00076558,1,1
86326,127264074,0.9758882,0.9853017,0.000765,1,1
86416,127364034,0.975878,0.9852954,0.000765,1,1
86507,127463994,0.9758876,0.9853013,0.00076425,1,1
86595,127563954,0.9758746,0.9852933,0.00076425,1,1
86684,127663914,0.9758887,0.985302,0.00076391,1,1
86772,127763874,0.9758809,0.9852972,0.00076391,1,1
86860,127863834,0.9759039,0.9853113,0.00076391,1,1
86951,127963794,0.9759001,0.9853089,0.00076391,1,1
87039,128063754,0.9759159,0.9853187,0.00076391,1,1
87127,128163714,0.9759159,0.9853187,0.00076391,1,1
87216,128263674,0.9759425,0.985335,0.00076391,1,1
87305,128363634,0.9759386,0.9853326,0.00076391,1,1
87396,128463594,0.9759723,0.9853532,0.00076391,1,1
87484,128563554,0.9759684,0.9853508,0.00076391,1,1
87575,128663514,0.975996,0.9853678,0.00076391,1,1
87663,128763474,0.975996,0.9853678,0.00076391,1,1
87751,128863434,0.9760184,0.9853815,0.00076391,1,1
87842,128963394,0.9760146,0.9853792,0.00076391,1,1
87930,129063354,0.9760363,0.9853925,0.00076391,1,1
88018,129163314,0.9760363,0.9853925,0.00076391,1,1
88107,129263274,0.976063,0.9854089,0.00076391,1,1
88196,129364067,0.9760619,0.9854082,0.00076391,1,1
88287,129464027,0.9760885,0.9854245,0.00076391,1,1
88375,129563987,0.9760861,0.985423,0.00076391,1,1
88464,129663947,0.9761106,0.985438,0.00076391,1,1
88552,129763907,0.9761142,0.9854402,0.00076391,1,1
88640,129863867,0.9761375,0.9854545,0.00076391,1,1
88731,129963827,0.9761384,0.9854551,0.00076391,1,1
88819,130063787,0.9761509,0.9854627,0.00076391,1,1
88907,130163747,0.9761547,0.985465,0.00076391,1,1
88996,130263707,0.9761758,0.985478,0.00076391,1,1
89085,130363667,0.9761758,0.985478,0.00076391,1,1
89176,130463627,0.9762,0.9854929,0.00076391,1,1
89264,130563587,0.9762,0.9854929,0.00076391,1,1
89353,130663547,0.9762286,0.9855103,0.00076391,1,1
89441,130763507,0.9762286,0.9855103,0.00076391,1,1
89529,130863467,0.9762539,0.9855258,0.00076391,1,1
89619,130963427,0.9762539,0.9855258,0.00076391,1,1
89708,131063387,0.9762704,0.985536,0.00076391,1,1
89796,131163347,0.9762743,0.9855384,0.00076391,1,1
89885,131263307,0.9762892,0.9855475,0.00076391,1,1
89974,131363267,0.976292,0.9855493,0.00076391,1,1
90064,131464060,0.9763065,0.9855582,0.00076391,1,1
90153,131564020,0.9763065,0.9855582,0.00076391,1,1
90242,131663980,0.9763147,0.9855632,0.00076391,1,1
90330,131763940,0.9763213,0.9855672,0.00076391,1,1
90418,131863900,0.9763207,0.9855669,0.00076391,1,1
90508,131963860,0.9763246,0.9855692,0.00076391,1,1
90598,132063820,0.9763246,0.9855692,0.00076391,1,1
90686,132163780,0.976359,0.9855903,0.00076391,1,1
90775,132263740,0.9763771,0.9856015,0.00076391,1,1
90865,132363700,0.9763975,0.9856139,0.00076391,1,1
90956,132463660,0.9763975,0.9856139,0.00076391,1,1
91045,132563620,0.9764119,0.9856228,0.00076391,1,1
91134,132663580,0.976408,0.9856204,0.00076391,1,1
91222,132763540,0.9764198,0.9856276,0.00076391,1,1
91310,132863500,0.9764159,0.9856252,0.00076391,1,1
91400,132963460,0.9764237,0.98563,0.00076371,1,1
91489,133063420,0.9764159,0.9856252,0.00076371,1,1
91577,133163380,0.9764251,0.9856308,0.00076324,1,1
91666,133263340,0.976414,0.985624,0.00076324,1,1
91755,133363300,0.9764217,0.9856288,0.00076259,1,1
91845,133463260,0.9764088,0.9856209,0.00076259,1,1
91934,133564053,0.9764166,0.9856256,0.00076224,1,1
92023,133664013,0.9764088,0.9856209,0.00076224,1,1
92111,133763973,0.9764166,0.9856256,0.00076169,1,1
92199,133863933,0.976406,0.9856191,0.00076169,1,1
92289,133963893,0.9764103,0.9856218,0.00076057,1,1
92378,134063853,0.9763913,0.9856102,0.00076057,1,1
92466,134163813,0.9763952,0.9856126,0.00075973,1,1
92555,134263773,0.9763817,0.9856042,0.00075973,1,1
92644,134363733,0.9763906,0.9856097,0.00075923,1,1
92734,134463693,0.9763821,0.9856045,0.00075923,1,1
92823,134563653,0.9763901,0.9856094,0.00075826,1,1
92912,134663613,0.9763735,0.9855992,0.00075826,1,1
93000,134763573,0.9763829,0.9856049,0.00075763,1,1
93088,134863533,0.9763719,0.9855982,0.00075763,1,1
93178,134963493,0.9763808,0.9856037,0.00075685,1,1
93267,135063453,0.9763675,0.9855955,0.00075685,1,1
93355,135163413,0.9763767,0.9856011,0.00075564,1,1
93444,135263373,0.976356,0.9855886,0.00075564,1,1
93533,135363333,0.9763631,0.9855928,0.00075455,1,1
93623,135463293,0.9763453,0.9855819,0.00075455,1,1
93712,135564086,0.9763577,0.9855896,0.00075096,1,1
93801,135664046,0.9763002,0.9855543,0.00075081,1,1
93889,135764006,0.9763002,0.9855543,0.00074994,1,1
93977,135863966,0.9762872,0.9855463,0.00074994,1,1
94067,135963926,0.9763285,0.9855716,0.00074994,1,1
94156,136063886,0.9763322,0.9855739,0.00074994,1,1
94244,136163846,0.9763635,0.9855931,0.00074871,1,1
94333,136263806,0.9763382,0.9855776,0.00074871,1,1
94422,136363766,0.9763645,0.9855937,0.00074824,1,1
94512,136463726,0.9763513,0.9855856,0.00074754,1,1
94601,136563686,0.9763365,0.9855766,0.0007449,1,1
94690,136663646,0.9762925,0.9855496,0.00074196,1,1
94778,136763606,0.9762464,0.9855213,0.00074012,1,1
94866,136863566,0.9762189,0.9855044,0.00074012,1,1
94957,136963526,0.9762305,0.9855115,0.00073818,1,1
95046,137063486,0.9762005,0.9854932,0.00073818,1,1
95134,137163446,0.976225,0.9855081,0.00073616,1,1
95223,137263406,0.9761922,0.9854881,0.00073616,1,1
95312,137363366,0.9762057,0.9854963,0.00073418,1,1
95402,137463326,0.9761736,0.9854767,0.00073418,1,1
95492,137563286,0.9761916,0.9854877,0.00073203,1,1
95581,137664079,0.9761566,0.9854662,0.00073203,1,1
95669,137764039,0.9761745,0.9854771,0.00072975,1,1
95757,137863999,0.9761372,0.9854543,0.00072975,1,1
95847,137963959,0.9761472,0.9854605,0.00072759,1,1
95936,138063919,0.9761125,0.9854392,0.00072759,1,1
96024,138163879,0.9761305,0.9854503,0.00072545,1,1
96113,138263839,0.9760958,0.985429,0.00072545,1,1
96202,138363799,0.9761161,0.9854414,0.0007233,1,1
96292,138463759,0.9760808,0.9854198,0.0007233,1,1
96381,138563719,0.9760959,0.985429,0.0007212,1,1
96470,138663679,0.9760613,0.9854079,0.0007212,1,1
96558,138763639,0.9760692,0.9854127,0.00071893,1,1
96646,138863599,0.9760333,0.9853907,0.00071893,1,1
96736,138963559,0.9760398,0.9853946,0.00071656,1,1
96825,139063519,0.9760028,0.9853719,0.00071656,1,1
96913,139163479,0.9760187,0.9853817,0.00071442,1,1
97002,139263439,0.9759848,0.9853609,0.00071442,1,1
97091,139363399,0.9759986,0.9853694,0.00071221,1,1
97181,139463359,0.9759637,0.985348,0.00071221,1,1
97270,139563319,0.9759765,0.9853559,0.00071024,1,1
97359,139663279,0.9759455,0.9853368,0.00071024,1,1
97447,139764072,0.9759609,0.9853462,0.00070815,1,1
97535,139864032,0.9759272,0.9853256,0.00070815,1,1
97625,139963992,0.975945,0.9853365,0.00070635,1,1
97714,140063952,0.9759156,0.9853185,0.00070635,1,1
97802,140163912,0.9759444,0.9853361,0.00070453,1,1
97891,140263872,0.9759133,0.9853171,0.00070453,1,1
97980,140363832,0.9759305,0.9853276,0.00070266,1,1
98070,140463792,0.9758991,0.9853083,0.00070266,1,1
98159,140563752,0.975916,0.9853187,0.00070063,1,1
98248,140663712,0.9758819,0.9852979,0.00070063,1,1
98336,140763672,0.9758931,0.9853047,0.00069839,1,1
98424,140863632,0.9758569,0.9852825,0.00069839,1,1
98514,140963592,0.97587,0.9852905,0.00069638,1,1
98603,141063552,0.9758378,0.9852708,0.00069638,1,1
98691,141163512,0.9758556,0.9852816,0.00069437,1,1
98780,141263472,0.9758229,0.9852616,0.00069437,1,1
98869,141363432,0.9758443,0.9852747,0.00069231,1,1
98959,141463392,0.9758103,0.9852539,0.00069231,1,1
99048,141563352,0.9758229,0.9852616,0.00069032,1,1
99137,141663312,0.9757906,0.9852418,0.00069032,1,1
99225,141763272,0.9758061,0.9852514,0.00068849,1,1
99313,141864065,0.9757762,0.985233,0.00068849,1,1
99404,141964025,0.9757954,0.9852448,0.00068688,1,1
99492,142063985,0.9757686,0.9852284,0.00068688,1,1
99581,142163945,0.975788,0.9852403,0.00068518,1,1
99670,142263905,0.9757595,0.9852228,0.00068518,1,1
99760,142363865,0.9757715,0.9852301,0.00068334,1,1
99850,142463825,0.9757412,0.9852116,0.00068334,1,1
99938,142563785,0.9757558,0.9852206,0.00068165,1,1
100029,142663745,0.975728,0.9852035,0.00068165,1,1
100117,142763705,0.9757406,0.9852112,0.00067982,1,1
100205,142863665,0.9757109,0.985193,0.00067982,1,1
100295,142963625,0.9757198,0.9851984,0.00067793,1,1
100383,143063585,0.9756898,0.98518,0.00067793,1,1
100472,143163545,0.9757081,0.9851912,0.00067616,1,1
100561,143263505,0.9756793,0.9851736,0.00067616,1,1
100650,143363465,0.9756966,0.9851842,0.00067448,1,1
100740,143463425,0.9756693,0.9851674,0.00067448,1,1
100828,143563385,0.9756815,0.985175,0.00067281,1,1
100918,143663345,0.9756543,0.9851583,0.00067281,1,1
101006,143763305,0.9756709,0.9851685,0.0006711,1,1
101094,143863265,0.9756429,0.9851513,0.0006711,1,1
101184,143964058,0.9756587,0.9851609,0.00066936,1,1
101272,144064018,0.9756302,0.9851435,0.00066936,1,1
101361,144163978,0.9756528,0.9851574,0.00066792,1,1
101450,144263938,0.975628,0.9851421,0.00066792,1,1
101539,144363898,0.9756442,0.9851521,0.00066626,1,1
101629,144463858,0.9756162,0.9851349,0.00066626,1,1
101717,144563818,0.9756316,0.9851443,0.00066482,1,1
101807,144663778,0.9756072,0.9851294,0.00066482,1,1
101895,144763738,0.9756194,0.9851369,0.00066321,1,1
101983,144863698,0.9755929,0.9851206,0.00066321,1,1
102073,144963658,0.9756071,0.9851293,0.00066145,1,1
102161,145063618,0.975578,0.9851115,0.00066145,1,1
102250,145163578,0.9755906,0.9851192,0.0006597,1,1
102339,145263538,0.9755624,0.9851019,0.0006597,1,1
102428,145363498,0.9755793,0.9851122,0.00065793,1,1
102518,145463458,0.9755501,0.9850944,0.00065793,1,1
102606,145563418,0.9755679,0.9851053,0.00065637,1,1
102696,145663378,0.9755421,0.9850894,0.00065637,1,1
102784,145763338,0.9755547,0.9850972,0.00065493,1,1
102872,145863298,0.975531,0.9850826,0.00065493,1,1
102962,145964091,0.9755432,0.9850901,0.00065346,1,1
103050,146064051,0.9755189,0.9850753,0.00065346,1,1
103139,146164011,0.9755327,0.9850837,0.00065194,1,1
103228,146263971,0.9755079,0.9850684,0.00065194,1,1
103316,146363931,0.9755229,0.9850776,0.00065051,1,1
103407,146463891,0.9754991,0.9850631,0.00065051,1,1
103495,146563851,0.975513,0.9850716,0.00064915,1,1
103585,146663811,0.9754906,0.9850578,0.00064915,1,1
103673,146763771,0.9755074,0.9850681,0.0006477,1,1
103761,146863731,0.9754829,0.9850532,0.0006477,1,1
103852,146963691,0.9754963,0.9850613,0.00064659,1,1
103940,147063651,0.9754776,0.9850498,0.00064659,1,1
104029,147163611,0.9754947,0.9850605,0.00064546,1,1
104118,147263571,0.975475,0.9850483,0.00064546,1,1
104206,147363531,0.9754918,0.9850586,0.00064418,1,1
104297,147463491,0.9754698,0.9850451,0.00064418,1,1
104385,147563451,0.9754827,0.985053,0.00064296,1,1
104475,147663411,0.9754616,0.9850401,0.00064296,1,1
104564,147763371,0.975479,0.9850507,0.00064161,1,1
104652,147863331,0.9754558,0.9850365,0.00064161,1,1
104742,147963291,0.9754678,0.9850439,0.0006402,1,1
104830,148064084,0.9754442,0.9850295,0.0006402,1,1
104919,148164044,0.9754561,0.9850367,0.00063864,1,1
105008,148264004,0.9754303,0.9850209,0.00063864,1,1
105096,148363964,0.975444,0.9850293,0.00063718,1,1
105187,148463924,0.97542,0.9850146,0.00063718,1,1
105275,148563884,0.975433,0.9850225,0.00063581,1,1
105365,148663844,0.9754106,0.9850088,0.00063581,1,1
105453,148763804,0.9754229,0.9850163,0.0006344,1,1
105541,148863764,0.9753999,0.9850022,0.0006344,1,1
105631,148963724,0.9754099,0.9850084,0.00063299,1,1
105719,149063684,0.9753871,0.9849944,0.00063299,1,1
105808,149163644,0.975399,0.9850017,0.00063155,1,1
105897,149263604,0.9753758,0.9849874,0.00063155,1,1
105985,149363564,0.9753875,0.9849946,0.00063022,1,1
106076,149463524,0.975366,0.9849814,0.00063022,1,1
106164,149563484,0.9753804,0.9849902,0.00062907,1,1
106254,149663444,0.9753614,0.9849786,0.00062907,1,1
106342,149763404,0.9753741,0.9849864,0.00062772,1,1
106430,149863364,0.9753518,0.9849728,0.00062772,1,1
106520,149963324,0.9753677,0.9849824,0.00062653,1,1
106608,150063284,0.9753473,0.98497,0.00062653,1,1
106697,150164077,0.975361,0.9849784,0.00062538,1,1
106786,150264037,0.9753414,0.9849664,0.00062538,1,1
106874,150363997,0.9753537,0.9849739,0.00062427,1,1
106965,150463957,0.9753351,0.9849625,0.00062427,1,1
107053,150563917,0.9753495,0.9849713,0.00062305,1,1
107143,150663877,0.9753286,0.9849585,0.00062305,1,1
107231,150763837,0.9753403,0.9849657,0.0006219,1,1
107319,150863797,0.9753209,0.9849538,0.0006219,1,1
107409,150963757,0.9753348,0.9849623,0.00062065,1,1
107497,151063717,0.9753137,0.9849494,0.00062065,1,1
107586,151163677,0.9753265,0.9849572,0.00061934,1,1
107675,151263637,0.9753047,0.9849439,0.00061934,1,1
107763,151363597,0.975315,0.9849502,0.00061812,1,1
107854,151463557,0.9752948,0.9849378,0.00061812,1,1
107942,151563517,0.9753065,0.9849449,0.00061698,1,1
108032,151663477,0.9752877,0.9849334,0.00061698,1,1
108120,151763437,0.9753052,0.9849441,0.00061606,1,1
108209,151863397,0.9752887,0.9849341,0.00061606,1,1
108299,151963357,0.9753086,0.9849463,0.0006153,1,1
108387,152063317,0.9752945,0.9849376,0.0006153,1,1
108476,152163277,0.9753083,0.9849461,0.00061437,1,1
108565,152264070,0.9752913,0.9849356,0.00061437,1,1
108654,152364030,0.9753069,0.9849452,0.00061328,1,1
108745,152463990,0.9752874,0.9849333,0.00061328,1,1
108833,152563950,0.9753028,0.9849427,0.00061219,1,1
108923,152663910,0.9752833,0.9849308,0.00061219,1,1
109011,152763870,0.9752933,0.9849368,0.00061102,1,1
109100,152863830,0.9752733,0.9849246,0.00061102,1,1
109190,152963790,0.975288,0.9849336,0.00060987,1,1
109278,153063750,0.9752682,0.9849215,0.00060987,1,1
109367,153163710,0.975278,0.9849275,0.00060856,1,1
109456,153263670,0.9752563,0.9849142,0.00060856,1,1
109544,153363630,0.9752641,0.984919,0.00060737,1,1
109635,153463590,0.9752449,0.9849072,0.00060737,1,1
109723,153563550,0.9752566,0.9849143,0.00060624,1,1
109813,153663510,0.9752384,0.9849032,0.00060624,1,1
109901,153763470,0.9752505,0.9849106,0.00060516,1,1
109989,153863430,0.9752327,0.9848997,0.00060516,1,1
110079,153963390,0.9752452,0.9849074,0.00060399,1,1
110167,154063350,0.9752258,0.9848955,0.00060399,1,1
110255,154163310,0.9752375,0.9849026,0.00060301,1,1
110345,154263270,0.9752207,0.9848923,0.00060301,1,1
