LineNo,TimeUS,ThI,ABst,ThO,ThH,DAIt,Alt,BAlt,DSAlt,SAlt,TAlt,DCRt,CRt,labels
1710,15363852,-0.00000048,0,0,0.3450014,0.04388708,0.04388708,0,0,0,-583.0948,2,2,0
1794,15463812,-0.00000048,0,0,0.3450014,0.04308774,0.04308774,0,0,0,-583.0948,2,2,0
1873,15563772,-0.00000048,0,0,0.3450014,0.04230992,0.04230992,0,0,0,-583.0948,2,2,0
1952,15663732,-0.00000048,0,0,0.3450014,0.04155382,0.04155382,0,0,0,-583.0948,2,2,0
2031,15763692,-0.00000048,0,0,0.3450014,0.04081767,0.04081767,0,0,0,-583.0948,2,2,0
2112,15863652,-0.00000048,0,0,0.3450014,0.04010525,0.04010525,0,0,0,-583.0948,2,2,0
2192,15963612,-0.00000048,0,0,0.3450014,0.03941692,0.03941692,0,0,0,-583.0948,2,2,0
2272,16063572,-0.00000048,0,0,0.3450014,0.03874813,0.03874813,0,0,0,-583.0948,2,2,0
2351,16163532,-0.00000048,0,0,0.3450014,0.0380987,0.0380987,0,0,0,-583.0948,2,2,0
2430,16263492,-0.00000048,0,0,0.3450014,0.03746916,0.03746916,0,0,0,-583.0948,2,2,0
2514,16363452,-0.00000048,0,0,0.3450014,0.03652459,0.03652459,0,0,0,-583.0948,2,2,0
2594,16463412,-0.00000048,0,0,0.3450014,0.03594386,0.03594386,0,0,0,-583.0948,2,2,0
2673,16563372,-0.00000048,0,0,0.3450014,0.03537094,0.03537094,0,0,0,-583.0948,1,1,0
2752,16663332,-0.00000048,0,0,0.3450014,0.03481115,0.03481115,0,0,0,-583.0948,1,1,0
2831,16763292,-0.00000048,0,0,0.3450014,0.03426501,0.03426501,0,0,0,-583.0948,1,1,0
2912,16864085,-0.00000048,0,0,0.3450014,0.03372743,0.03372743,0,0,0,-583.0948,1,1,0
2992,16964045,-0.00000048,0,0,0.3450014,0.03319861,0.03319861,0,0,0,-583.0948,1,1,0
3072,17064005,-0.00000048,0,0,0.3450014,0.03268254,0.03268254,0,0,0,-583.0948,1,1,0
3151,17163965,-0.00000048,0,0,0.3450014,0.03219378,0.03219378,0,0,0,-583.0948,1,1,0
3230,17263925,-0.00000048,0,0,0.3450014,0.03169932,0.03169932,0,0,0,-583.0948,1,1,0
3315,17363885,-0.00000048,0,0,0.3450014,0.0312183,0.0312183,0,0,0,-583.0948,1,1,0
3395,17463845,-0.00000048,0,0,0.3450014,0.0307493,0.0307493,0,0,0,-583.0948,1,1,0
3474,17563805,-0.00000048,0,0,0.3450014,0.03029493,0.03029493,0,0,0,-583.0948,1,1,0
3553,17663765,-0.00000048,0,0,0.3450014,0.02985243,0.02985243,0,0,0,-583.0948,1,1,0
3632,17763725,-0.00000048,0,0,0.3450014,0.02941836,0.02941836,0,0,0,-583.0948,1,1,0
3713,17863685,-0.00000048,0,0,0.3450014,0.02899436,0.02899436,0,0,0,-583.0948,1,1,0
3793,17963645,-0.00000048,0,0,0.3450014,0.02858158,0.02858158,0,0,0,-583.0948,1,1,0
3873,18063605,-0.00000048,0,0,0.3450014,0.02818025,0.02818025,0,0,0,-583.0948,1,1,0
3952,18163565,-0.00000048,0,0,0.3450014,0.02778746,0.02778746,0,0,0,-583.0948,1,1,0
4031,18263525,-0.00000048,0,0,0.3450014,0.02740003,0.02740003,0,0,0,-583.0948,1,1,0
4115,18363485,-0.00000048,0,0,0.3450014,0.02702392,0.02702392,0,0,0,-583.0948,1,1,0
4195,18463445,-0.00000048,0,0,0.3450014,0.02666617,0.02666617,0,0,0,-583.0948,1,1,0
4274,18563405,-0.00000048,0,0,0.3450014,0.02631411,0.02631411,0,0,0,-583.0948,1,1,0
4359,18663365,-0.00000048,0,0,0.3450014,0.02596638,0.02596638,0,0,0,-0.00403362,1,1,0
4438,18763325,-0.00000048,0,0,0.3450014,0.02562147,0.02562147,0,0,0,-0.00437853,1,1,0
4519,18863285,-0.00000048,0,0,0.3450014,0.02528277,0.02528277,0,0,0,-0.00471723,1,1,0
4599,18964078,-0.00000048,0,0,0.3450014,0.02494644,0.02494644,0,0,0,-0.00505356,1,1,0
4679,19064038,-0.00000048,0,0,0.3450014,0.02461762,0.02461762,0,0,0,-0.00538238,1,1,0
4758,19163998,-0.00000048,0,0,0.3450014,0.02429733,0.02429733,0,0,0,-0.00570266,1,1,0
4837,19263958,-0.00000048,0,0,0.3450014,0.02399549,0.02399549,0,0,0,-0.00600451,1,1,0
4921,19363918,-0.00000048,0,0,0.3450014,0.02369216,0.02369216,0,0,0,-0.00630784,1,1,0
5001,19463878,-0.00000048,0,0,0.3450014,0.02339608,0.02339608,0,0,0,-0.00660392,1,1,0
5080,19563838,-0.00000048,0,0,0.3450014,0.02310418,0.02310418,0,0,0,-0.00689582,1,1,0
5159,19663798,-0.00000048,0,0,0.3450014,0.02281938,0.02281938,0,0,0,-0.00718061,1,1,0
5238,19763758,-0.00000048,0,0,0.3450014,0.02253977,0.02253977,0,0,0,-0.00746023,1,1,0
5319,19863718,-0.00000048,0,0,0.3450014,0.02226573,0.02226573,0,0,0,-0.00773426,1,1,0
5400,19963678,-0.00000048,0,0,0.3450014,0.02199237,0.02199237,0,0,0,-0.00800763,0,0,0
5480,20063638,-0.00000048,0,0,0.3450014,0.0217175,0.0217175,0,0,0,-0.0082825,0,0,0
5559,20163598,-0.00000048,0,0,0.3450014,0.02144099,0.02144099,0,0,0,-0.00855901,0,0,0
5638,20263558,-0.00000048,0,0,0.3450014,0.02116803,0.02116803,0,0,0,-0.00883197,0,0,0
5722,20363518,-0.00000048,0,0,0.3450014,0.02089754,0.02089754,0,0,0,-0.00910246,0,0,0
5802,20463478,-0.00000048,0,0,0.3450014,0.02063078,0.02063078,0,0,0,-0.00936922,0,0,0
5881,20563438,-0.00000048,0,0,0.3450014,0.02036777,0.02036777,0,0,0,-0.00963223,0,0,0
5960,20663398,-0.00000048,0,0,0.3450014,0.02011272,0.02011272,0,0,0,-0.00988727,0,0,0
6039,20763358,-0.00000048,0,0,0.3450014,0.01986233,0.01986233,0,0,0,-0.01013767,0,0,0
6120,20863318,-0.00000048,0,0,0.3450014,0.01962161,0.01962161,0,0,0,-0.01037839,0,0,0
6200,20963278,-0.00000048,0,0,0.3450014,0.01938725,0.01938725,0,0,0,-0.01061275,0,0,0
6279,21064071,-0.00000048,0,0,0.3450014,0.01915547,0.01915547,0,0,0,-0.01084453,0,0,0
6359,21164031,-0.00000048,0,0,0.3450014,0.01893141,0.01893141,0,0,0,-0.01106859,0,0,0
6438,21263991,-0.00000048,0,0,0.3450014,0.01871012,0.01871012,0,0,0,-0.01128988,0,0,0
6522,21363951,-0.00000048,0,0,0.3450014,0.01849629,0.01849629,0,0,0,-0.01150371,0,0,0
6602,21463911,-0.00000048,0,0,0.3450014,0.01828201,0.01828201,0,0,0,-0.01171799,0,0,0
6681,21563871,-0.00000048,0,0,0.3450014,0.01807014,0.01807014,0,0,0,-0.01192986,0,0,0
6760,21663831,-0.00000048,0,0,0.3450014,0.01786079,0.01786079,0,0,0,-0.01213921,0,0,0
6839,21763791,-0.00000048,0,0,0.3450014,0.01765634,0.01765634,0,0,0,-0.01234366,0,0,0
6920,21863751,-0.00000048,0,0,0.3450014,0.01745656,0.01745656,0,0,0,-0.01254344,0,0,0
7000,21963711,-0.00000048,0,0,0.3450014,0.01726629,0.01726629,0,0,0,-0.01273371,0,0,0
7079,22063671,-0.00000048,0,0,0.3450014,0.01708205,0.01708205,0,0,0,-0.01291795,0,0,0
7159,22163631,-0.00000048,0,0,0.3450014,0.01690294,0.01690294,0,0,0,-0.01309706,0,0,0
7238,22263591,-0.00000048,0,0,0.3450014,0.01672705,0.01672705,0,0,0,-0.01327295,0,0,0
7323,22363551,-0.00000048,0,0,0.3450014,0.01655252,0.01655252,0,0,0,-0.01344748,0,0,0
7403,22463511,-0.00000048,0,0,0.3450014,0.01638143,0.01638143,0,0,0,-0.01361857,0,0,0
7482,22563471,-0.00000048,0,0,0.3450014,0.01620822,0.01620822,0,0,0,-0.01379178,0,0,0
7561,22663431,-0.00000048,0,0,0.3450014,0.01604257,0.01604257,0,0,0,-0.01395743,0,0,0
7640,22763391,-0.00000048,0,0,0.3450014,0.01587254,0.01587254,0,0,0,-0.01412746,0,0,0
7721,22863351,-0.00000048,0,0,0.3450014,0.01573444,0.01573444,0,0,0,-0.01426556,0,0,0
7800,22963311,-0.00000048,0,0,0.3450014,0.01558573,0.01558573,0,0,0,-0.01441427,0,0,0
7880,23063271,-0.00000048,0,0,0.3450014,0.01543131,0.01543131,0,0,0,-0.01456869,0,0,0
7960,23164064,-0.00000048,0,0,0.3450014,0.01527303,0.01527303,0,0,0,-0.01472697,0,0,0
8039,23264024,-0.00000048,0,0,0.3450014,0.01511132,0.01511132,0,0,0,-0.01488868,0,0,0
8123,23363984,-0.00000048,0,0,0.3450014,0.01494822,0.01494822,0,0,0,-0.01505178,0,0,0
8202,23463944,-0.00000048,0,0,0.3450014,0.01478595,0.01478595,0,0,0,-0.01521405,0,0,0
8282,23563904,-0.00000048,0,0,0.3450014,0.0146204,0.0146204,0,0,0,-0.0153796,0,0,0
8361,23663864,-0.00000048,0,0,0.3450014,0.01445771,0.01445771,0,0,0,-0.01554229,0,0,0
8440,23763824,-0.00000048,0,0,0.3450014,0.01429893,0.01429893,0,0,0,-0.01570107,0,0,0
8521,23863784,-0.00000048,0,0,0.3450014,0.01414034,0.01414034,0,0,0,-0.01585966,0,0,0
8600,23963744,-0.00000048,0,0,0.3450014,0.01398336,0.01398336,0,0,0,-0.01601664,0,0,0
8680,24063704,-0.00000048,0,0,0.3450014,0.01383046,0.01383046,0,0,0,-0.01616953,0,0,0
8760,24163664,-0.00000048,0,0,0.3450014,0.01368039,0.01368039,0,0,0,-0.01631961,0,0,0
8839,24263624,-0.00000048,0,0,0.3450014,0.0135301,0.0135301,0,0,0,-0.0164699,0,0,0
8923,24363584,-0.00000048,0,0,0.3450014,0.01338042,0.01338042,0,0,0,-0.01661958,0,0,0
9002,24463544,-0.00000048,0,0,0.3450014,0.01323169,0.01323169,0,0,0,-0.0167683,0,0,0
9082,24563504,-0.00000048,0,0,0.3450014,0.01308448,0.01308448,0,0,0,-0.01691552,0,0,0
9161,24663464,-0.00000048,0,0,0.3450014,0.01293865,0.01293865,0,0,0,-0.01706135,0,0,0
9240,24763424,-0.00000048,0,0,0.3450014,0.01279948,0.01279948,0,0,0,-0.01720051,0,0,0
9321,24863384,-0.00000048,0,0,0.3450014,0.01266349,0.01266349,0,0,0,-0.01733651,0,0,0
9400,24963344,-0.00000048,0,0,0.3450014,0.01252943,0.01252943,0,0,0,-0.01747057,0,0,0
9481,25063304,-0.00000048,0,0,0.3450014,0.01239667,0.01239667,0,0,0,-0.01760333,0,0,0
9561,25163264,-0.00000048,0,0,0.3450014,0.01226206,0.01226206,0,0,0,-0.01773794,0,0,0
9640,25264057,-0.00000048,0,0,0.3450014,0.0121275,0.0121275,0,0,0,-0.0178725,0,0,0
9724,25364017,-0.00000048,0,0,0.3450014,0.01199628,0.01199628,0,0,0,-0.01800372,0,0,0
9803,25463977,-0.00000048,0,0,0.3450014,0.01186302,0.01186302,0,0,0,-0.01813698,0,0,0
9883,25563937,-0.00000048,0,0,0.3450014,0.0117333,0.0117333,0,0,0,-0.01826669,0,0,0
9962,25663897,-0.00000048,0,0,0.3450014,0.01159807,0.01159807,0,0,0,-0.01840193,0,0,0
10041,25763857,-0.00000048,0,0,0.3450014,0.01146335,0.01146335,0,0,0,-0.01853665,0,0,0
10122,25863817,-0.00000048,0,0,0.3450014,0.01132804,0.01132804,0,0,0,-0.01867196,0,0,0
10201,25963777,-0.00000048,0,0,0.3450014,0.01119112,0.01119112,0,0,0,-0.01880888,0,0,0
10281,26063737,-0.00000048,0,0,0.3450014,0.01105256,0.01105256,0,0,0,-0.01894744,0,0,0
10361,26163697,-0.00000048,0,0,0.3450014,0.01091383,0.01091383,0,0,0,-0.01908617,0,0,0
10440,26263657,-0.00000048,0,0,0.3450014,0.01077522,0.01077522,0,0,0,-0.01922478,0,0,0
10524,26363617,-0.00000048,0,0,0.3450014,0.01063768,0.01063768,0,0,0,-0.01936232,0,0,0
10603,26463577,-0.00000048,0,0,0.3450014,0.01050017,0.01050017,0,0,0,-0.01949983,0,0,0
10683,26563537,-0.00000048,0,0,0.3450014,0.01036763,0.01036763,0,0,0,-0.01963237,0,0,0
10762,26663497,-0.00000048,0,0,0.3450014,0.01023619,0.01023619,0,0,0,-0.01976381,0,0,0
10841,26763457,-0.00000048,0,0,0.3450014,0.01010583,0.01010583,0,0,0,-0.01989417,0,0,0
10922,26863417,-0.00000048,0,0,0.3450014,0.00997846,0.00997846,0,0,0,-0.02002154,0,0,0
11001,26963377,-0.00000048,0,0,0.3450014,0.00985042,0.00985042,0,0,0,-0.02014958,0,0,0
11081,27063337,-0.00000048,0,0,0.3450014,0.00971904,0.00971904,0,0,0,-0.02028096,0,0,0
11161,27163297,-0.00000048,0,0,0.3450014,0.00958448,0.00958448,0,0,0,-0.02041552,0,0,0
11240,27264090,-0.00000048,0,0,0.3450014,0.00944839,0.00944839,0,0,0,-0.02055161,0,0,0
11324,27364050,-0.00000048,0,0,0.3450014,0.00931015,0.00931015,0,0,0,-0.02068985,0,0,0
11403,27464010,-0.00000048,0,0,0.3450014,0.00916981,0.00916981,0,0,0,-0.02083019,0,0,0
11483,27563970,-0.00000048,0,0,0.3450014,0.00902762,0.00902762,0,0,0,-0.02097238,0,0,0
11562,27663930,-0.00000048,0,0,0.3450014,0.00888452,0.00888452,0,0,0,-0.02111548,0,0,0
11641,27763890,-0.00000048,0,0,0.3450014,0.00873861,0.00873861,0,0,0,-0.02126139,0,0,0
11722,27863850,-0.00000048,0,0,0.3450014,0.00859101,0.00859101,0,0,0,-0.02140899,0,0,0
11801,27963810,-0.00000048,0,0,0.3450014,0.00844396,0.00844396,0,0,0,-0.02155604,0,0,0
11881,28063770,-0.00000048,0,0,0.3450014,0.00830028,0.00830028,0,0,0,-0.02169972,0,0,0
11961,28163730,-0.00000048,0,0,0.3450014,0.00815867,0.00815867,0,0,0,-0.02184133,0,0,0
12040,28263690,-0.00000048,0,0,0.3450014,0.00801827,0.00801827,0,0,0,-0.02198173,0,0,0
12124,28363650,-0.00000048,0,0,0.3450014,0.00787912,0.00787912,0,0,0,-0.02212089,0,0,0
12203,28463610,-0.00000048,0,0,0.3450014,0.00774285,0.00774285,0,0,0,-0.02225715,0,0,0
12283,28563570,-0.00000048,0,0,0.3450014,0.00760888,0.00760888,0,0,0,-0.02239112,0,0,0
12362,28663530,-0.00000048,0,0,0.3450014,0.00747501,0.00747501,0,0,0,-0.02252499,0,0,0
12441,28763490,-0.00000048,0,0,0.3450014,0.00734173,0.00734173,0,0,0,-0.02265827,0,0,0
12522,28863450,-0.00000048,0,0,0.3450014,0.00720927,0.00720927,0,0,0,-0.02279073,0,0,0
12601,28963410,-0.00000048,0,0,0.3450014,0.00707748,0.00707748,0,0,0,-0.02292252,0,0,0
12681,29063370,-0.00000048,0,0,0.3450014,0.00694909,0.00694909,0,0,0,-0.0230509,0,0,0
12761,29163330,-0.00000048,0,0,0.3450014,0.00682194,0.00682194,0,0,0,-0.02317806,0,0,0
12840,29263290,-0.00000048,0,0,0.3450014,0.0066935,0.0066935,0,0,0,-0.0233065,0,0,0
12924,29364083,-0.00000048,0,0,0.3450014,0.00656576,0.00656576,0,0,0,-0.02343423,0,0,0
13003,29464043,-0.00000048,0,0,0.3450014,0.00644268,0.00644268,0,0,0,-0.02355732,0,0,0
13083,29564003,-0.00000048,0,0,0.3450014,0.00632426,0.00632426,0,0,0,-0.02367574,0,0,0
13162,29663963,-0.00000048,0,0,0.3450014,0.00620763,0.00620763,0,0,0,-0.02379237,0,0,0
13284,45963274,-0.00000048,0,0,0.3450014,0.00015068,0.00015068,0,0,0,0.00015068,0,0,0
13366,46064067,-0.00000048,0,0,0.3450014,0.00016033,0.00016033,0,0,0,0.00016033,0,0,0
13446,46164027,-0.00000048,0,0,0.3450014,0.00017153,0.00017153,0,0,0,0.00017153,0,0,0
13530,46263987,-0.00000048,0,0,0.3450014,0.00018403,0.00018403,0,0,0,0.00018403,0,0,0
13615,46363947,-0.00000048,0,0,0.3450014,0.00019415,0.00019415,0,0,0,0.00019415,0,0,0
13699,46463907,-0.00000048,0,0,0.3450014,0.00021107,0.00021107,0,0,0,0.00021107,0,0,0
13786,46563867,-0.00000048,0,0,0.3450014,0.00022794,0.00022794,0,0,0,0.00022794,0,0,0
13871,46663827,-0.00000048,0,0,0.3450014,0.00025235,0.00025235,0,0,0,0.00025235,0,0,0
13957,46763787,-0.00000048,0,0,0.3450014,0.0002726,0.0002726,0,0,0,0.0002726,0,0,0
14042,46863747,-0.00000048,0,0,0.3450014,0.00029793,0.00029793,0,0,0,0.00029793,0,0,0
14127,46963707,-0.00000048,0,0,0.3450014,0.00031604,0.00031604,0,0,0,0.00031604,0,0,0
14214,47063667,-0.00000048,0,0,0.3450014,0.00034256,0.00034256,0,0,0,0.00034256,0,0,0
14300,47163627,-0.00000048,0,0,0.3450014,0.00036013,0.00036013,0,0,0,0.00036013,0,0,0
14386,47263587,-0.00000048,0,0,0.3450014,0.00038306,0.00038306,0,0,0,0.00038306,0,0,0
14473,47363547,-0.00000048,0,0,0.3450014,0.00039782,0.00039782,0,0,0,0.00039782,0,0,0
14559,47463507,-0.00000048,0,0,0.3450014,0.0004152,0.0004152,0,0,0,0.0004152,0,0,0
14646,47563467,-0.00000048,0,0,0.3450014,0.00041976,0.00041976,0,0,0,0.00041976,0,0,0
14731,47663427,-0.00000048,0,0,0.3450014,0.00043374,0.00043374,0,0,0,0.00043374,0,0,0
14817,47763387,-0.00000048,0,0,0.3450014,0.00043773,0.00043773,0,0,0,0.00043773,0,0,0
14902,47863347,-0.00000048,0,0,0.3450014,0.00044434,0.00044434,0,0,0,0.00044434,0,0,0
14988,47963307,-0.00000048,0,0,0.3450014,0.00044047,0.00044047,0,0,0,0.00044047,0,0,0
15079,48063267,-0.00000048,0,0,0.3450014,0.00044558,0.00044558,0,0,0,0.00044558,0,0,0
15169,48164060,-0.00000048,0,0,0.3450014,0.00044188,0.00044188,0,0,0,0.00044188,0,0,0
15259,48264020,-0.00000048,0,0,0.3450014,0.00044707,0.00044707,0,0,0,0.00044707,0,0,0
15350,48363980,-0.00000048,0,0,0.3450014,0.00045331,0.00045331,0,0,0,0.00045331,0,0,0
15441,48463940,0.00010967,0,0.00000682,0.3450014,0.00053373,0.00047105,0,0,0,0.00059312,0,0,0
15532,48563900,0.00213534,0.00000001,0.00070707,0.3450014,0.00060144,0.0004799,0,0,0,0.00060197,0,0,0
15621,48663860,0.00826722,0.00000002,0.00400587,0.3450014,0.00109435,0.00049658,0,0,0,0.00061865,1,0,0
15711,48763820,0.01858291,0.00000005,0.01111456,0.3450014,0.00266376,0.00050029,0,0,0,0.00062236,2,0,0
15800,48863780,0.03296441,0.00000009,0.02216027,0.3450014,0.00596605,0.00051412,0,0,0,0.00063619,5,0,0
15889,48963740,0.05180478,0.00000015,0.03743936,0.3450014,0.0115207,0.00051875,0,0,0,0.00064082,9,0,0
15980,49063700,0.07552573,0.00000022,0.05725285,0.3450014,0.01971976,0.00052959,0,0,0,0.00065166,13,0,0
16070,49163660,0.1042794,0.00000032,0.08192669,0.3450014,0.03084783,0.00052532,0,0,0,0.00064739,18,0,0
16160,49263620,0.1384408,0.00000045,0.1117331,0.3450014,0.0450994,0.00053385,0,0,0,0.00065592,24,0,0
16251,49363580,0.1783277,0.00000058,0.1470126,0.3450014,0.06259362,0.00053561,0,0,0,0.00065768,31,0,0
16341,49463540,0.2240645,0.00000075,0.1879625,0.3450014,0.08338737,0.00054973,0,0,0,0.0006718,39,0,0
16432,49563500,0.2758693,0.00000095,0.2348568,0.3450014,0.1074864,0.00055356,0,0,0,0.00067563,47,0,0
16521,49663460,0.3338804,0.00000119,0.2878429,0.3450014,0.1348536,0.00056765,0,0,0,0.00068972,56,0,0
16611,49763420,0.3973218,0.00000146,0.3467088,0.3450014,0.1653976,0.00056783,0,0,0,0.0006899,65,0,0
16700,49863380,0.435904,0.00000167,0.4049085,0.3450014,0.1989423,0.00104547,0,0,0,0.00110651,75,2,0
16789,49963340,0.4571032,0.00000179,0.4325387,0.3450014,0.2352286,0.00795518,0,0,0,0.00795518,84,11,0
16880,50063300,0.4905115,0.000002,0.4632016,0.3450014,0.2739532,0.02461259,0.01,0,0,0.02461259,92,21,0
16970,50163260,0.5271087,0.00000221,0.497627,0.3450014,0.3148131,0.04995512,0.03,0,0,0.04995512,100,30,0
17060,50264053,0.5605474,0.00000238,0.5327137,0.3450014,0.3575972,0.08400273,0.08,0,0,0.08400273,106,39,0
17151,50364013,0.5012127,0.00000089,0.5581846,0.3450014,0.4023243,0.1244588,0.12,0,0,0.1244588,112,53,0
17241,50463973,0.2799975,0.00000024,0.3956084,0.3450014,0.4495873,0.2007912,0.2,0,0,0.2007912,114,103,0
17332,50563933,0.3040878,0.00001177,0.3180688,0.3450014,0.5010459,0.3195809,0.33,0,0,0.3195809,113,133,0
17421,50663893,0.3446907,0.00016034,0.3318433,0.3450014,0.5573471,0.4546585,0.47,0,0,0.4546585,111,139,0
17511,50763853,0.3835608,0.00019455,0.3592182,0.3450014,0.6187187,0.5784557,0.62,0,0,0.5784557,111,135,0
17600,50863813,0.3987302,0.00015333,0.3843572,0.3450014,0.685382,0.7015135,0.75,0,0,0.7016355,111,129,0
17689,50963773,0.4025122,0.00020617,0.3968082,0.3450014,0.7575539,0.824872,0.89,0,0,0.824994,112,126,0
17780,51063733,0.396982,0.00021717,0.3984953,0.3450014,0.8354474,0.9502872,1.02,0,0,0.9504092,114,126,0
17871,51163693,0.3952222,0.00018224,0.3957818,0.3450014,0.9192685,1.081029,1.15,0,0,1.081151,116,128,0
17961,51263653,0.3952743,0.00012869,0.3953688,0.3450014,1.009218,1.215316,1.29,0,0,1.215499,118,130,0
18052,51363613,0.3965912,0.00023255,0.3968188,0.3450014,1.105491,1.352849,1.42,0,0,1.353093,120,132,0
18142,51463573,0.3994702,0.00015566,0.3988533,0.3450014,1.208276,1.493096,1.57,0,0,1.49334,124,135,0
18233,51563533,0.4035883,0.00021496,0.4014043,0.3450014,1.317757,1.635888,1.7,0,0,1.636132,127,137,0
18322,51663493,0.4040795,0.00020275,0.4043792,0.3450014,1.43411,1.781599,1.85,0,0,1.781843,131,140,0
18412,51763453,0.409323,0.00022075,0.4070814,0.3450014,1.557505,1.930403,2.01,0,0,1.930586,136,144,0
18501,51863413,0.4126742,0.00015905,0.4092949,0.3450014,1.688108,2.083034,2.15,0,0,2.083217,141,148,0
18590,51963373,0.413735,0.00025943,0.4116175,0.3450014,1.826077,2.239591,2.31,0,0,2.239836,147,152,0
18681,52063333,0.4143959,0.00016263,0.4137265,0.3450014,1.971554,2.40114,2.47,0,0,2.401384,153,158,0
18772,52163293,0.4168629,0.00022691,0.4160101,0.3450014,2.124611,2.567337,2.64,0,0,2.567581,159,163,0
18862,52264086,0.4158369,0.00019222,0.4174209,0.3450014,2.285151,2.739007,2.81,0,0,2.739251,165,168,0
18955,52364046,0.4177863,0.0003081,0.4176496,0.3450014,2.452901,2.915492,2.99,0,0,2.915736,171,173,0
19047,52464006,0.4145773,0.00017861,0.4175761,0.3450014,2.627486,3.097391,3.18,0,0,3.097635,176,179,0
19138,52563966,0.4177454,0.00024283,0.4174083,0.3450014,2.808489,3.284846,3.36,0,0,3.28509,181,183,0
19227,52663926,0.4146371,0.00022849,0.4169396,0.3450014,2.995455,3.475369,3.56,0,0,3.475614,185,187,0
19317,52763886,0.4134604,0.00021332,0.4154475,0.3450014,3.187902,3.66965,3.76,0,0,3.669894,189,191,0
19406,52863846,0.4139067,0.00022179,0.414891,0.3450014,3.385309,3.867952,3.96,0,0,3.868196,193,195,0
19495,52963806,0.4110483,0.00022689,0.4128056,0.3450014,3.587133,4.069144,4.16,0,0,4.069388,196,198,0
19586,53063766,0.4072981,0.00017944,0.4109688,0.3450014,3.792794,4.27345,4.36,0,0,4.273695,198,200,0
19676,53163726,0.4080514,0.00019661,0.4091111,0.3450014,4.001689,4.479916,4.58,0,0,4.48016,200,202,0
19766,53263686,0.4042887,0.00015876,0.4062375,0.3450014,4.213193,4.688408,4.78,0,0,4.688652,202,203,0
19857,53363646,0.4033747,0.00022438,0.4054899,0.3450014,4.426702,4.897722,5,0,0,4.897966,202,204,0
19947,53463606,0.4056144,0.0001803,0.4046943,0.3450014,4.641791,5.107789,5.21,0,0,5.108033,203,204,0
20039,53563566,0.4050609,0.00020513,0.4046008,0.3450014,4.858266,5.318096,5.42,0,0,5.318401,204,204,0
20128,53663526,0.4049683,0.00023645,0.4046742,0.3450014,5.076056,5.528949,5.62,0,0,5.529254,204,205,0
20218,53763486,0.405262,0.00022963,0.4050539,0.3450014,5.295111,5.740064,5.84,0,0,5.740369,205,205,0
20307,53863446,0.4057889,0.00015253,0.4052217,0.3450014,5.515378,5.951677,6.05,0,0,5.951982,206,205,0
20396,53963406,0.4041652,0.0002633,0.4055859,0.3450014,5.736813,6.163621,6.26,0,0,6.163927,207,206,0
20487,54063366,0.4068207,0.00017804,0.406311,0.3450014,5.959366,6.376225,6.48,0,0,6.37653,208,207,0
20577,54163326,0.4064326,0.00021106,0.4067144,0.3450014,6.182999,6.589272,6.69,0,0,6.589577,209,207,0
20667,54263286,0.4074113,0.00023496,0.406885,0.3450014,6.407664,6.803157,6.91,0,0,6.803463,210,208,0
20758,54364079,0.4062749,0.00024027,0.4069006,0.3450014,6.633324,7.017705,7.12,0,0,7.01801,211,209,0
20848,54464039,0.4084066,0.00018901,0.4078852,0.3450014,6.85994,7.233284,7.34,0,0,7.233589,212,210,0
20940,54563999,0.4090065,0.00019914,0.4079295,0.3450014,7.087471,7.449501,7.55,0,0,7.449806,213,211,0
21029,54663959,0.4079955,0.0002405,0.4086327,0.3450014,7.315886,7.668597,7.77,0,0,7.668902,214,212,0
21118,54763919,0.4079883,0.00015014,0.4090558,0.3450014,7.545145,7.886553,7.99,0,0,7.886858,215,213,0
21208,54863879,0.4081693,0.00020102,0.4087845,0.3450014,7.775218,8.105731,8.21,0,0,8.106036,216,214,0
21297,54963839,0.4073422,0.00019166,0.4090808,0.3450014,8.006073,8.325644,8.44,0,0,8.32595,218,215,0
21388,55063799,0.4103851,0.00017279,0.4096692,0.3450014,8.23768,8.546904,8.65,0,0,8.547209,219,216,0
21478,55163759,0.4107195,0.0001885,0.4098967,0.3450014,8.470009,8.768852,8.87,0,0,8.769096,220,217,0
21567,55263719,0.4101176,0.00018772,0.4104989,0.3450014,8.703031,8.992192,9.1,0,0,8.992436,221,218,0
21659,55363679,0.4075345,0.00025296,0.4098929,0.3450014,8.936717,9.216306,9.33,0,0,9.21655,222,219,0
21749,55463639,0.4092992,0.00012749,0.4101204,0.3450014,9.171043,9.441797,9.55,0,0,9.442041,222,220,0
21841,55563599,0.410977,0.00024918,0.4101464,0.3450014,9.405984,9.667925,9.77,0,0,9.668169,223,221,0
21930,55663559,0.4110698,0.00018412,0.4107101,0.3450014,9.641517,9.895155,10,0,0,9.895399,224,222,0
22019,55763519,0.4123087,0.00020197,0.4107954,0.3450014,9.877617,10.1228,10.23,0,0,10.12305,225,223,0
22109,55863479,0.410372,0.00019979,0.4107423,0.3450014,10.11426,10.35171,10.46,0,0,10.35196,226,224,0
22198,55963439,0.4107069,0.00023022,0.4105579,0.3450014,10.35143,10.58101,10.69,0,0,10.58125,227,225,0
22289,56063399,0.4101995,0.00016558,0.4105111,0.3450014,10.5891,10.81148,10.91,0,0,10.81172,227,226,0
22379,56163359,0.4089254,0.00023288,0.4107026,0.3450014,10.82726,11.04235,11.15,0,0,11.04259,228,226,0
22469,56263319,0.4121242,0.00017303,0.4109662,0.3450014,11.06588,11.27437,11.38,0,0,11.27461,229,227,0
22561,56363279,0.4098235,0.00019509,0.4104646,0.3450014,11.30495,11.50682,11.62,0,0,11.50706,229,228,0
22652,56464072,0.4106887,0.00020587,0.4103429,0.3450014,11.54445,11.74041,11.85,0,0,11.74066,230,229,0
22743,56564032,0.4112863,0.00019529,0.4108863,0.3450014,11.78435,11.97429,12.08,0,0,11.97454,231,229,0
22832,56663992,0.4088756,0.00021967,0.4111007,0.3450014,12.02466,12.20919,12.31,0,0,12.20943,231,230,0
22921,56763952,0.409542,0.00022063,0.4100516,0.3450014,12.26534,12.44627,12.55,0,0,12.44651,231,231,0
23011,56863912,0.4104956,0.00014779,0.4103553,0.3450014,12.50639,12.68238,12.79,0,0,12.68263,232,231,0
23100,56963872,0.4112338,0.00025001,0.4104914,0.3450014,12.74779,12.9184,13.02,0,0,12.91864,232,231,0
23191,57063832,0.4120724,0.00017616,0.4112338,0.3450014,12.98953,13.1552,13.26,0,0,13.15544,233,232,0
23281,57163792,0.4089946,0.00023282,0.4106403,0.3450014,13.23159,13.39197,13.49,0,0,13.39222,233,233,0
23370,57263752,0.411161,0.00015929,0.4110039,0.3450014,13.47397,13.62962,13.73,0,0,13.62987,234,233,0
23462,57363712,0.4093477,0.00022939,0.4109457,0.3450014,13.71664,13.86721,13.97,0,0,13.86745,234,233,0
23553,57463672,0.4089272,0.00013188,0.4110578,0.3450014,13.9596,14.10576,14.21,0,0,14.10601,235,234,0
23644,57563632,0.4096346,0.00021878,0.4108281,0.3450014,14.20284,14.34437,14.45,0,0,14.34461,235,234,0
23733,57663592,0.4134607,0.00026307,0.4107752,0.3450014,14.44634,14.58402,14.69,0,0,14.58426,236,235,0
23822,57763552,0.4108197,0.00019595,0.411555,0.3450014,14.6901,14.82346,14.92,0,0,14.8237,236,235,0
23912,57863512,0.409757,0.000195,0.4113157,0.3450014,14.9341,15.0638,15.17,0,0,15.06405,237,236,0
24001,57963472,0.4099455,0.00023687,0.4112584,0.3450014,15.17834,15.30399,15.4,0,0,15.30424,237,236,0
24092,58063432,0.4099776,0.00014207,0.4108173,0.3450014,15.4228,15.5458,15.64,0,0,15.54604,237,237,0
24182,58163392,0.4099299,0.00023451,0.4102976,0.3450014,15.66743,15.78672,15.88,0,0,15.78697,237,237,0
24271,58263352,0.4063586,0.00014645,0.4087651,0.3450014,15.91188,16.02897,16.13,0,0,16.02922,237,237,0
24363,58363312,0.4016774,0.00025088,0.4059062,0.3450014,16.1554,16.27038,16.37,0,0,16.27063,236,236,0
24454,58463272,0.3977161,0.00013217,0.4018397,0.3450014,16.39706,16.51158,16.61,0,0,16.51182,233,235,0
24545,58564065,0.3940879,0.00020713,0.3973375,0.3450014,16.63591,16.75031,16.85,0,0,16.75055,229,232,0
24634,58664025,0.3896604,0.0001387,0.3925751,0.3450014,16.87098,16.98669,17.09,0,0,16.98694,225,229,0
24723,58763985,0.3820452,0.00024748,0.3868257,0.3450014,17.10131,17.21857,17.31,0,0,17.21882,219,224,0
24813,58863945,0.3737439,0.00009325,0.3810067,0.3450014,17.32594,17.44795,17.54,0,0,17.44819,212,219,0
24902,58963905,0.3722918,0.00022662,0.3755299,0.3450014,17.54388,17.66902,17.76,0,0,17.66926,205,212,0
24993,59063865,0.3665401,0.00009993,0.3701275,0.3450014,17.75416,17.88315,17.96,0,0,17.88339,196,204,0
25083,59163825,0.3602816,0.00018567,0.3645567,0.3450014,17.95585,18.08858,18.16,0,0,18.08882,186,195,0
25172,59263785,0.35773,0.00009036,0.359564,0.3450014,18.14823,18.28492,18.36,0,0,18.28516,176,185,0
25264,59363745,0.3532826,0.00015923,0.3569826,0.3450014,18.33101,18.47092,18.53,0,0,18.47116,166,175,0
25355,59463705,0.3518537,0.000081,0.3545287,0.3450014,18.50415,18.64648,18.71,0,0,18.64672,156,164,0
25446,59563665,0.3517353,0.00017753,0.3524967,0.3450014,18.66761,18.8114,18.87,0,0,18.81164,146,153,0
25535,59663625,0.3497812,0.00011471,0.3512875,0.3450014,18.82139,18.96544,19.01,0,0,18.96568,136,143,0
25624,59763585,0.3508118,0.0001379,0.3508545,0.3450014,18.96546,19.10863,19.15,0,0,19.10888,126,132,0
25714,59863545,0.3492717,0.00009707,0.3486363,0.3450014,19.09982,19.24104,19.28,0,0,19.24129,116,122,0
25803,59963505,0.3472454,0.00017583,0.347242,0.3450014,19.22444,19.36275,19.4,0,0,19.363,107,111,0
25894,60063465,0.3468861,0.00008398,0.3473707,0.3450014,19.33932,19.47378,19.5,0,0,19.47403,97,101,0
25984,60163425,0.3445366,0.00016978,0.3461725,0.3450014,19.44442,19.57427,19.59,0,0,19.57458,88,91,0
26073,60263385,0.3445916,0.00008494,0.3453164,0.3450014,19.53976,19.6645,19.67,0,0,19.66481,78,81,0
26165,60363345,0.3464359,0.00016227,0.3444066,0.3450014,19.6253,19.74435,19.75,0,0,19.74465,69,71,0
26255,60463305,0.344294,0.00008187,0.3437814,0.3450014,19.70105,19.81403,19.81,0,0,19.81433,60,61,0
26348,60563265,0.3549384,0.00023103,0.348449,0.3450014,19.87182,19.87386,19.86,0,0,19.87422,54,53,0
26437,60664058,0.3642699,0.00004789,0.3577928,0.3450014,19.92447,19.92677,19.9,0,0,19.92714,51,48,0
26526,60764018,0.3622814,0.00078276,0.3610693,0.3450014,19.97414,19.97433,19.94,0,0,19.97469,47,44,0
26616,60863978,0.3611603,0.00001973,0.3617746,0.3450014,20.01973,20.01688,19.99,0,0,20.01718,43,39,0
26705,60963938,0.3627296,0.00058669,0.3621052,0.3450014,20.05959,20.05387,20.02,0,0,20.05411,39,35,0
26796,61063898,0.360896,0.00001639,0.3621285,0.3450014,20.09566,20.08626,20.04,0,0,20.0865,34,30,0
26886,61163858,0.3643553,0.00035,0.3628559,0.3450014,20.12704,20.11358,20.06,0,0,20.1137,30,26,0
26975,61263818,0.365503,0.00005847,0.363703,0.3450014,20.15405,20.13712,20.08,0,0,20.13724,26,23,0
27070,61363778,0.3676138,0.00024536,0.3647402,0.3450014,20.17708,20.1561,20.1,0,0,20.15622,23,19,0
27160,61463738,0.3659621,0.00009981,0.3660388,0.3450014,20.19656,20.1722,20.11,0,0,20.1722,20,17,0
27251,61563698,0.3678792,0.00016388,0.367295,0.3450014,20.21295,20.18471,20.12,0,0,20.18471,17,14,0
27340,61663658,0.3694291,0.00009716,0.3689515,0.3450014,20.22666,20.19522,20.12,0,0,20.19522,15,12,0
27429,61763618,0.3704381,0.00027707,0.3695886,0.3450014,20.23779,20.20286,20.13,0,0,20.20274,13,10,0
27519,61863578,0.3727639,0.00006518,0.3708833,0.3450014,20.24726,20.20937,20.13,0,0,20.20925,12,9,0
27608,61963538,0.3722696,0.00022006,0.372026,0.3450014,20.25509,20.21359,20.13,0,0,20.21335,11,7,0
27699,62063498,0.3737773,0.00016236,0.3733476,0.3450014,20.26155,20.21727,20.13,0,0,20.21696,10,7,0
27788,62163458,0.3745994,0.00013968,0.3739164,0.3450014,20.26673,20.21916,20.13,0,0,20.21879,9,6,0
27878,62263418,0.3746386,0.00017378,0.3746818,0.3450014,20.27108,20.22103,20.13,0,0,20.22066,8,5,0
27971,62363378,0.3752819,0.00014254,0.3755944,0.3450014,20.27448,20.22162,20.13,0,0,20.22113,8,5,0
28061,62463338,0.3764822,0.00019544,0.3751569,0.3450014,20.2774,20.22274,20.13,0,0,20.22225,8,5,0
28152,62563298,0.376417,0.00014284,0.3755195,0.3450014,20.27978,20.22288,20.13,0,0,20.22239,7,5,0
28241,62664091,0.3756706,0.00015813,0.3758269,0.3450014,20.28173,20.22369,20.13,0,0,20.22321,7,5,0
28330,62764051,0.3744857,0.00018102,0.3760397,0.3450014,20.28327,20.22375,20.13,0,0,20.22326,7,5,0
28420,62864011,0.3750507,0.0001567,0.3763058,0.3450014,20.28453,20.22461,20.13,0,0,20.22406,7,5,0
28509,62963971,0.3754644,0.00016072,0.3758547,0.3450014,20.28548,20.22489,20.13,0,0,20.22428,7,5,0
28600,63063931,0.376838,0.00015578,0.3763433,0.3450014,20.28633,20.22596,20.13,0,0,20.22535,6,5,0
28689,63163891,0.3763175,0.0001401,0.376358,0.3450014,20.28703,20.22617,20.13,0,0,20.22556,6,5,0
28779,63263851,0.3768724,0.00015593,0.376629,0.3450014,20.2876,20.2271,20.13,0,0,20.22649,6,5,0
28871,63363811,0.373565,0.00015372,0.3765169,0.3450014,20.28806,20.22727,20.13,0,0,20.2266,6,5,0
28961,63463771,0.3774046,0.0001536,0.3765914,0.3450014,20.28843,20.22819,20.13,0,0,20.22752,6,5,0
29052,63563731,0.3789147,0.0001885,0.3769105,0.3450014,20.28874,20.22839,20.13,0,0,20.22766,6,5,0
29141,63663691,0.3745462,0.00012681,0.3762379,0.3450014,20.28899,20.22931,20.13,0,0,20.22858,6,5,0
29230,63763651,0.3747379,0.00014448,0.3762462,0.3450014,20.28918,20.22972,20.13,0,0,20.22905,6,5,0
29320,63863611,0.3735272,0.00012311,0.3757532,0.3450014,20.28933,20.23087,20.13,0,0,20.2302,5,5,0
29409,63963571,0.3764871,0.0002296,0.3762659,0.3450014,20.28947,20.23145,20.13,0,0,20.23078,5,5,0
29500,64063531,0.3738815,0.00011286,0.3766187,0.3450014,20.28956,20.23255,20.13,0,0,20.23182,5,5,0
29589,64163491,0.3745759,0.00020134,0.3762376,0.3450014,20.28966,20.23295,20.13,0,0,20.23228,5,5,0
29679,64263451,0.3756503,0.00010532,0.3757648,0.3450014,20.28971,20.23395,20.13,0,0,20.23328,5,5,0
29771,64363411,0.3752523,0.00019664,0.3760744,0.3450014,20.28976,20.23437,20.14,0,0,20.23376,5,5,0
29861,64463371,0.3774564,0.00010476,0.3766026,0.3450014,20.28981,20.23517,20.14,0,0,20.23456,5,5,0
29952,64563331,0.3758761,0.000218,0.3764227,0.3450014,20.28986,20.23559,20.14,0,0,20.23498,5,5,0
30041,64663291,0.3755053,0.00008482,0.3760872,0.3450014,20.28991,20.23661,20.14,0,0,20.236,5,5,0
30130,64764084,0.3773232,0.00025788,0.3764049,0.3450014,20.28991,20.23713,20.14,0,0,20.23652,5,5,0
30220,64864044,0.3762957,0.00009155,0.3764378,0.3450014,20.28991,20.2381,20.14,0,0,20.23749,5,5,0
30309,64964004,0.3764955,0.00023225,0.3766583,0.3450014,20.28991,20.23849,20.14,0,0,20.23788,5,4,0
30400,65063964,0.3761576,0.00008523,0.37614,0.3450014,20.28991,20.23945,20.14,0,0,20.23884,5,4,0
30489,65163924,0.3760687,0.00024521,0.3761013,0.3450014,20.28991,20.23994,20.15,0,0,20.23933,5,4,0
30579,65263884,0.3774181,0.00008526,0.3761176,0.3450014,20.28991,20.24091,20.15,0,0,20.2403,4,4,0
30671,65363844,0.3765362,0.00023314,0.3761317,0.3450014,20.28991,20.24145,20.15,0,0,20.24084,4,4,0
30761,65463804,0.3762496,0.00008598,0.3764819,0.3450014,20.28991,20.24238,20.15,0,0,20.24177,4,4,0
30852,65563764,0.3768673,0.0002051,0.3765038,0.3450014,20.28991,20.24298,20.15,0,0,20.24237,4,4,0
30941,65663724,0.3767897,0.00008601,0.3767639,0.3450014,20.28991,20.24386,20.15,0,0,20.24325,4,4,0
31030,65763684,0.3757311,0.00021419,0.3763978,0.3450014,20.28991,20.24442,20.16,0,0,20.24381,4,4,0
31120,65863644,0.3754695,0.00013825,0.3762012,0.3450014,20.28991,20.24537,20.16,0,0,20.24476,4,4,0
31209,65963604,0.3753953,0.00011641,0.3758096,0.3450014,20.28991,20.24608,20.16,0,0,20.24547,4,4,0
31300,66063564,0.3782448,0.00016183,0.3763316,0.3450014,20.28991,20.24715,20.16,0,0,20.24654,4,4,0
31389,66163524,0.3755637,0.00018957,0.376623,0.3450014,20.28991,20.24777,20.16,0,0,20.24716,4,4,0
31479,66263484,0.3771397,0.00011915,0.3763751,0.3450014,20.28991,20.24877,20.17,0,0,20.24816,4,4,0
31570,66363444,0.3761607,0.00018668,0.3763109,0.3450014,20.28991,20.24952,20.17,0,0,20.24891,4,4,0
31662,66463404,0.3769378,0.00011909,0.3766741,0.3450014,20.28991,20.25059,20.17,0,0,20.24998,3,3,0
31753,66563364,0.3773112,0.0002034,0.3765725,0.3450014,20.28991,20.25146,20.17,0,0,20.25085,3,3,0
31842,66663324,0.3755754,0.00010711,0.3763222,0.3450014,20.28991,20.25261,20.17,0,0,20.252,3,3,0
31931,66763284,0.3763951,0.00017402,0.3763669,0.3450014,20.28991,20.25351,20.18,0,0,20.2529,3,3,0
32020,66864077,0.3768733,0.00012827,0.3760714,0.3450014,20.28991,20.25452,20.18,0,0,20.25391,3,3,0
32110,66964037,0.3743931,0.00018531,0.3758225,0.3450014,20.28991,20.25531,20.18,0,0,20.2547,3,3,0
32201,67063997,0.3762369,0.00013003,0.3756476,0.3450014,20.28991,20.25639,20.18,0,0,20.25578,3,3,0
32290,67163957,0.3731931,0.00018463,0.3756606,0.3450014,20.28991,20.25732,20.18,0,0,20.25671,3,3,0
32380,67263917,0.3755334,0.00012118,0.3759374,0.3450014,20.28991,20.25832,20.19,0,0,20.25771,3,3,0
32471,67363877,0.3745302,0.00018919,0.3761582,0.3450014,20.28991,20.2591,20.19,0,0,20.25849,3,3,0
32562,67463837,0.3759778,0.00013706,0.3761022,0.3450014,20.28991,20.25998,20.19,0,0,20.25937,3,3,0
32653,67563797,0.375455,0.00017688,0.3756163,0.3450014,20.28991,20.26075,20.19,0,0,20.26014,2,3,0
32742,67663757,0.3755601,0.00014609,0.3756835,0.3450014,20.28991,20.26169,20.19,0,0,20.26108,2,3,0
32831,67763717,0.3760312,0.00014645,0.3756072,0.3450014,20.28991,20.26245,20.21,0,0,20.26184,2,2,0
32920,67863677,0.3766157,0.00011203,0.3764682,0.3450014,20.28991,20.26312,20.21,0,0,20.26251,2,2,0
33010,67963637,0.3759226,0.00018477,0.3758343,0.3450014,20.28991,20.26361,20.21,0,0,20.263,2,2,0
33101,68063597,0.375849,0.00018564,0.3763053,0.3450014,20.28991,20.26416,20.21,0,0,20.26355,2,2,0
33190,68163557,0.3746978,0.00017452,0.3767024,0.3450014,20.28991,20.26461,20.21,0,0,20.264,2,2,0
33280,68263517,0.376669,0.00014341,0.3763715,0.3450014,20.28991,20.26524,20.21,0,0,20.26457,2,2,0
33371,68363477,0.3759995,0.00017992,0.3762392,0.3450014,20.28991,20.26576,20.21,0,0,20.26509,2,2,0
33462,68463437,0.3754853,0.00013378,0.3761611,0.3450014,20.28991,20.26631,20.21,0,0,20.26563,2,2,0
33553,68563397,0.3745972,0.00017491,0.3766585,0.3450014,20.28991,20.26666,20.21,0,0,20.26599,2,2,0
33642,68663357,0.3733767,0.00015575,0.3761878,0.3450014,20.28991,20.26715,20.21,0,0,20.26648,2,2,0
33731,68763317,0.3761408,0.00015295,0.3758602,0.3450014,20.28991,20.26772,20.21,0,0,20.26698,2,2,0
33820,68863277,0.3748315,0.00014687,0.3760465,0.3450014,20.28991,20.26835,20.21,0,0,20.26762,2,2,0
33910,68964070,0.3763314,0.00015101,0.3760129,0.3450014,20.28991,20.26896,20.21,0,0,20.26823,2,2,0
34001,69064030,0.3763475,0.0001516,0.3761212,0.3450014,20.28991,20.26952,20.22,0,0,20.26878,2,2,0
34090,69163990,0.3760676,0.00015175,0.3757335,0.3450014,20.28991,20.27004,20.22,0,0,20.2693,1,2,0
34180,69263950,0.3757088,0.00013503,0.37591,0.3450014,20.28991,20.27067,20.22,0,0,20.26994,1,2,0
34271,69363910,0.3733186,0.00015843,0.3756895,0.3450014,20.28991,20.27134,20.22,0,0,20.27061,1,2,0
34362,69463870,0.3775018,0.00013,0.3752857,0.3450014,20.28991,20.27211,20.22,0,0,20.27137,1,1,0
34453,69563830,0.3769482,0.00014344,0.3752882,0.3450014,20.28991,20.27284,20.22,0,0,20.27211,1,1,0
34542,69663790,0.3736623,0.00014108,0.3756675,0.3450014,20.28991,20.27349,20.23,0,0,20.27275,1,1,0
34631,69763750,0.3759213,0.00014886,0.3752573,0.3450014,20.28991,20.27407,20.23,0,0,20.27334,1,1,0
34720,69863710,0.3750623,0.00016847,0.375733,0.3450014,20.28991,20.27461,20.23,0,0,20.27388,1,1,0
34810,69963670,0.3755133,0.00014392,0.3760555,0.3450014,20.28991,20.27499,20.23,0,0,20.27426,1,1,0
34901,70063630,0.374021,0.00013381,0.3760511,0.3450014,20.28991,20.27533,20.23,0,0,20.2746,1,1,0
34990,70163590,0.3752945,0.00022674,0.3758441,0.3450014,20.28991,20.27559,20.23,0,0,20.27486,1,1,0
35080,70263550,0.3746518,0.00012478,0.375937,0.3450014,20.28991,20.27588,20.23,0,0,20.27515,1,1,0
35171,70363510,0.3759384,0.00017652,0.3756977,0.3450014,20.28991,20.27612,20.23,0,0,20.27538,1,1,0
35262,70463470,0.3761733,0.00013748,0.3757528,0.3450014,20.28991,20.2764,20.25,0,0,20.27567,1,1,0
35353,70563430,0.3761773,0.00016481,0.3758557,0.3450014,20.28991,20.27663,20.25,0,0,20.2759,1,1,0
35442,70663390,0.3770214,0.00013828,0.3761673,0.3450014,20.28991,20.27685,20.25,0,0,20.27612,1,1,0
35531,70763350,0.3748035,0.00014785,0.3762948,0.3450014,20.28991,20.27719,20.25,0,0,20.27645,1,1,0
35620,70863310,0.3747352,0.00015035,0.3758,0.3450014,20.28991,20.27765,20.25,0,0,20.27692,1,1,0
35710,70963270,0.3760139,0.00014138,0.376,0.3450014,20.28991,20.27814,20.25,0,0,20.27741,1,1,0
35801,71064063,0.3755272,0.00015363,0.3764501,0.3450014,20.28991,20.27856,20.25,0,0,20.27783,1,1,0
35890,71164023,0.3772272,0.00015426,0.3767087,0.3450014,20.28991,20.27887,20.25,0,0,20.27814,1,1,0
35980,71263983,0.3763449,0.00019026,0.3764871,0.3450014,20.28991,20.27924,20.25,0,0,20.27851,1,1,0
36071,71363943,0.3756487,0.00014651,0.3764767,0.3450014,20.28991,20.27958,20.26,0,0,20.27884,1,1,0
36162,71463903,0.3758848,0.00016758,0.3758842,0.3450014,20.28991,20.27993,20.26,0,0,20.2792,1,1,0
36254,71563863,0.375275,0.00015721,0.3758338,0.3450014,20.28991,20.28036,20.26,0,0,20.27962,0,1,0
36343,71663823,0.3750778,0.00015923,0.3758805,0.3450014,20.28991,20.28093,20.26,0,0,20.2802,0,1,0
36432,71763783,0.3758836,0.00015831,0.3763348,0.3450014,20.28991,20.28147,20.26,0,0,20.28073,0,0,0
36521,71863743,0.3747159,0.00011656,0.3760105,0.3450014,20.28991,20.28188,20.26,0,0,20.28115,0,0,0
36611,71963703,0.3757241,0.00016084,0.375695,0.3450014,20.28991,20.28239,20.26,0,0,20.28166,0,0,0
36702,72063663,0.3751226,0.00016457,0.3755508,0.3450014,20.28991,20.28291,20.26,0,0,20.28218,0,0,0
36791,72163623,0.3740763,0.00018698,0.3751906,0.3450014,20.28991,20.28339,20.27,0,0,20.28266,0,0,0
36881,72263583,0.3749413,0.00013685,0.3751147,0.3450014,20.28991,20.28389,20.27,0,0,20.28315,0,0,0
36973,72363543,0.3764868,0.0001553,0.3755287,0.3450014,20.28991,20.28438,20.27,0,0,20.28365,0,0,0
37065,72463503,0.3617077,0.00011736,0.369893,0.3450014,20.28947,20.28474,20.27,0,0,20.28401,-1,0,0
37156,72563463,0.3602964,0.00053319,0.3594638,0.3450014,20.28515,20.28325,20.27,0,0,20.28252,-6,-3,0
37245,72663423,0.3606746,0.00119418,0.3620457,0.3450014,20.27597,20.27789,20.26,0,0,20.27716,-11,-7,0
37334,72763383,0.3702089,0.0048978,0.3661553,0.3450014,20.26406,20.26938,20.25,0,0,20.26877,-13,-10,0
37423,72863343,0.3657949,0.00757593,0.3723879,0.3450014,20.25089,20.25842,20.23,0,0,20.25793,-14,-11,0
37513,72963303,0.3763328,0.01480144,0.3789177,0.3450014,20.23738,20.24651,20.22,0,0,20.24627,-14,-13,0
37604,73063263,0.3677213,0.0148159,0.3861322,0.3450014,20.2241,20.23362,20.21,0,0,20.23374,-13,-13,0
37693,73164056,0.3783446,0.01967922,0.3884012,0.3450014,20.21137,20.22049,20.21,0,0,20.2211,-13,-13,0
37783,73264016,0.3697413,0.01654455,0.3921941,0.3450014,20.19939,20.20721,20.18,0,0,20.20837,-12,-13,0
37874,73363976,0.3797936,0.02084258,0.3922879,0.3450014,20.18821,20.1943,20.17,0,0,20.19619,-11,-12,0
37965,73463936,0.3695456,0.01771194,0.3955718,0.3450014,20.17787,20.1818,20.16,0,0,20.18448,-10,-11,0
38056,73563896,0.3805093,0.02327079,0.3940301,0.3450014,20.16835,20.17027,20.15,0,0,20.17387,-9,-10,0
38145,73663856,0.3697551,0.01886922,0.3969584,0.3450014,20.15962,20.15969,20.14,0,0,20.16439,-8,-9,0
38234,73763816,0.3779438,0.02532023,0.3952737,0.3450014,20.15162,20.15003,20.13,0,0,20.15589,-7,-8,0
38323,73863776,0.3695386,0.02023649,0.3976995,0.3450014,20.14432,20.14151,20.12,0,0,20.14871,-6,-7,0
38413,73963736,0.3806085,0.0302726,0.3984362,0.3450014,20.13767,20.13377,20.11,0,0,20.14232,-5,-6,0
38504,74063696,0.3694384,0.02120355,0.3999311,0.3450014,20.13162,20.12698,20.1,0,0,20.13699,-5,-5,0
38594,74163656,0.3768462,0.02574134,0.3963854,0.3450014,20.12611,20.12082,20.1,0,0,20.13248,-4,-4,0
38684,74263616,0.3685917,0.0137105,0.393163,0.3450014,20.12111,20.11545,20.09,0,0,20.12876,-4,-3,0
38775,74363576,0.3707107,0.01436377,0.3865529,0.3450014,20.11655,20.11067,20.09,0,0,20.12574,-3,-3,0
38866,74463536,0.368248,0.00550109,0.382677,0.3450014,20.11246,20.10662,20.08,0,0,20.12346,-3,-2,0
38957,74563496,0.3706598,0.00522071,0.3774473,0.3450014,20.10886,20.10288,20.08,0,0,20.1215,-2,-2,0
39046,74663456,0.3743543,0.0009377,0.3763608,0.3450014,20.10576,20.09949,20.07,0,0,20.11994,-2,-2,0
39136,74763416,0.3712686,0.00067475,0.3755825,0.3450014,20.1031,20.09581,20.07,0,0,20.1179,-1,-2,0
39225,74863376,0.3761514,0.00014839,0.3757797,0.3450014,20.10085,20.09239,20.07,0,0,20.11626,-1,-1,0
39315,74963336,0.3726708,0.00008556,0.3765527,0.3450014,20.09895,20.08871,20.07,0,0,20.11422,0,-1,0
39406,75063296,0.3791014,0.00042564,0.3770186,0.3450014,20.09736,20.08545,20.06,0,0,20.11255,0,-1,0
39495,75164089,0.3752591,0.00002944,0.3771747,0.3450014,20.09603,20.0822,20.06,0,0,20.11083,0,-1,0
39585,75264049,0.3806641,0.00084054,0.3782746,0.3450014,20.09493,20.07942,20.06,0,0,20.10945,0,-1,0
39676,75364009,0.3763014,0.00013638,0.378369,0.3450014,20.09402,20.07679,20.06,0,0,20.10829,0,0,0
39768,75463969,0.3808835,0.00105566,0.3787245,0.3450014,20.09327,20.07482,20.06,0,0,20.1076,1,0,0
39859,75563929,0.3752738,0.00030237,0.378512,0.3450014,20.09265,20.07323,20.06,0,0,20.10729,1,0,0
39948,75663889,0.380082,0.00140852,0.3785044,0.3450014,20.09215,20.07233,20.06,0,0,20.10755,1,0,0
40037,75763849,0.3736696,0.00042772,0.3784829,0.3450014,20.09174,20.07177,20.06,0,0,20.10815,1,1,0
40126,75863809,0.379675,0.00166926,0.3779147,0.3450014,20.09141,20.07192,20.06,0,0,20.10939,1,1,0
40216,75963769,0.3753157,0.00044754,0.3776073,0.3450014,20.09113,20.07238,20.06,0,0,20.11083,1,1,0
40307,76063729,0.3778779,0.00195059,0.3771536,0.3450014,20.09091,20.07326,20.07,0,0,20.11269,1,1,0
40396,76163689,0.3729413,0.00043848,0.3773799,0.3450014,20.09073,20.07415,20.07,0,0,20.11443,1,1,0
40486,76263649,0.3770849,0.00193176,0.3770846,0.3450014,20.09059,20.07536,20.07,0,0,20.1165,1,1,0
40577,76363609,0.373863,0.0004673,0.3768949,0.3450014,20.09048,20.07662,20.07,0,0,20.11849,1,1,0
40669,76463569,0.3773776,0.00203404,0.3767947,0.3450014,20.09038,20.07801,20.08,0,0,20.12062,1,1,0
40760,76563529,0.3738772,0.00049058,0.3767685,0.3450014,20.0903,20.07935,20.08,0,0,20.12263,1,1,0
40850,76663489,0.3758083,0.00180531,0.3768005,0.3450014,20.09025,20.08073,20.08,0,0,20.12461,0,1,0
40939,76763449,0.3737942,0.00036857,0.3763294,0.3450014,20.0902,20.08206,20.08,0,0,20.12649,0,1,0
41028,76863409,0.3777563,0.0015873,0.3768025,0.3450014,20.09015,20.08327,20.08,0,0,20.12832,0,1,0
41118,76963369,0.3723816,0.00029734,0.3761215,0.3450014,20.0901,20.08456,20.09,0,0,20.12997,0,1,0
41209,77063329,0.3772495,0.00142667,0.3763239,0.3450014,20.09008,20.0857,20.09,0,0,20.1316,0,0,0
41298,77163289,0.3748052,0.00024137,0.3759766,0.3450014,20.09008,20.08688,20.09,0,0,20.13321,0,0,0
41388,77264082,0.3764912,0.00144225,0.3761913,0.3450014,20.09008,20.0879,20.09,0,0,20.13459,0,0,0
41480,77364042,0.3787122,0.00019231,0.3765762,0.3450014,20.09008,20.08891,20.09,0,0,20.13591,0,0,0
41570,77464002,0.3784719,0.00084418,0.3768502,0.3450014,20.09027,20.08992,20.09,0,0,20.13729,0,0,0
41662,77563962,0.3770891,0.00028944,0.3765621,0.3450014,20.0907,20.09116,20.09,0,0,20.13877,0,0,0
41751,77663922,0.3747247,0.00025088,0.3763376,0.3450014,20.09126,20.09233,20.1,0,0,20.1403,0,0,0
41840,77763882,0.3790461,0.00433534,0.3774633,0.3450014,20.09188,20.09368,20.1,0,0,20.1419,0,0,0
41929,77863842,0.3734168,0.00457704,0.3795262,0.3450014,20.09256,20.09506,20.1,0,0,20.14364,0,0,0
42018,77963802,0.3810727,0.01409763,0.3834338,0.3450014,20.09322,20.09653,20.1,0,0,20.14548,0,0,0
42110,78063762,0.369223,0.01301575,0.3868342,0.3450014,20.09384,20.09806,20.1,0,0,20.14743,0,0,0
42199,78163722,0.3791711,0.022829,0.3911649,0.3450014,20.09443,20.09954,20.1,0,0,20.14947,0,0,0
42289,78263682,0.3683394,0.0160591,0.3916101,0.3450014,20.095,20.10095,20.1,0,0,20.15149,0,0,0
42380,78363642,0.3793871,0.02550289,0.3933379,0.3450014,20.09551,20.10225,20.11,0,0,20.15358,0,0,0
42471,78463602,0.3665808,0.01819435,0.3935245,0.3450014,20.09596,20.10346,20.11,0,0,20.15559,0,0,0
42563,78563562,0.3793171,0.0281547,0.3952116,0.3450014,20.09638,20.10447,20.11,0,0,20.15751,0,0,0
42652,78663522,0.3662199,0.01969185,0.39536,0.3450014,20.09677,20.10542,20.11,0,0,20.15943,0,0,0
42741,78763482,0.3784241,0.03061694,0.3963458,0.3450014,20.09715,20.10634,20.11,0,0,20.16146,0,0,0
42830,78863442,0.3680307,0.02136502,0.3974296,0.3450014,20.09747,20.10716,20.11,0,0,20.16343,0,0,0
42919,78963402,0.3740495,0.02751565,0.3949086,0.3450014,20.09779,20.10802,20.11,0,0,20.16557,0,0,0
43011,79063362,0.3634379,0.01425007,0.3910515,0.3450014,20.09805,20.10898,20.11,0,0,20.16782,0,0,0
43100,79163322,0.3706834,0.01580948,0.384412,0.3450014,20.0983,20.11017,20.11,0,0,20.17029,0,0,0
43190,79263282,0.3657404,0.00619516,0.3805258,0.3450014,20.09853,20.11112,20.11,0,0,20.17264,-1,0,0
43281,79364075,0.3700227,0.0066703,0.3765998,0.3450014,20.09874,20.11184,20.11,0,0,20.17471,-1,0,0
43372,79464035,0.3703223,0.0011248,0.3745365,0.3450014,20.09894,20.11207,20.11,0,0,20.17634,-1,0,0
43464,79563995,0.3703262,0.00125697,0.3729787,0.3450014,20.09911,20.1119,20.11,0,0,20.17751,-1,0,0
43553,79663955,0.3750327,0.00002348,0.373673,0.3450014,20.09925,20.11112,20.11,0,0,20.17801,-1,-1,0
43642,79763915,0.37214,0.00013128,0.3745441,0.3450014,20.09938,20.10984,20.11,0,0,20.17802,0,-1,0
43731,79863875,0.3759265,0.0003081,0.3756516,0.3450014,20.09948,20.10819,20.11,0,0,20.17753,0,-2,0
43820,79963835,0.3743482,0.00001428,0.375942,0.3450014,20.09958,20.10647,20.11,0,0,20.17697,0,-2,0
43912,80063795,0.3781069,0.00062737,0.3765879,0.3450014,20.09966,20.10479,20.11,0,0,20.17639,0,-1,0
44002,80163755,0.3735386,0.00001511,0.376746,0.3450014,20.0997,20.10332,20.11,0,0,20.17601,0,-1,0
44092,80263715,0.3782413,0.00088367,0.3764902,0.3450014,20.09975,20.10209,20.1,0,0,20.17576,0,-1,0
44183,80363675,0.3736469,0.00012103,0.3762924,0.3450014,20.0998,20.10116,20.1,0,0,20.17575,0,-1,0
44273,80463635,0.3783766,0.00119197,0.3772106,0.3450014,20.09985,20.10046,20.1,0,0,20.1759,0,0,0
44365,80563595,0.377089,0.00016218,0.3772844,0.3450014,20.09989,20.09984,20.1,0,0,20.1762,0,0,0
44454,80663555,0.3769737,0.00139961,0.3771003,0.3450014,20.09991,20.09937,20.1,0,0,20.17651,0,0,0
44543,80763515,0.3725807,0.00021243,0.3768061,0.3450014,20.09991,20.09913,20.1,0,0,20.17707,0,0,0
44632,80863475,0.3781311,0.0017297,0.3774219,0.3450014,20.09991,20.09906,20.1,0,0,20.17767,0,0,0
44721,80963435,0.3734783,0.0002763,0.3766235,0.3450014,20.09991,20.09917,20.1,0,0,20.17852,0,0,0
44813,81063395,0.3767569,0.00172254,0.3766898,0.3450014,20.09991,20.09943,20.1,0,0,20.17939,0,0,0
44903,81163355,0.3752383,0.00027913,0.3770259,0.3450014,20.09991,20.09978,20.11,0,0,20.18028,0,0,0
44993,81263315,0.3763376,0.00176254,0.3770379,0.3450014,20.09991,20.10003,20.11,0,0,20.18109,0,0,0
45084,81363275,0.3739594,0.0002853,0.3768338,0.3450014,20.09991,20.1004,20.11,0,0,20.182,0,0,0
45174,81464068,0.3762287,0.0015527,0.3772246,0.3450014,20.09991,20.1008,20.11,0,0,20.18283,0,0,0
45266,81564028,0.3728358,0.00026026,0.3761867,0.3450014,20.09991,20.10139,20.11,0,0,20.1839,0,0,0
45356,81663988,0.3771891,0.0015496,0.3771659,0.3450014,20.09991,20.10205,20.11,0,0,20.18493,0,0,0
45445,81763948,0.3744805,0.00022268,0.3763856,0.3450014,20.09991,20.10283,20.11,0,0,20.18608,0,0,0
45534,81863908,0.3756669,0.00149113,0.3755682,0.3450014,20.09991,20.10364,20.11,0,0,20.18726,0,0,0
45623,81963868,0.3737412,0.00021353,0.3760538,0.3450014,20.09991,20.1044,20.11,0,0,20.18839,0,0,0
45715,82063828,0.3763232,0.00134045,0.3761286,0.3450014,20.09991,20.10504,20.11,0,0,20.18927,0,0,0
45804,82163788,0.3750443,0.00016367,0.3757357,0.3450014,20.09991,20.10565,20.11,0,0,20.19019,0,0,0
45894,82263748,0.3757832,0.00115007,0.3757162,0.3450014,20.09991,20.10606,20.11,0,0,20.19083,0,0,0
45987,82363708,0.3827789,0.00014237,0.3770775,0.3450014,20.10003,20.10653,20.11,0,0,20.19149,0,0,0
46077,82463668,0.3823943,0.00051051,0.3812032,0.3450014,20.10213,20.10806,20.11,0,0,20.19327,2,1,0
46169,82563628,0.3806804,0.00040862,0.3816725,0.3450014,20.10636,20.11101,20.12,0,0,20.1964,4,3,0
46258,82663588,0.3785979,0.00066251,0.3808469,0.3450014,20.11147,20.11514,20.12,0,0,20.20071,5,4,0
46347,82763548,0.3809066,0.00556225,0.381668,0.3450014,20.11739,20.12001,20.13,0,0,20.20588,5,4,0
46436,82863508,0.3749252,0.00612512,0.3829448,0.3450014,20.12348,20.12552,20.13,0,0,20.21158,5,5,0
46525,82963468,0.379677,0.01614082,0.3872532,0.3450014,20.12946,20.13144,20.14,0,0,20.21786,5,5,0
46618,83063428,0.374738,0.01440591,0.389773,0.3450014,20.13507,20.13753,20.14,0,0,20.22432,5,5,0
46707,83163388,0.3777951,0.02259821,0.3935953,0.3450014,20.14036,20.14343,20.15,0,0,20.23065,4,5,0
46797,83263348,0.367996,0.01647642,0.3916128,0.3450014,20.14545,20.14938,20.16,0,0,20.23703,4,5,0
46888,83363308,0.3764973,0.02411184,0.3934523,0.3450014,20.15004,20.15518,20.16,0,0,20.24344,4,5,0
46978,83463268,0.3680015,0.01838726,0.3916002,0.3450014,20.1544,20.16086,20.17,0,0,20.24973,3,5,0
47070,83564061,0.3743643,0.02609122,0.3944049,0.3450014,20.15822,20.16599,20.17,0,0,20.25553,3,4,0
47159,83664021,0.3649039,0.02009645,0.3925809,0.3450014,20.16172,20.17088,20.18,0,0,20.26121,2,4,0
47248,83763981,0.3752575,0.02978456,0.3958859,0.3450014,20.16503,20.17535,20.18,0,0,20.26641,2,3,0
47337,83863941,0.3656384,0.02094585,0.3943547,0.3450014,20.16805,20.1794,20.19,0,0,20.27138,1,3,0
47426,83963901,0.3734035,0.02517286,0.3932807,0.3450014,20.17076,20.18306,20.19,0,0,20.27596,1,2,0
47519,84063861,0.3643479,0.01316825,0.3878127,0.3450014,20.17337,20.18642,20.19,0,0,20.28023,1,2,0
47608,84163821,0.3697987,0.013771,0.3829842,0.3450014,20.17562,20.18957,20.19,0,0,20.28436,0,2,0
47698,84263781,0.3648583,0.00536406,0.377957,0.3450014,20.17777,20.19227,20.21,0,0,20.28699,0,2,0
47789,84363741,0.3695019,0.00493652,0.3741355,0.3450014,20.17962,20.19447,20.21,0,0,20.28896,0,1,0
47879,84463701,0.3688433,0.00093505,0.3730562,0.3450014,20.18124,20.19597,20.21,0,0,20.29015,0,0,0
47971,84563661,0.3726285,0.00075167,0.3724476,0.3450014,20.1826,20.19676,20.21,0,0,20.29051,0,0,0
48060,84663621,0.3737874,0.00017861,0.3734685,0.3450014,20.18383,20.19686,20.21,0,0,20.2903,0,0,0
48150,84763581,0.3753238,0.00006774,0.3735377,0.3450014,20.18488,20.19643,20.21,0,0,20.28938,0,-1,0
48239,84863541,0.3757763,0.00030708,0.3750935,0.3450014,20.18577,20.19553,20.19,0,0,20.28806,0,-1,0
48328,84963501,0.3737023,0.00011146,0.3751768,0.3450014,20.18651,20.19438,20.19,0,0,20.28642,0,-1,0
48420,85063461,0.3759186,0.00052699,0.3764302,0.3450014,20.18712,20.19318,20.19,0,0,20.2848,0,-1,0
48509,85163421,0.3748403,0.00017783,0.3761707,0.3450014,20.18761,20.19196,20.19,0,0,20.28308,0,-1,0
48599,85263381,0.3762528,0.00083736,0.3771912,0.3450014,20.18803,20.1908,20.19,0,0,20.2815,0,-1,0
48690,85363341,0.3764487,0.00029853,0.3768352,0.3450014,20.18839,20.18972,20.19,0,0,20.27981,0,-1,0
48780,85463301,0.3754241,0.00106505,0.3776592,0.3450014,20.18869,20.18889,20.19,0,0,20.27855,0,0,0
48873,85563261,0.3743355,0.00044811,0.3760234,0.3450014,20.18893,20.18842,20.19,0,0,20.27753,0,0,0
48962,85664054,0.3741145,0.0012024,0.3767863,0.3450014,20.18912,20.18825,20.19,0,0,20.27693,0,0,0
49051,85764014,0.3757712,0.00047523,0.3765641,0.3450014,20.18929,20.18818,20.19,0,0,20.27637,0,0,0
49140,85863974,0.3767004,0.00149691,0.3773221,0.3450014,20.18942,20.18818,20.19,0,0,20.27595,0,0,0
49229,85963934,0.3738073,0.00055996,0.3769954,0.3450014,20.18952,20.1883,20.19,0,0,20.27558,0,0,0
49321,86063894,0.3761398,0.00154239,0.3775922,0.3450014,20.18962,20.1885,20.19,0,0,20.27535,0,0,0
49410,86163854,0.3742978,0.00058943,0.3763811,0.3450014,20.18968,20.18888,20.19,0,0,20.27531,0,0,0
49500,86263814,0.3743457,0.00153497,0.3765381,0.3450014,20.18973,20.18944,20.19,0,0,20.2755,0,0,0
49591,86363774,0.37447,0.00061858,0.3750989,0.3450014,20.18978,20.19015,20.19,0,0,20.27572,0,0,0
49681,86463734,0.3755039,0.00137302,0.3759548,0.3450014,20.18983,20.19092,20.19,0,0,20.27625,0,0,0
49774,86563694,0.3736803,0.0008485,0.3755777,0.3450014,20.18988,20.19157,20.19,0,0,20.27653,0,0,0
49863,86663654,0.3722923,0.00108409,0.3761723,0.3450014,20.18991,20.19213,20.19,0,0,20.27673,0,0,0
49953,86763614,0.3766939,0.00058165,0.3751857,0.3450014,20.18991,20.19271,20.19,0,0,20.277,0,0,0
50042,86863574,0.3738169,0.00101089,0.3756362,0.3450014,20.18991,20.1931,20.19,0,0,20.27714,0,0,0
50131,86963534,0.3743219,0.00051665,0.375482,0.3450014,20.18991,20.19335,20.19,0,0,20.27709,0,0,0
50222,87063494,0.3759517,0.00110739,0.3759317,0.3450014,20.18991,20.19349,20.19,0,0,20.27699,0,0,0
50312,87163454,0.3741785,0.00044379,0.3755351,0.3450014,20.18991,20.19349,20.19,0,0,20.27675,0,0,0
50402,87263414,0.3756806,0.00093299,0.3766418,0.3450014,20.18991,20.19337,20.19,0,0,20.27644,0,0,0
50494,87363374,0.3820987,0.0003151,0.3797507,0.3450014,20.19039,20.19345,20.19,0,0,20.27634,1,0,0
50583,87463334,0.3771765,0.00038314,0.3811614,0.3450014,20.19306,20.19493,20.19,0,0,20.27758,3,2,0
50675,87563294,0.3795178,0.00050735,0.3807259,0.3450014,20.19726,20.19777,20.19,0,0,20.28035,4,3,0
50765,87664087,0.3799784,0.00233352,0.3803612,0.3450014,20.20212,20.2016,20.19,0,0,20.28394,5,4,0
50854,87764047,0.3771749,0.00566593,0.3823841,0.3450014,20.20745,20.20599,20.21,0,0,20.28814,5,4,0
50943,87864007,0.3779571,0.00921017,0.3832937,0.3450014,20.21281,20.21099,20.21,0,0,20.2929,5,5,0
51032,87963967,0.3730285,0.0152249,0.3886628,0.3450014,20.21803,20.21618,20.21,0,0,20.29778,5,5,0
51123,88063927,0.3752943,0.01685208,0.3893583,0.3450014,20.22277,20.22159,20.21,0,0,20.30289,4,5,0
51213,88163887,0.36954,0.01984811,0.3940164,0.3450014,20.22746,20.22675,20.22,0,0,20.30762,4,5,0
51303,88263847,0.3716988,0.01882106,0.3905451,0.3450014,20.23173,20.23202,20.22,0,0,20.31234,4,5,0
51394,88363807,0.3698417,0.02155972,0.3932329,0.3450014,20.23569,20.237,20.23,0,0,20.31677,3,5,0
51484,88463767,0.3725905,0.0214968,0.3909273,0.3450014,20.23944,20.24196,20.25,0,0,20.32118,3,4,0
51576,88563727,0.3691716,0.02380145,0.3947251,0.3450014,20.24281,20.24639,20.25,0,0,20.32488,2,4,0
51666,88663687,0.3711095,0.0245983,0.3930248,0.3450014,20.2459,20.2506,20.25,0,0,20.32824,2,4,0
51755,88763647,0.3683802,0.02470717,0.3953686,0.3450014,20.2488,20.25454,20.26,0,0,20.33126,2,3,0
51844,88863607,0.3692726,0.02474973,0.3931141,0.3450014,20.25134,20.25817,20.26,0,0,20.33398,1,3,0
51933,88963567,0.3703507,0.02090201,0.3927045,0.3450014,20.25371,20.26134,20.26,0,0,20.33605,1,2,0
52024,89063527,0.3659599,0.01478055,0.3859192,0.3450014,20.25594,20.2644,20.26,0,0,20.33801,1,2,0
52114,89163487,0.3705595,0.01102483,0.3822528,0.3450014,20.25796,20.2669,20.27,0,0,20.33929,1,2,0
52204,89263447,0.3668429,0.00599623,0.3776573,0.3450014,20.25964,20.26902,20.27,0,0,20.34007,0,1,0
52295,89363407,0.3700368,0.00356662,0.3747934,0.3450014,20.26125,20.27048,20.27,0,0,20.34025,0,1,0
52385,89463367,0.3706659,0.00118363,0.3735656,0.3450014,20.26262,20.27134,20.27,0,0,20.3397,0,0,0
52477,89563327,0.3744299,0.00040358,0.3734429,0.3450014,20.2638,20.27142,20.27,0,0,20.33838,0,0,0
52567,89663287,0.3732634,0.0001862,0.3737763,0.3450014,20.26484,20.27102,20.26,0,0,20.33657,0,0,0
52656,89764080,0.3749781,0.00013807,0.3740589,0.3450014,20.26572,20.27015,20.26,0,0,20.3343,0,0,0
52745,89864040,0.3742317,0.00021669,0.3758503,0.3450014,20.26647,20.269,20.26,0,0,20.33174,0,-1,0
52834,89964000,0.3747831,0.00026032,0.3760091,0.3450014,20.26706,20.2675,20.26,0,0,20.32891,0,-1,0
52926,90063960,0.3749474,0.00034019,0.3770631,0.3450014,20.26756,20.26599,20.26,0,0,20.32611,0,-1,0
53016,90163920,0.3749365,0.00037128,0.3765028,0.3450014,20.26798,20.26446,20.26,0,0,20.3233,0,0,0
53106,90263880,0.3763624,0.00052676,0.3771727,0.3450014,20.26834,20.26331,20.25,0,0,20.32081,0,0,0
53197,90363840,0.3775599,0.00063378,0.3772367,0.3450014,20.26862,20.26225,20.25,0,0,20.31852,0,0,0
53286,90463800,0.3737884,0.00071093,0.3776065,0.3450014,20.26888,20.26144,20.25,0,0,20.31656,0,0,0
53378,90563760,0.3795586,0.00085074,0.3773002,0.3450014,20.26907,20.26079,20.25,0,0,20.31475,1,0,0
53468,90663720,0.3759562,0.00063878,0.3775257,0.3450014,20.26922,20.26039,20.25,0,0,20.31318,1,0,0
53557,90763680,0.3759585,0.00106078,0.3768408,0.3450014,20.26937,20.26011,20.25,0,0,20.31186,1,0,0
53646,90863640,0.3737309,0.00075382,0.3771109,0.3450014,20.26948,20.26025,20.25,0,0,20.31091,1,0,0
53735,90963600,0.3793442,0.00142241,0.3770086,0.3450014,20.26957,20.26053,20.25,0,0,20.31027,0,0,0
53827,91063560,0.3735516,0.00090837,0.3768752,0.3450014,20.26966,20.261,20.25,0,0,20.30977,0,0,0
53917,91163520,0.3774644,0.00111544,0.3758641,0.3450014,20.26971,20.26152,20.25,0,0,20.30949,0,0,0
54007,91263480,0.3746829,0.00095767,0.3768806,0.3450014,20.26976,20.26204,20.25,0,0,20.30916,0,0,0
54098,91363440,0.3743623,0.00112829,0.376072,0.3450014,20.26981,20.26246,20.26,0,0,20.30872,0,0,0
54187,91463400,0.3733279,0.00086588,0.3761575,0.3450014,20.26986,20.26309,20.26,0,0,20.30862,0,1,0
54279,91563360,0.3763832,0.00109503,0.3760061,0.3450014,20.2699,20.26373,20.26,0,0,20.3086,0,0,0
54369,91663320,0.3716568,0.00071606,0.3756395,0.3450014,20.26991,20.26452,20.26,0,0,20.30871,0,1,0
54458,91763280,0.3762086,0.00103778,0.3750888,0.3450014,20.26991,20.26525,20.26,0,0,20.30882,0,0,0
54548,91864073,0.3715684,0.00053084,0.3758003,0.3450014,20.26991,20.26591,20.26,0,0,20.30894,0,0,0
54637,91964033,0.3765797,0.00093192,0.3749998,0.3450014,20.26991,20.26642,20.26,0,0,20.30897,0,0,0
54728,92063993,0.3730972,0.0004932,0.3755369,0.3450014,20.26991,20.26687,20.26,0,0,20.30899,0,0,0
54818,92163953,0.3762005,0.00077301,0.3755876,0.3450014,20.26991,20.2671,20.26,0,0,20.30873,0,0,0
54909,92263913,0.3721423,0.00041285,0.3759108,0.3450014,20.26991,20.26729,20.26,0,0,20.30861,0,0,0
55003,92363873,0.355306,0.00046948,0.3651487,0.3450014,20.26862,20.26709,20.26,0,0,20.30798,-3,0,0
55092,92463833,0.364904,0.00013295,0.363835,0.3450014,20.26329,20.26439,20.26,0,0,20.30492,-7,-4,0
55184,92563793,0.3656202,0.00075155,0.365987,0.3450014,20.25517,20.25875,20.25,0,0,20.29904,-9,-6,0
55274,92663753,0.3712575,0.0032827,0.368565,0.3450014,20.24557,20.25103,20.23,0,0,20.29082,-10,-8,0
55363,92763713,0.3675157,0.00558442,0.3742321,0.3450014,20.23536,20.24217,20.22,0,0,20.28166,-10,-9,0
55452,92863673,0.3780419,0.01318604,0.3786829,0.3450014,20.22509,20.23236,20.21,0,0,20.2713,-10,-10,0
55541,92963633,0.368336,0.01398188,0.3855985,0.3450014,20.21506,20.22211,20.21,0,0,20.26044,-10,-10,0
55633,93063593,0.3801375,0.02127174,0.3897369,0.3450014,20.20548,20.21148,20.19,0,0,20.24908,-9,-10,0
55723,93163553,0.3682891,0.01766887,0.3929201,0.3450014,20.19644,20.20095,20.18,0,0,20.23763,-9,-9,0
55813,93263513,0.3782308,0.02286124,0.392667,0.3450014,20.18797,20.19093,20.17,0,0,20.22651,-8,-9,0
55904,93363473,0.3706971,0.01928478,0.3957984,0.3450014,20.18007,20.18117,20.16,0,0,20.21559,-7,-8,0
55993,93463433,0.3783214,0.0242832,0.3941577,0.3450014,20.17275,20.17214,20.15,0,0,20.20516,-6,-8,0
56085,93563393,0.370294,0.02094829,0.397336,0.3450014,20.16601,20.16364,20.14,0,0,20.19513,-6,-7,0
56175,93663353,0.377801,0.02788287,0.3969389,0.3450014,20.15978,20.15612,20.13,0,0,20.18596,-5,-6,0
56264,93763313,0.3689961,0.02357414,0.3999387,0.3450014,20.15406,20.14909,20.13,0,0,20.17705,-4,-5,0
56353,93863273,0.3757603,0.02949205,0.3983513,0.3450014,20.14882,20.14295,20.12,0,0,20.16889,-4,-4,0
56442,93964066,0.3703383,0.02042809,0.3985985,0.3450014,20.144,20.13729,20.12,0,0,20.16097,-3,-3,0
