LineNO,TimeUS,RDes,R,Rout,PDes,P,POut,YDes,Y,YOut,ADes,A,AOut,labels
1715,15363852,-0.08069889,0.00887738,-0.00022317,-0.03235057,0.0056875,-0.00009606,0.00000548,1.377302,-0.00217677,0.4767418,0.4767418,0,0
1797,15463812,-0.08039173,0.00957001,-0.00020084,-0.03315155,0.00859479,-0.00011687,0.00000742,1.358535,-0.00215137,0.4500389,0.4500389,0,0
1876,15563772,-0.08001221,0.00981927,-0.00021874,-0.03411065,0.00745455,-0.00010832,0.00000936,1.342084,-0.00212419,0.4587173,0.4587173,0,0
1955,15663732,-0.08003102,0.00855381,-0.00020224,-0.03406385,0.00438384,-0.00010161,0.0000084,1.32324,-0.0021003,0.5336761,0.5336761,0,0
2034,15763692,-0.07983949,0.01186255,-0.0002296,-0.03453669,0.01064557,-0.0001255,0.00000265,1.310079,-0.00207322,0.4595757,0.4595757,0,0
2115,15863652,-0.07965571,0.00958662,-0.0002013,-0.03498318,0.00758915,-0.00010641,0.00000458,1.294825,-0.00204786,0.4191399,0.4191399,0,0
2195,15963612,-0.07925896,0.00630736,-0.00019784,-0.03592439,0.00601332,-0.00010329,0.0000046,1.275593,-0.00202335,0.3722191,0.3722191,0,0
2275,16063572,-0.07914571,0.01384584,-0.00022974,-0.03618763,0.00418838,-0.00008692,0.0000123,1.261967,-0.00200022,0.4868507,0.4868507,0,0
2354,16163532,-0.1127584,0.0094183,-0.00030478,-0.05135643,0.00365458,-0.00014131,0.00001039,1.246326,-0.0019757,0.398159,0.398159,0,0
2435,16263492,-0.1122487,0.01165972,-0.0002983,-0.05250523,0.00778113,-0.00013781,0.00000848,1.23113,-0.00195316,0.3246307,0.3246307,0,0
2517,16363452,-0.1120266,0.0094358,-0.00029512,-0.05299636,0.00681399,-0.0001654,0.00000657,1.223944,-0.00193456,0.4469872,0.4469872,0,0
2597,16463412,-0.1116569,0.00763247,-0.00028175,-0.05380171,0.00388671,-0.00012523,0.00000658,1.207245,-0.00191127,0.3354073,0.3354073,0,0
2676,16563372,-0.1117031,0.00564574,-0.00027131,-0.05370197,0.00199432,-0.00011731,0.00001235,1.196426,-0.00189225,0.3412247,0.3412247,0,0
2755,16663332,-0.1116066,0.0082562,-0.00028086,-0.05391013,0.00250772,-0.00011535,0.00001044,1.178667,-0.00186635,0.3429413,0.3429413,0,0
2834,16763292,-0.1118349,0.00862764,-0.00027279,-0.05341577,0.00543532,-0.00013603,0.00001045,1.161148,-0.00184484,0.2384186,0.2384186,0,0
2915,16864085,-0.1114916,0.00877189,-0.00029041,-0.054157,0.00222627,-0.00010938,0.00001046,1.148236,-0.00182001,0.3522873,0.3522873,0,0
2995,16964045,-0.1112197,0.01150406,-0.00029497,-0.05473536,0.0075134,-0.00014854,0.00001432,1.133685,-0.00179727,0.2922058,0.2922058,0,0
3075,17064005,-0.1108004,0.00900737,-0.0002779,-0.05561252,0.00803854,-0.00015112,0.00001242,1.119201,-0.00177576,0.3472328,0.3472328,0,0
3154,17163965,-0.1109628,0.01080268,-0.00028281,-0.05527474,0.00169562,-0.00011598,0.00001435,1.098073,-0.00175322,0.2551079,0.2551079,0,0
3236,17263925,-0.1108145,0.01007382,-0.00027292,-0.05558332,0.00480674,-0.00013473,0.00001244,1.090247,-0.00173004,0.3649712,0.3649712,0,0
3318,17363885,-0.1108707,0.00822809,-0.00027442,-0.05546652,0.00515877,-0.00013164,0.00000861,1.073496,-0.00170959,0.2804756,0.2804756,0,0
3398,17463845,-0.1106946,0.0089551,-0.00026956,-0.05583092,0.00892575,-0.00016537,0.00001439,1.06538,-0.00168783,0.3641129,0.3641129,0,0
3477,17563805,-0.1105803,0.01037664,-0.00029599,-0.056066,0.0055548,-0.00014559,0.00001248,1.047486,-0.0016679,0.3110886,0.3110886,0,0
3556,17663765,-0.1101144,0.00734567,-0.00027112,-0.05701125,0.0078521,-0.00016283,0.00001442,1.040813,-0.00164974,0.3264427,0.3264427,0,0
3635,17763725,-0.1096623,0.01038312,-0.00027869,-0.05790975,0.00822074,-0.00015405,0.00001828,1.026272,-0.00162977,0.3138542,0.3138542,0,0
3716,17863685,-0.1094039,0.00984049,-0.00028675,-0.05841544,0.00476858,-0.00014399,0.00001253,1.014233,-0.00161191,0.3134727,0.3134727,0,0
3796,17963645,-0.1094782,0.0131138,-0.00029418,-0.05827063,0.00859113,-0.00016997,0.00001254,1.001769,-0.00158679,0.2337456,0.2337456,0,0
3876,18063605,-0.1094562,0.01162642,-0.00029308,-0.05831355,0.00845386,-0.00015776,0.00001448,0.9927832,-0.00156959,0.3382683,0.3382683,0,0
3955,18163565,-0.1093442,0.00838549,-0.00026773,-0.05853133,0.00867435,-0.000161,0.00001449,0.9788868,-0.00155379,0.1097679,0.1097679,0,0
4036,18263525,-0.10917,0.01186762,-0.00029069,-0.0588684,0.00666174,-0.00015252,0.00001451,0.9720154,-0.00153424,0.2581596,0.2581596,0,0
4118,18363485,-0.1343024,0.01418168,-0.00035561,-0.07186515,0.00354791,-0.00017607,0.00001453,0.9523677,-0.00151709,0.2662659,0.2662659,0,0
4198,18463445,-0.1336644,0.00875012,-0.00034631,-0.07308203,0.00354682,-0.00016084,0.00001455,0.9468825,-0.00150112,0.179863,0.179863,0,0
4277,18563405,-0.1336974,0.01489729,-0.00035754,-0.07301976,0.00518978,-0.00017054,0.00001841,0.9375953,-0.00148514,0.1656532,0.1656532,0,0
4362,18663365,-0.133052,0.01367931,-0.00035826,-0.07422582,0.01056348,-0.00021235,0.00001652,0.9225561,-0.00146963,0.1746178,0.1746178,0,0
4441,18763325,-0.132916,0.01203344,-0.00034964,-0.07447671,0.00725449,-0.00020076,0.00001653,0.914205,-0.0014513,0.256443,0.256443,0,0
4522,18863285,-0.1329924,0.01255076,-0.00034726,-0.07433589,0.00360353,-0.00017887,0.00001655,0.900882,-0.00143307,0.07143021,0.07143021,0,0
4602,18964078,-0.1332564,0.0126566,-0.00034688,-0.07384659,0.00360372,-0.00017436,0.0000204,0.8917058,-0.00141449,0.1678467,0.1678467,0,0
4682,19064038,-0.1332252,0.00901744,-0.00034563,-0.07390461,0.0047094,-0.00018561,0.00002233,0.8813621,-0.00140029,0.1951218,0.1951218,0,0
4761,19163998,-0.133229,0.01107182,-0.00033223,-0.0738976,0.00649373,-0.00019593,0.00002234,0.8728319,-0.00138066,0.1219749,0.1219749,0,0
4842,19263958,-0.1330816,0.00559803,-0.00031591,-0.07417099,0.00964502,-0.00021557,0.00001851,0.8609253,-0.00136462,0.1367569,0.1367569,0,0
4924,19363918,-0.1335242,0.00826563,-0.00032158,-0.07334592,0.00355877,-0.00017873,0.00001852,0.8531575,-0.00134829,0.2651215,0.2651215,0,0
5004,19463878,-0.1331727,0.00816579,-0.00033114,-0.07400228,0.00897472,-0.00019682,0.00002046,0.8392984,-0.00133358,0.1826286,0.1826286,0,0
5083,19563838,-0.1330596,0.00842096,-0.00032645,-0.07421172,0.008731,-0.00019933,0.00002144,0.8313004,-0.00132023,0.2593994,0.2593994,0,0
5162,19663798,-0.13319,0.01139557,-0.00035055,-0.07397015,0.00664339,-0.00018311,0.00002337,0.8234113,-0.00130641,0.2491951,0.2491951,0,0
5241,19763758,-0.1537823,0.00940306,-0.00040469,-0.08603519,0.00831751,-0.00022767,0.00002627,0.8109285,-0.00129169,0.2425194,0.2425194,0,0
5322,19863718,-0.1538485,0.01674932,-0.00041484,-0.08591347,0.00085784,-0.00018494,0.0000234,0.8058452,-0.00127569,0.2454758,0.2454758,0,0
5403,19963678,-0.1537871,0.01091763,-0.00038384,-0.08602623,0.00623984,-0.00020523,0.00002342,0.7953894,-0.00126141,0.1280785,0.1280785,0,0
5483,20063638,-0.1537199,0.01193784,-0.00039585,-0.08614953,0.0098237,-0.00024095,0.0000244,0.7879831,-0.00124642,0.108242,0.108242,0,0
5562,20163598,-0.1540124,0.01117508,-0.00037132,-0.08561123,0.00637692,-0.00021438,0.00002633,0.779866,-0.00123438,0.112915,0.112915,0,0
5643,20263558,-0.1536731,0.01134925,-0.00038088,-0.08623526,0.00985088,-0.00022459,0.00002539,0.7743964,-0.00122207,0.09479523,0.09479523,0,0
5725,20363518,-0.1537146,0.01352806,-0.00041138,-0.08615918,0.0072968,-0.00022932,0.00002636,0.7630136,-0.00120765,0.1160622,0.1160622,0,0
5805,20463478,-0.1534695,0.00948555,-0.00038756,-0.08660695,0.00598536,-0.00022014,0.00002444,0.7558488,-0.00119445,0.1425743,0.1425743,0,0
5884,20563438,-0.1530455,0.00958574,-0.00038014,-0.08737413,0.01053419,-0.00024396,0.00003119,0.740159,-0.00117947,0.2184868,0.2184868,0,0
5963,20663398,-0.1529976,0.00919789,-0.00038159,-0.08746023,0.00635768,-0.00022206,0.00002832,0.7404664,-0.00116851,0.1162529,0.1162529,0,0
6042,20763358,-0.1525929,0.01548243,-0.00040141,-0.08818337,0.01285681,-0.00025547,0.00002834,0.7279763,-0.00115511,0.2103806,0.2103806,0,0
6123,20863318,-0.1523382,0.00680994,-0.00035233,-0.08863463,0.00920736,-0.00025518,0.00003028,0.7208039,-0.001143,0.09727478,0.09727478,0,0
6203,20963278,-0.1524222,0.00812511,-0.00035783,-0.08848622,0.00775028,-0.00023084,0.0000303,0.7170792,-0.00113206,0.04253387,0.04253387,0,0
6283,21064071,-0.1705388,0.01404128,-0.00045342,-0.09914128,0.00671155,-0.00024588,0.00002935,0.7090847,-0.00111841,0.06656647,0.06656647,0,0
6362,21164031,-0.1704916,0.01610656,-0.0004578,-0.09922436,0.00801183,-0.00025399,0.00003225,0.7012638,-0.00110818,0.1483917,0.1483917,0,0
6443,21263991,-0.1706292,0.01671912,-0.0004543,-0.09898175,0.00935165,-0.00026229,0.00003034,0.6906052,-0.00109445,-0.0582695,-0.0582695,0,0
6525,21363951,-0.1702136,0.0101089,-0.00042594,-0.09971201,0.00845573,-0.00024021,0.00003421,0.6853364,-0.0010836,0.1983643,0.1983643,0,0
6605,21463911,-0.170093,0.01073658,-0.00042585,-0.09992258,0.00599025,-0.00025683,0.00003422,0.6802428,-0.00107286,0.1468658,0.1468658,0,0
6684,21563871,-0.1700025,0.01000368,-0.00041461,-0.1000801,0.0049768,-0.00024356,0.00003231,0.6698062,-0.0010597,0.02059937,0.02059937,0,0
6763,21663831,-0.1698544,0.0065505,-0.00041629,-0.1003372,0.00495199,-0.00024436,0.0000352,0.6621836,-0.00104915,0.1600266,0.1600266,0,0
6842,21763791,-0.1698464,0.01446549,-0.0004414,-0.1003511,0.00473066,-0.00022839,0.00003714,0.6502039,-0.00103516,0.03900528,0.03900528,0,0
6923,21863751,-0.1696598,0.01347776,-0.00043968,-0.1006739,0.00933305,-0.00025917,0.00003524,0.6475389,-0.00102853,0.1092911,0.1092911,0,0
7003,21963711,-0.1696997,0.01353418,-0.00042642,-0.1006049,0.0086256,-0.00025892,0.0000391,0.6399328,-0.00101591,0.1042366,0.1042366,0,0
7082,22063671,-0.1859821,0.00968398,-0.00048322,-0.1103997,0.0100268,-0.00030654,0.00003432,0.636599,-0.00100477,0.106144,0.106144,0,0
7162,22163631,-0.1855766,0.01035772,-0.00045897,-0.1110949,0.00960053,-0.00028299,0.00004107,0.6305006,-0.00099542,0.1899719,0.1899719,0,0
7243,22263591,-0.1853402,0.01393979,-0.00047195,-0.1114974,0.00508215,-0.00026499,0.00004108,0.6225796,-0.00098592,0.02737045,0.02737045,0,0
7326,22363551,-0.1849077,0.01112022,-0.00045808,-0.1122287,0.00956183,-0.00029786,0.00004398,0.6136696,-0.00097526,0.170517,0.170517,0,0
7406,22463511,-0.1851272,0.0064769,-0.00043874,-0.1118584,0.00778358,-0.0002936,0.00004014,0.6130979,-0.00096816,0.02088547,0.02088547,0,0
7485,22563471,-0.1848716,0.01006604,-0.00045962,-0.1122896,0.00811323,-0.00028014,0.00004017,0.6095226,-0.00095943,0.1188278,0.1188278,0,0
7564,22663431,-0.1846666,0.01291546,-0.00047193,-0.1126336,0.00941704,-0.00029898,0.00003922,0.5968555,-0.00094831,-0.00190735,-0.00190735,0,0
7643,22763391,-0.1842992,0.00864743,-0.0004465,-0.1132469,0.00482212,-0.0002659,0.00004404,0.594286,-0.00093887,-0.00772476,-0.00772476,0,0
7724,22863351,-0.1843764,0.00679947,-0.00043813,-0.1131186,-0.00124034,-0.00025349,0.00004597,0.5876014,-0.00093086,0.06008148,0.06008148,0,0
7803,22963311,-0.184095,0.01558213,-0.00048202,-0.1135859,0.00831297,-0.00027514,0.00004407,0.5857902,-0.00092171,0.00276566,0.00276566,0,0
7883,23063271,-0.1838637,0.01013909,-0.00044889,-0.1139681,0.01092892,-0.00030988,0.00004504,0.5751234,-0.00091242,0.02889633,0.02889633,0,0
7963,23164064,-0.1983382,0.01586849,-0.00054518,-0.12379,0.01122363,-0.00033552,0.00004603,0.5681159,-0.00090143,-0.03185272,-0.03185272,0,0
8044,23264024,-0.1982495,0.01545531,-0.00053498,-0.1239348,0.00301201,-0.00030069,0.00004604,0.5727735,-0.00089546,-0.00667572,-0.00667572,0,0
8126,23363984,-0.197711,0.01192383,-0.00048654,-0.1248094,0.00524612,-0.00029817,0.00004895,0.5570107,-0.0008837,0.0705719,0.0705719,0,0
8205,23463944,-0.1969982,0.01191918,-0.00050195,-0.1259539,0.00861821,-0.00030548,0.00004801,0.5498662,-0.00087677,0.03414154,0.03414154,0,0
8285,23563904,-0.1966394,0.00996083,-0.00046625,-0.1265247,0.0101765,-0.00032577,0.00004707,0.5535074,-0.00086746,0.1409531,0.1409531,0,0
8364,23663864,-0.1963869,0.01661436,-0.00050629,-0.126924,0.00831243,-0.00031878,0.00004997,0.5379621,-0.00085878,0.2346039,0.2346039,0,0
8443,23763824,-0.1960995,0.01389918,-0.00051135,-0.1273765,0.00486802,-0.00029722,0.00005095,0.5415524,-0.00085083,0.05712509,0.05712509,0,0
8524,23863784,-0.1957957,0.01123161,-0.0004783,-0.1278524,0.01267085,-0.00033999,0.00005385,0.5333512,-0.0008438,0.09593964,0.09593964,0,0
8603,23963744,-0.1957275,0.01316052,-0.00048367,-0.1279589,0.00741389,-0.00031017,0.00005195,0.5261731,-0.00083323,0.1455307,0.1455307,0,0
8683,24063704,-0.1962533,0.01114345,-0.00048361,-0.1271347,0.00791651,-0.0003255,0.00005579,0.5228453,-0.00082602,0.1213074,0.1213074,0,0
8763,24163664,-0.2098408,0.01169292,-0.00050036,-0.1360729,0.01068369,-0.00034308,0.00005485,0.5172148,-0.00081911,0.1395226,0.1395226,0,0
8844,24263624,-0.2096851,0.01270286,-0.00052965,-0.1363172,0.01133875,-0.00036693,0.0000539,0.5119165,-0.00081189,-0.01373291,-0.01373291,0,0
8926,24363584,-0.2094619,0.014133,-0.00052727,-0.1366665,0.00899265,-0.00034348,0.0000568,0.5088399,-0.00080423,0.1157761,0.1157761,0,0
9005,24463544,-0.2085532,0.00936498,-0.00049793,-0.1380751,0.01214079,-0.00036168,0.00005875,0.5053636,-0.00079566,0.1019478,0.1019478,0,0
9085,24563504,-0.2084088,0.01409596,-0.00053144,-0.1382969,0.01091697,-0.00035406,0.00005589,0.4941691,-0.00078853,0.06217957,0.06217957,0,0
9164,24663464,-0.2088886,0.01417863,-0.00052068,-0.1375575,0.00372534,-0.00032038,0.00006262,0.4954004,-0.00078296,0.03318787,0.03318787,0,0
9243,24763424,-0.2085847,0.00922093,-0.0005033,-0.1380266,0.00845016,-0.00033779,0.00005975,0.4937063,-0.00077877,0.109005,0.109005,0,0
9324,24863384,-0.2086076,0.01336439,-0.00053384,-0.1379912,0.00297305,-0.00032055,0.00006072,0.4841537,-0.00076883,0.06923676,0.06923676,0,0
9403,24963344,-0.2081065,0.01184578,-0.00050967,-0.13876,0.00981643,-0.0003489,0.00006555,0.4792316,-0.00076027,0.1524925,0.1524925,0,0
9484,25063304,-0.2210054,0.01651621,-0.00059714,-0.146942,0.00938304,-0.00037999,0.00006267,0.4797747,-0.00075313,-0.05903244,-0.05903244,0,0
9564,25163264,-0.2208517,0.01202589,-0.00054011,-0.1471769,0.01028128,-0.00038445,0.00006558,0.4734723,-0.00074812,0.02841949,0.02841949,0,0
9645,25264057,-0.2201879,0.00927994,-0.00054409,-0.1481856,0.00947303,-0.00037352,0.00006463,0.4678727,-0.00074122,0.1157761,0.1157761,0,0
9727,25364017,-0.2205815,0.01224823,-0.00053472,-0.1475887,0.00817259,-0.0003628,0.00006465,0.4653604,-0.00073567,-0.04701614,-0.04701614,0,0
9806,25463977,-0.2199349,0.0121887,-0.00054253,-0.1485675,0.01210784,-0.00038296,0.00006371,0.4565781,-0.00072822,0.0544548,0.0544548,0,0
9886,25563937,-0.2195689,0.00966648,-0.00052678,-0.1491174,0.00524173,-0.00035977,0.00006853,0.4563951,-0.00072012,0.02202988,0.02202988,0,0
9965,25663897,-0.2195366,0.0096841,-0.00053401,-0.1491659,0.00627365,-0.00036132,0.00007046,0.4504894,-0.00071316,0.09613037,0.09613037,0,0
10044,25763857,-0.2190017,0.01131382,-0.00055124,-0.1499638,0.01124552,-0.00037175,0.00007143,0.4454359,-0.00070757,-0.0418663,-0.0418663,0,0
10125,25863817,-0.2188918,0.00799474,-0.00051944,-0.1501271,0.00401842,-0.00034946,0.00006952,0.4456384,-0.00070459,0.02622604,0.02622604,0,0
10204,25963777,-0.2186491,0.01260162,-0.00054447,-0.1504865,0.00790942,-0.00037537,0.00006954,0.4433154,-0.00069616,0.0292778,0.0292778,0,0
10284,26063737,-0.2306138,0.01250219,-0.00057123,-0.1585819,0.00334156,-0.00036615,0.00006859,0.437517,-0.00069127,0.03480911,0.03480911,0,0
10364,26163697,-0.2302904,0.01088187,-0.00056192,-0.1590591,0.00971561,-0.00039311,0.00006957,0.4308186,-0.00068354,0.01916885,0.01916885,0,0
10445,26263657,-0.2299176,0.01226028,-0.00057058,-0.1596066,0.01299207,-0.00041672,0.00007054,0.4303824,-0.00067675,0.02317429,0.02317429,0,0
10527,26363617,-0.2296349,0.01228048,-0.00056906,-0.1600198,0.01000889,-0.0004081,0.00007344,0.4258745,-0.00067215,-0.03709793,-0.03709793,0,0
10606,26463577,-0.2297237,0.01213219,-0.00055927,-0.1598901,0.00851094,-0.00039772,0.00007153,0.4204716,-0.00066657,0.07963181,0.07963181,0,0
10686,26563537,-0.2292639,0.01258165,-0.0005595,-0.1605596,0.00621051,-0.00037863,0.00007347,0.4204594,-0.00066265,0.08239746,0.08239746,0,0
10765,26663497,-0.2289592,0.01634505,-0.0005879,-0.1610012,0.00789171,-0.00038739,0.00007636,0.4168222,-0.00065777,-0.04892349,-0.04892349,0,0
10844,26763457,-0.228233,0.01460131,-0.00058041,-0.1620462,0.01411155,-0.0004193,0.00007735,0.4138812,-0.00065218,0.07190704,0.07190704,0,0
10925,26863417,-0.227684,0.01182641,-0.00055825,-0.1628296,0.00985002,-0.00040287,0.00007737,0.4062202,-0.00064517,0.1008034,0.1008034,0,0
11004,26963377,-0.2393422,0.01538093,-0.00061867,-0.170136,0.01178325,-0.00044854,0.00007642,0.4090138,-0.00064203,0.01144409,0.01144409,0,0
11084,27063337,-0.2387767,0.01546031,-0.00061084,-0.1709414,0.01034078,-0.00042691,0.00008124,0.4010029,-0.00063767,-0.123024,-0.123024,0,0
11164,27163297,-0.2386933,0.01047173,-0.00058621,-0.1710597,0.00944374,-0.00043436,0.00007837,0.4075631,-0.00063158,0.1047134,0.1047134,0,0
11245,27264090,-0.2381476,0.01063665,-0.00057686,-0.1718307,0.00950539,-0.00042022,0.00008223,0.3980038,-0.00062669,-0.01573563,-0.01573563,0,0
11327,27364050,-0.2376951,0.01403928,-0.00059507,-0.172466,0.00800146,-0.00041535,0.00008129,0.3923631,-0.00062212,0.05636215,0.05636215,0,0
11406,27464010,-0.2376086,0.01369658,-0.00058947,-0.1725872,0.0101723,-0.00043785,0.00008226,0.3919842,-0.00061672,-0.03471375,-0.03471375,0,0
11486,27563970,-0.2374524,0.01067762,-0.00058021,-0.1728054,0.0109585,-0.00043977,0.00008227,0.3814923,-0.00060813,-0.04281998,-0.04281998,0,0
11565,27663930,-0.237777,0.01533931,-0.00059877,-0.1723514,0.00805973,-0.00043275,0.00008516,0.383594,-0.00060266,0.1409531,0.1409531,0,0
11644,27763890,-0.2372294,0.00849493,-0.00055854,-0.1731164,0.00964705,-0.00043696,0.00008518,0.3798441,-0.000598,0.03871918,0.03871918,0,0
11725,27863850,-0.2374635,0.01653617,-0.00059602,-0.1727899,0.00820981,-0.00042071,0.00008423,0.3788411,-0.00059564,0.0626564,0.0626564,0,0
11804,27963810,-0.2480482,0.01437483,-0.00061671,-0.180558,0.00897725,-0.00045329,0.00008521,0.3734744,-0.00059057,0.03843307,0.03843307,0,0
11884,28063770,-0.2478655,0.01390963,-0.0006266,-0.1808126,0.01290653,-0.00047268,0.00008714,0.3740676,-0.00058823,0.01411438,0.01411438,0,0
11964,28163730,-0.2478029,0.01473875,-0.00061624,-0.1808997,0.00830826,-0.00044229,0.00008715,0.3678535,-0.00058039,-0.02040863,-0.02040863,0,0
12045,28263690,-0.2477639,0.01234553,-0.00060414,-0.1809539,0.00993346,-0.00044255,0.00008621,0.367328,-0.00057692,0.01926422,0.01926422,0,0
12127,28363650,-0.2473611,0.01435695,-0.00063108,-0.1815124,0.01116549,-0.00046692,0.00008718,0.362238,-0.00057364,0.05712509,0.05712509,0,0
12206,28463610,-0.2474243,0.0164459,-0.00062058,-0.1814251,0.01068477,-0.00046779,0.00007663,0.3616333,-0.00056872,0.03051758,0.03051758,0,0
12286,28563570,-0.2467059,0.01356383,-0.00060954,-0.1824156,0.01710948,-0.00047086,0.00006417,0.3603296,-0.00056536,0.04796982,0.04796982,0,0
12365,28663530,-0.2465842,0.0140375,-0.0006271,-0.1825826,0.00937275,-0.00046139,0.00009106,0.3532397,-0.00055865,0.01153946,0.01153946,0,0
12444,28763490,-0.2465731,0.01523581,-0.00061815,-0.1825979,0.01075984,-0.00045557,0.00009396,0.3479398,-0.0005544,-0.00286102,-0.00286102,0,0
12525,28863450,-0.2565308,0.01577016,-0.00065178,-0.1903134,0.01120966,-0.00047979,0.00009494,0.3453623,-0.00054738,0.01955032,0.01955032,0,0
12604,28963410,-0.2565617,0.01510521,-0.0006483,-0.1902712,0.00982683,-0.00048003,0.00009399,0.3428045,-0.00054165,-0.02422333,-0.02422333,0,0
12684,29063370,-0.2563821,0.01429766,-0.00063249,-0.1905165,0.00748914,-0.00045313,0.00009303,0.3458571,-0.00054098,-0.01831055,-0.01831055,0,0
12764,29163330,-0.2558117,0.00996301,-0.00063606,-0.1912932,0.00816516,-0.00047333,0.00009496,0.3402891,-0.00053737,-0.1095772,-0.1095772,0,0
12845,29263290,-0.2559688,0.01105663,-0.00062341,-0.1910797,0.00698306,-0.00045433,0.00009497,0.3397665,-0.0005336,-0.00543594,-0.00543594,0,0
12927,29364083,-0.2563233,0.01407096,-0.0006301,-0.1905969,0.01250843,-0.00049407,0.0000969,0.3375339,-0.00052677,0.1400948,0.1400948,0,0
13006,29464043,-0.2556753,0.01234503,-0.00062285,-0.1914781,0.01305974,-0.00048816,0.00009789,0.3318839,-0.00052551,0.04825592,0.04825592,0,0
13086,29564003,-0.2555128,0.01723986,-0.00065774,-0.191698,0.01668361,-0.00050267,0.00009887,0.3323592,-0.00052095,0.07343292,0.07343292,0,0
13165,29663963,-0.2554173,0.01256212,-0.00061962,-0.1918271,0.01231203,-0.00048038,0.00009985,0.3270797,-0.00051619,0.01039505,0.01039505,0,0
13287,45963274,-0.3666902,0.01834328,-0.00091013,-0.319287,0.01154002,-0.00076408,0.00023208,0.1340054,-0.00020952,-0.05636215,-0.05636215,0,0
13369,46064067,-0.3613032,0.0169708,-0.00087893,-0.3129823,0.01401779,-0.00077823,0.0002277,0.1332293,-0.00020681,0.1466751,0.1466751,0,0
13449,46164027,-0.3615976,0.02201063,-0.00091975,-0.3126387,0.01328861,-0.00076424,0.00021995,0.13265,-0.00020537,0.02708435,0.02708435,0,0
13535,46263987,-0.3557571,0.01918583,-0.0008906,-0.3066391,0.01418744,-0.00075522,0.0002151,0.1329968,-0.00020934,-0.03671646,-0.03671646,0,0
13618,46363947,-0.3489977,0.01890848,-0.00086346,-0.3014835,0.01131187,-0.00072526,0.00020928,0.1293215,-0.00020624,0.03490448,0.03490448,0,0
13702,46463907,-0.3488033,0.01593512,-0.0008676,-0.3017107,0.01415178,-0.00074388,0.00020588,0.1328997,-0.00020841,0.0544548,0.0544548,0,0
13789,46563867,-0.3423309,0.02110457,-0.00086925,-0.295975,0.01404738,-0.00073196,0.00020248,0.1301956,-0.00020534,0.07753372,0.07753372,0,0
13874,46663827,-0.3430371,0.01912047,-0.00085651,-0.2951476,0.01264417,-0.0007411,0.00020005,0.1304321,-0.00020343,0.08516312,0.08516312,0,0
13960,46763787,-0.3428628,0.01810853,-0.00085185,-0.2953521,0.0170484,-0.00075755,0.00019764,0.1265924,-0.00019924,0.02202988,0.02202988,0,0
14045,46863747,-0.342853,0.01963069,-0.00085343,-0.2953637,0.01178521,-0.00071293,0.0001986,0.1304103,-0.00020266,0.04110336,0.04110336,0,0
14130,46963707,-0.3429705,0.01880143,-0.00084048,-0.2952258,0.01163774,-0.00071522,0.00019909,0.1308174,-0.00020275,0.08926392,0.08926392,0,0
14217,47063667,-0.3427188,0.01755253,-0.00084174,-0.295521,0.01694177,-0.00073815,0.00020344,0.1302114,-0.00020386,0.02613068,0.02613068,0,0
14303,47163627,-0.3489638,0.0148566,-0.00086771,-0.3015231,0.01643689,-0.00076119,0.00020732,0.1232961,-0.0002013,0.0371933,0.0371933,0,0
14391,47263587,-0.3494806,0.01723823,-0.00085793,-0.3009178,0.0111282,-0.00073512,0.00021072,0.1282214,-0.00019894,0.1216888,0.1216888,0,0
14476,47363547,-0.3561588,0.01645134,-0.00087633,-0.3061678,0.01456948,-0.00076528,0.00021653,0.1262247,-0.00019935,0.0202179,0.0202179,0,0
14562,47463507,-0.3621007,0.02180615,-0.00091996,-0.31205,0.01727767,-0.00078411,0.00022237,0.126983,-0.00019952,-0.00429153,-0.00429153,0,0
14649,47563467,-0.3678734,0.01641046,-0.00090076,-0.3179096,0.01332332,-0.00078539,0.0002282,0.1242291,-0.00019706,0.01277924,0.01277924,0,0
14734,47663427,-0.3736092,0.01705467,-0.00093151,-0.3236026,0.0148609,-0.00080013,0.00023692,0.1213408,-0.00019456,-0.01802444,-0.01802444,0,0
14820,47763387,-0.3788245,0.01987914,-0.00096755,-0.3297014,0.01600477,-0.00081764,0.00024517,0.1259933,-0.00019542,-0.03242493,-0.03242493,0,0
14905,47863347,-0.3841983,0.02025448,-0.00096249,-0.3354247,0.01474113,-0.00081391,0.00025438,0.1267403,-0.00019544,-0.0369072,-0.0369072,0,0
14991,47963307,-0.3894803,0.01715846,-0.00094415,-0.3410727,0.01587495,-0.00084202,0.00026071,0.123783,-0.00019323,0.0328064,0.0328064,0,0
15082,48063267,-0.3945052,0.01778955,-0.00097451,-0.346843,0.01811752,-0.00085513,0.00027135,0.1267859,-0.0001942,-0.0371933,-0.0371933,0,0
15172,48164060,-0.3996856,0.01623238,-0.00097148,-0.3522689,0.01323882,-0.00084732,0.00028056,0.1195488,-0.00019272,0.04930496,0.04930496,0,0
15264,48264020,-0.4102853,0.01613604,-0.00100943,-0.3623815,0.01806183,-0.00091032,0.00029074,0.121807,-0.00019412,0.0992775,0.0992775,0,0
15353,48363980,-0.4153391,0.02203891,-0.00103853,-0.3674989,0.01715428,-0.00091594,0.00030092,0.1221598,-0.00019085,0.0579834,0.0579834,0,0
15444,48463940,-0.2866537,0.01916881,-0.00075815,-0.2371855,0.01453458,-0.00061307,0.01104114,0.1198512,-0.00018663,0.2126833,-0.1179695,0.00000682,0
15535,48563900,-0.2495392,0.01985,-0.0007502,-0.2039988,0.01620063,-0.00061943,0.02768805,0.118024,-0.00016518,4.485948,-0.02746582,0.00070707,0
15624,48663860,-0.3450068,0.01838643,-0.00105514,-0.294977,0.01438854,-0.00089858,0.04348835,0.1206914,-0.0001423,15.52708,-0.02202988,0.00400587,0
15714,48763820,-0.3509555,0.01776738,-0.00116874,-0.3013237,0.0162846,-0.00099352,0.05877271,0.1196766,-0.00012009,32.09789,0.01907349,0.01111456,0
15803,48863780,-0.3567818,0.01888241,-0.00126535,-0.3075665,0.01493389,-0.00106173,0.07434041,0.1198857,-0.00009666,53.07001,0.0538826,0.02216027,0
15892,48963740,-0.368696,0.01949918,-0.00138469,-0.3190658,0.01372017,-0.00117425,0.08993934,0.1165728,-0.00007218,78.38965,0.08745193,0.03743936,0
15983,49063700,-0.3747768,0.02042127,-0.00147138,-0.3243559,0.01583174,-0.00125074,0.1050691,0.1183403,-0.00004901,107.8899,-0.03452301,0.05725285,0
16073,49163660,-0.3805094,0.01904821,-0.00159397,-0.3298509,0.01754556,-0.00138393,0.1205426,0.1167784,-0.0000234,141.3691,0.0702858,0.08192669,0
16165,49263620,-0.5003145,0.02198969,-0.00201159,-0.4503315,0.01787495,-0.00176591,0.1362793,0.1164738,0.00000165,178.5749,0.01478195,0.1117331,0
16254,49363580,-0.4417332,0.0182105,-0.00189058,-0.3918632,0.01612583,-0.00165725,0.1513424,0.120002,0.00002527,219.3569,-0.02040863,0.1470126,0
16344,49463540,-0.4512669,0.01652084,-0.00208309,-0.4011141,0.01710355,-0.00185852,0.1672333,0.1151721,0.00005261,263.4448,-0.00534058,0.1879625,0
16435,49563500,-0.2453233,0.01851378,-0.00133745,-0.4560009,0.01690967,-0.00204043,0.1827553,0.1155027,0.00007664,310.6466,0.02298355,0.2348568,0
16524,49663460,-0.4491799,0.01862022,-0.00213547,-0.4586062,0.01527922,-0.00220636,0.1981291,0.1178506,0.00010172,360.3176,-0.050354,0.2878429,0
16614,49763420,-0.5348005,0.0204604,-0.00268002,-0.5744105,0.01490332,-0.00265225,0.2144102,0.1161542,0.00012881,410.8401,0.04339218,0.3467088,0
16703,49863380,-1.234054,0.01978824,-0.00463431,-1.086607,0.02026409,-0.00414393,0.2304899,0.1159019,0.00015726,455.866,65.29083,0.4049085,0
16792,49963340,-1.067829,0.02222877,-0.00439507,-0.6542131,0.02068157,-0.0029791,0.2457957,0.1169094,0.00018353,464.3186,95.94278,0.4325387,0
16883,50063300,-1.013737,0.01583605,-0.00447241,-0.4754351,0.01725224,-0.00240158,0.2620595,0.1113318,0.00021277,458.1885,92.5992,0.4632016,0
16973,50163260,-1.254521,0.02240139,-0.0054036,-1.038519,0.01624251,-0.00451475,0.2791486,0.116176,0.00024144,449.3752,86.35072,0.497627,0
17065,50264053,-0.6215729,0.02092308,-0.00388616,-1.379723,0.02229142,-0.00581994,0.2980811,0.1123262,0.00027277,440.5243,81.02121,0.5327137,0
17154,50364013,-1.300229,-1.322922,0.00182342,-1.382444,-2.982698,0.00636506,0.3107576,0.1297295,0.00029717,421.4493,326.4893,0.5581846,0
17244,50463973,-0.2946565,2.650306,-0.03167368,-0.02255086,1.853689,-0.00507256,0.3055226,0.1805111,0.00025364,227.3456,472.7391,0.3956084,0
17335,50563933,2.617253,-22.00188,0.09666614,0.4709906,12.16911,-0.130051,0.3007538,0.244986,0.00017021,39.94419,182.8599,0.3180688,0
17424,50663893,-2.072796,13.06831,0.2385188,8.410612,-118.9642,0.701246,0.5728338,0.4755155,0.00010572,-29.83965,30.4841,0.3318433,0
17514,50763853,7.573888,-15.63644,-0.3175041,-2.162975,137.3698,-0.7836952,1.552299,0.4415035,0.00073126,-27.16728,-53.00484,0.3592182,0
17603,50863813,-0.023403,13.27278,0.38484,8.385751,-139.1511,0.8048251,2.273198,0.6673976,0.00186409,1.419197,-45.961,0.3843572,0
17692,50963773,5.928701,4.593,-0.4515446,-5.560621,142.1498,-0.7700286,3.288372,0.8347197,0.00295052,25.69235,-14.97908,0.3968082,0
17783,51063733,-2.596155,-12.31762,0.517391,8.028038,-139.4221,0.7046806,3.863993,0.9957514,0.00350853,37.11684,11.96756,0.3984953,0
17874,51163693,-0.5894243,29.85023,-0.5939149,-6.42943,136.6278,-0.6393346,4.273411,1.464189,0.00393132,38.28465,19.6043,0.3957818,0
17966,51263653,-0.5180923,-48.97137,0.6723427,7.318268,-130.4673,0.5653028,4.575832,1.669662,0.00388024,37.68533,24.41607,0.3953688,0
18055,51363613,3.307423,48.35121,-0.7185536,-6.708274,133.7672,-0.5668119,4.751346,2.149241,0.00358878,39.41368,24.68491,0.3968188,0
18145,51463573,1.121582,-39.25324,0.6880763,7.957578,-137.2598,0.61998,4.582863,2.602157,0.00294519,42.99495,25.52719,0.3988533,0
18236,51563533,2.710393,37.40524,-0.6629873,-6.350353,143.1278,-0.6743786,4.439334,3.093521,0.00219814,47.9836,22.84851,0.4014043,0
18325,51663493,-2.879591,-24.45364,0.6103411,7.685163,-144.8806,0.7254181,4.113349,3.415526,0.00130601,53.92955,34.68208,0.4043792,0
18415,51763453,1.814355,18.10885,-0.581779,-6.397953,146.0117,-0.7468179,3.689967,3.42678,0.000529,59.59262,35.63328,0.4070814,0
18504,51863413,-2.308155,-24.58558,0.6075563,6.735814,-144.2944,0.7279525,3.296119,3.459431,-0.00021421,64.87189,38.95931,0.4092949,0
18593,51963373,3.04761,28.38407,-0.6294756,-7.39773,144.7818,-0.7163527,2.916836,3.391066,-0.00083328,70.13275,44.30647,0.4116175,0
18684,52063333,-1.78731,-30.96531,0.65006,6.496451,-145.4986,0.7063988,2.594642,3.293493,-0.00123117,73.25993,48.10591,0.4137265,0
18775,52163293,2.9157,35.89121,-0.6722986,-7.421978,141.6968,-0.6799713,2.364054,3.145863,-0.00150666,73.78233,54.61807,0.4160101,0
18867,52264086,-1.095659,-50.75145,0.7101555,8.578834,-140.2085,0.6182648,2.23997,2.470834,-0.00137356,70.47984,56.07748,0.4174209,0
18958,52364046,2.634952,37.21754,-0.6542463,-8.013093,150.7692,-0.6861506,2.381665,2.266649,-0.00081775,65.15874,49.13568,0.4176496,0
19050,52464006,-3.955966,-23.996,0.5898815,4.939221,-152.3231,0.727978,2.560069,2.234394,-0.00039082,58.97805,54.1646,0.4175761,0
19141,52563966,2.53391,9.672925,-0.5311356,-8.184052,148.2939,-0.7621157,4.103004,2.282168,0.00022,52.87531,41.95614,0.4174083,0
19230,52663926,-1.311556,-12.08929,0.5388021,7.927314,-148.973,0.7547438,8.04084,2.420976,0.00476274,46.1135,46.16852,0.4169396,0
19320,52763886,2.811809,15.11498,-0.5461274,-6.920095,148.2183,-0.7447779,10.56256,3.175317,0.00855454,38.62046,39.22405,0.4154475,0
19409,52863846,-2.444303,-16.89896,0.5563009,8.259265,-146.193,0.7351468,12.51524,4.377175,0.01118824,31.33602,33.48932,0.414891,0
19498,52963806,2.889347,18.95883,-0.5616645,-7.000879,146.3429,-0.725054,12.74348,5.787184,0.01113555,23.62084,26.43051,0.4128056,0
19589,53063766,-0.1021853,-32.32601,0.6231505,7.702893,-140.9252,0.6611893,11.8657,7.096272,0.00920627,15.21695,26.81398,0.4109688,0
19679,53163726,0.344507,50.73843,-0.6974559,-7.088451,135.8415,-0.5837598,9.814246,7.799838,0.00541791,6.437176,13.92822,0.4091111,0
19771,53263686,-0.5246153,-63.82492,0.7487456,6.647933,-127.1859,0.4960338,7.309834,8.358799,0.00112783,-2.285995,10.30092,0.4062375,0
19860,53363646,-0.4804672,74.92434,-0.7901625,-7.668152,118.1868,-0.405743,4.384833,7.917986,-0.00336384,-6.937492,8.303928,0.4054899,0
19950,53463606,2.210259,-75.48537,0.8332976,7.686208,-125.3921,0.4315397,1.684535,7.450393,-0.00719764,-6.944672,-2.048206,0.4046943,0
20042,53563566,-0.7978287,68.52299,-0.8000302,-7.286495,130.1747,-0.4912055,-0.7246881,6.500784,-0.01017747,-5.212391,1.238441,0.4046008,0
20131,53663526,-1.470017,-57.8629,0.7600924,8.572303,-133.6538,0.5423064,-2.450035,5.143965,-0.01189675,-3.241985,1.534271,0.4046742,0
20221,53763486,1.508535,44.67138,-0.7074528,-7.666827,139.9187,-0.6058036,-3.620412,3.647738,-0.01225468,-0.5779716,1.749992,0.4050539,0
20310,53863446,-1.035422,-42.59779,0.6914518,6.328396,-135.9326,0.6100558,-4.034831,2.328429,-0.0114384,1.339909,2.939415,0.4052217,0
20399,53963406,2.297394,46.4158,-0.7063816,-9.578891,135.1743,-0.598242,-3.864542,0.9680567,-0.00982083,3.329093,6.687641,0.4055859,0
20490,54063366,-0.1622771,-47.38681,0.7207192,5.586051,-136.3856,0.5804138,-3.143366,-0.06583887,-0.00742729,5.711689,2.25687,0.406311,0
20580,54163326,0.5745668,51.91857,-0.739013,-8.89781,132.3137,-0.5636904,-2.030819,-0.7760389,-0.00481119,7.381575,7.774734,0.4067144,0
20672,54263286,-0.6844251,-56.3989,0.7587334,7.699354,-130.9789,0.5275156,-0.5762122,-1.282075,-0.0019072,9.040487,5.81646,0.406885,0
20761,54364079,-0.9283085,70.97244,-0.7831063,-8.14539,132.3727,-0.4838187,1.004407,-1.501204,0.00110124,9.657773,9.072399,0.4069006,0
20851,54464039,-3.128609,-60.96493,0.7450296,5.661506,-135.3436,0.5374629,2.73406,-1.139456,0.00365612,10.90872,5.314445,0.4078852,0
20943,54563999,-0.3595603,47.69416,-0.699546,-8.532546,136.238,-0.5906118,4.075118,-0.6056823,0.00557368,11.4499,7.862568,0.4079295,0
21032,54663959,-1.858807,-44.20112,0.6710306,7.668417,-143.3022,0.6378098,5.34519,0.1000764,0.00685784,11.92775,10.12459,0.4086327,0
21121,54763919,0.4999118,44.33683,-0.6782281,-5.664381,140.8668,-0.617058,6.01012,1.029324,0.00712608,12.55092,13.43098,0.4090558,0
21211,54863879,-0.1040152,-48.15516,0.6926986,8.389314,-137.1014,0.5993243,6.33691,1.929458,0.00668743,12.93378,9.473419,0.4087845,0
21300,54963839,1.159697,52.66793,-0.7080187,-6.56847,137.7309,-0.5820348,6.286828,2.700256,0.00568346,12.77689,13.28354,0.4090808,0
21391,55063799,-1.212163,-54.54288,0.7206385,7.254625,-133.8864,0.5582398,5.953619,3.36323,0.00440134,12.64824,6.820965,0.4096692,0
21481,55163759,-0.9505966,66.68317,-0.7683681,-6.659724,125.9924,-0.4763756,5.286035,3.833052,0.00290003,12.38788,9.961987,0.4098967,0
21572,55263719,0.8104259,-80.43813,0.8190938,8.841693,-117.025,0.3846803,4.533266,3.862286,0.00116758,12.14639,10.39362,0.4104989,0
21662,55363679,-2.409384,93.33554,-0.8528513,-7.748151,111.009,-0.3031841,3.661971,4.10834,-0.00029092,11.00785,14.63451,0.4098929,0
21753,55463639,3.291059,-107.039,0.8909677,5.536304,-99.11557,0.2026142,2.840855,3.787204,-0.00151228,10.2324,10.82811,0.4101204,0
21844,55563599,-1.742496,104.4891,-0.928075,-8.3217,102.1547,-0.227565,2.291197,3.352428,-0.00222612,10.25357,6.960678,0.4101464,0
21933,55663559,2.198146,-98.72298,0.9182694,7.168491,-112.2745,0.2962992,1.8397,3.165239,-0.00260212,10.63493,5.161476,0.4107101,0
22022,55763519,-0.1789243,88.18919,-0.8812186,-7.104128,118.8916,-0.3664079,1.533157,2.882881,-0.00284605,10.35242,2.31657,0.4107954,0
22112,55863479,1.718171,-79.37839,0.8543376,8.873601,-125.2242,0.4309303,1.374127,2.460245,-0.00269499,9.574282,8.689404,0.4107423,0
22201,55963439,-0.7772772,78.57677,-0.8426992,-7.566304,127.0031,-0.4462664,1.357674,2.156359,-0.00234323,8.688668,7.628918,0.4105579,0
22292,56063399,0.06894126,-78.56322,0.8432969,7.018572,-125.7331,0.4353985,1.517801,1.818774,-0.0017689,8.240597,6.864071,0.4105111,0
22382,56163359,-1.626357,80.34998,-0.8544466,-7.879545,124.0388,-0.4218627,1.709507,1.564324,-0.00114152,8.025207,11.38353,0.4107026,0
22474,56263319,0.03875994,-82.78941,0.858557,6.940169,-122.5224,0.4037286,2.075765,1.446242,-0.00042649,7.850602,3.25079,0.4109662,0
22564,56363279,-2.802198,89.64499,-0.8827025,-6.82722,111.7137,-0.3306157,2.329983,1.463461,0.00015141,7.056627,10.80971,0.4104646,0
22655,56464072,-1.396644,-89.66715,0.8509177,8.22475,-118.6796,0.3427898,2.862244,1.466272,0.00092143,6.201227,6.700325,0.4103429,0
22746,56564032,-4.106506,80.31217,-0.835667,-6.153917,121.3866,-0.3844623,3.072284,1.520132,0.00132041,6.198347,5.726528,0.4108863,0
22835,56663992,-1.871343,-76.05895,0.8060107,9.678758,-126.0275,0.4496523,3.556426,1.591985,0.00175047,5.870724,11.9072,0.4111007,0
22924,56763952,-0.487523,66.68012,-0.7736515,-6.688691,129.817,-0.4807019,3.717345,1.919243,0.00193815,4.330217,5.826473,0.4100516,0
23014,56863912,0.5210013,-69.88873,0.7840574,7.156815,-125.9534,0.4591314,3.837118,2.048656,0.00197647,4.194595,3.663349,0.4103553,0
23103,56963872,-0.9141796,72.82088,-0.7961957,-8.411769,124.1105,-0.4412706,3.860445,2.213362,0.00176956,4.527735,1.118851,0.4104914,0
23194,57063832,1.31594,-75.73513,0.8098144,7.780986,-124.026,0.4255121,3.819146,2.33823,0.00154919,5.229747,2.822399,0.4112338,0
23284,57163792,-0.8128669,78.88291,-0.8162421,-7.619843,120.0263,-0.3955644,3.729475,2.477005,0.00121124,4.984082,7.884312,0.4106403,0
23375,57263752,3.048499,-91.61038,0.8508849,7.500457,-110.284,0.3076759,3.519665,2.818333,0.0008439,5.346911,4.63953,0.4110039,0
23465,57363712,-3.468345,106.3993,-0.8901199,-6.855204,100.2152,-0.2147131,3.301155,2.655145,0.000409,5.461045,7.152271,0.4109457,0
23556,57463672,2.667146,-118.3419,0.9160789,5.599725,-86.24171,0.1077011,3.11055,2.890146,0.00004966,5.147526,8.085346,0.4110578,0
23647,57563632,-3.964076,123.9382,-0.9400642,-6.541315,71.13425,0.01255587,2.920237,2.655042,-0.00015038,4.773679,9.435558,0.4108281,0
23736,57663592,5.848375,-122.3889,0.9612652,8.766512,-86.63464,0.07753243,2.900496,2.55056,-0.00004886,4.507175,-0.4117966,0.4107752,0
23825,57763552,-0.8471938,117.4934,-0.9554745,-5.650901,94.92072,-0.1352198,2.884374,2.435869,-0.0001635,5.078118,4.100132,0.411555,0
23915,57863512,3.095502,-105.1072,0.9358968,8.796268,-100.8019,0.2074341,2.84857,2.284851,-0.0001192,4.616889,6.211853,0.4113157,0
24004,57963472,-2.505784,100.6444,-0.923199,-6.619597,109.8424,-0.2728937,2.785559,2.365613,-0.00013466,4.546143,5.890846,0.4112584,0
24095,58063432,1.36379,-100.4138,0.9158767,6.679776,-106.4503,0.2646965,2.801027,2.362273,-0.00004629,2.904068,4.165649,0.4108173,0
24185,58163392,-1.942009,101.397,-0.918295,-6.94101,104.152,-0.2472707,2.76204,2.256983,-0.00004355,-0.7699769,-2.099991,0.4102976,0
24276,58263352,2.251219,-102.956,0.9189897,7.782148,-101.1333,0.2268866,2.789634,2.165895,0.00007362,-10.5085,-1.845455,0.4087651,0
24366,58363312,-2.248498,103.8454,-0.9168974,-7.046031,99.17425,-0.2071064,2.723794,2.134374,0.00006111,-23.81888,-7.317448,0.4059062,0
24457,58463272,3.240442,-108.644,0.9161756,6.974995,-88.35184,0.1333899,2.660639,2.085304,0.00005661,-38.27823,-15.8452,0.4018397,0
24548,58564065,-2.286875,109.4418,-0.8897176,-5.938632,92.69732,-0.1563936,2.535365,2.347516,-0.00015935,-53.85654,-33.22563,0.3973375,0
24637,58664025,2.734639,-100.3597,0.8579648,8.156699,-99.39677,0.2255961,2.432161,2.258175,-0.00033131,-68.98783,-44.58818,0.3925751,0
24726,58763985,-1.592667,91.36986,-0.8246287,-7.373548,109.4405,-0.2959751,2.251934,2.195481,-0.00052828,-84.57918,-47.77508,0.3868257,0
24816,58863945,1.754297,-84.6271,0.7926961,5.549935,-106.4875,0.3012995,2.073399,2.15621,-0.00067831,-100.7243,-55.10645,0.3810067,0
24905,58963905,-2.405264,86.16851,-0.7893877,-7.811085,102.8827,-0.2856932,1.856959,2.052322,-0.00086416,-115.6521,-77.43015,0.3755299,0
24996,59063865,2.501514,-86.94084,0.7836965,5.917963,-101.7815,0.2701691,1.715847,1.923764,-0.00092239,-129.3875,-89.26401,0.3701275,0
25086,59163825,-2.671919,87.53838,-0.7779692,-6.732437,98.31068,-0.2563902,1.560047,1.802679,-0.00099745,-140.1207,-94.9626,0.3645567,0
25177,59263785,2.186511,-89.25842,0.7683633,5.853024,-91.52887,0.214593,1.514024,1.595563,-0.0009088,-145.1972,-105.7937,0.359564,0
25267,59363745,-2.982053,100.5335,-0.7926651,-5.218021,77.09581,-0.1123406,1.377948,1.617998,-0.0009769,-144.8179,-103.4628,0.3569826,0
25358,59463705,2.188837,-106.254,0.7855445,5.117891,-64.82875,0.02511756,1.461888,1.323561,-0.00058986,-142.7716,-105.4348,0.3545287,0
25449,59563665,-4.580862,110.5089,-0.779149,-5.377501,53.00756,0.06161307,1.41538,1.462064,-0.00054491,-139.8272,-110.9253,0.3524967,0
25538,59663625,6.509269,-123.4074,0.8227775,4.729002,-44.59998,-0.145763,1.535004,1.357597,-0.0001802,-135.8052,-108.592,0.3512875,0
25627,59763585,-1.800496,119.3144,-0.8246951,-4.701883,51.49141,0.09450994,1.724219,1.293384,0.00006056,-131.2916,-107.8546,0.3508545,0
25717,59863545,5.300652,-110.2268,0.8153575,5.774825,-58.91536,-0.03503776,1.874844,1.23615,0.00039366,-128.0061,-111.1595,0.3486363,0
25806,59963505,-3.639083,107.7819,-0.8130553,-5.451602,67.38197,-0.01778656,2.021804,1.208138,0.00061691,-124.6125,-106.1453,0.347242,0
25897,60063465,3.356911,-102.1948,0.8083393,5.481359,-72.37393,0.06045726,2.207621,1.216801,0.00087341,-120.4022,-104.3254,0.3473707,0
25987,60163425,-3.235869,103.0733,-0.8012224,-6.038465,68.81788,-0.04155357,2.291762,1.333543,0.00099651,-117.1159,-99.2815,0.3461725,0
26078,60263385,4.240414,-105.0573,0.8013652,5.178398,-66.80104,0.02204427,2.347908,1.450246,0.00101882,-114.5941,-99.98207,0.3453164,0
26168,60363345,-3.101638,106.9631,-0.7992441,-5.291028,63.45374,-0.00142317,2.337478,1.517747,0.00087244,-112.2864,-106.8224,0.3444066,0
26260,60463305,4.375157,-107.6074,0.7981851,5.29448,-59.48322,-0.02279897,2.291247,1.632146,0.00068131,-100,-100.5937,0.3437814,0
26351,60563265,-4.55953,116.0329,-0.8045955,9.878158,53.33702,0.1405681,1.89043,1.882637,0.00041896,-49.15827,-70.30048,0.348449,0
26440,60664058,5.088666,-120.3879,0.8113065,12.51087,-42.41605,-0.1037025,2.389516,1.641667,0.0005717,-19.11451,-50.11482,0.3577928,0
26529,60764018,-4.299002,119.3237,-0.8220066,-6.483945,59.88243,0.04679197,2.367511,1.596124,0.00067687,-24.44238,-44.92941,0.3610693,0
26619,60863978,1.984532,-113.3384,0.8207988,2.443615,-68.77911,-0.00030778,2.376634,1.619999,0.00065165,-26.88307,-46.28963,0.3617746,0
26708,60963938,-5.455329,109.8368,-0.8148112,-9.001594,60.72616,-0.00174072,2.391805,1.680326,0.00046257,-27.81529,-44.45705,0.3621052,0
26799,61063898,3.571029,-114.5963,0.8203982,3.116146,-65.08936,-0.01627544,2.26902,1.75832,0.00033734,-27.7683,-37.07237,0.3621285,0
26889,61163858,-4.169666,113.5732,-0.8153533,-7.247161,56.62377,0.03828736,2.216885,1.875631,0.00009549,-25.71866,-39.41536,0.3628559,0
26980,61263818,5.234215,-115.8924,0.8142432,4.124867,-58.76834,-0.05556643,2.070954,1.902297,0.00001326,-22.20997,-39.80093,0.363703,0
27073,61363778,-4.989122,119.0595,-0.7954323,-5.13616,45.84929,0.1183927,1.983494,2.029548,-0.0001423,-18.18881,-35.60181,0.3647402,0
27163,61463738,6.251928,-127.3401,0.7894608,3.415688,-31.27425,-0.2209884,1.828605,2.005689,-0.00035996,-14.29732,-23.36626,0.3660388,0
27254,61563698,-3.796101,130.7136,-0.7558447,-3.721294,14.75198,0.3131072,1.781192,2.184406,-0.00043576,-10.00047,-24.10078,0.367295,0
27343,61663658,5.726656,-128.0646,0.7099234,2.7589,-0.849784,-0.4017406,1.697469,2.007032,-0.00049663,-6.118242,-14.71415,0.3689515,0
27432,61763618,-8.021813,137.8618,-0.7327298,-4.636388,-5.821433,0.4722976,1.770116,2.107447,-0.00033844,-2.638241,-14.9087,0.3695886,0
27522,61863578,2.690369,-135.9797,0.7487296,1.197257,-4.515985,-0.4225571,1.823549,1.997904,-0.00013942,-0.1342926,-14.433,0.3708833,0
27611,61963538,-8.579628,131.333,-0.7763501,-5.122211,10.91666,0.3727779,1.922018,1.905185,0.0000367,2.488701,-5.934525,0.372026,0
27702,62063498,5.55372,-135.5251,0.8081695,2.914802,-21.8611,-0.3243901,2.012603,1.899525,0.0002241,4.612246,-3.120518,0.3733476,0
27792,62163458,-4.590281,131.9049,-0.81844,-5.168857,25.19943,0.289956,2.113664,1.804934,0.00027962,6.414197,-5.363369,0.3739164,0
27883,62263418,6.652547,-131.0683,0.8069807,3.188095,-21.80396,-0.3163073,2.118963,1.914032,0.00038351,7.257202,-1.025963,0.3746818,0
27974,62363378,-5.509175,133.0613,-0.7971551,-4.879864,16.98505,0.338986,2.200727,1.971215,0.00043441,7.955347,4.811478,0.3755944,0
28064,62463338,6.97783,-132.7578,0.7874584,3.542373,-16.13896,-0.3528487,2.243079,2.032351,0.00051403,7.433836,-1.681805,0.3751569,0
28155,62563298,-6.033367,133.8766,-0.7762609,-3.475293,12.21265,0.3768438,2.296414,2.086968,0.00055294,7.424119,-1.68581,0.3755195,0
28244,62664091,6.523367,-133.1609,0.7228317,2.761496,5.640605,-0.447047,2.313288,2.165763,0.00045791,6.918555,2.093506,0.3758269,0
28333,62764051,-7.050704,137.2657,-0.750302,-4.06861,2.074399,0.4062824,2.444716,1.962528,0.00072844,6.386733,2.212048,0.3760397,0
28423,62864011,4.843282,-136.1752,0.775015,4.472857,-13.22757,-0.3498967,2.618784,1.872021,0.00094975,5.388557,4.105091,0.3763058,0
28512,62963971,-6.476546,134.1346,-0.7964693,-3.695059,21.71787,0.3005152,2.655301,1.999415,0.00098363,4.32134,1.166153,0.3758547,0
28603,63063931,5.135355,-134.9019,0.7857127,4.010275,-17.71852,-0.3123167,2.739968,2.1533,0.00098821,3.765966,-0.09336472,0.3763433,0
28692,63163891,-5.593528,133.6779,-0.7732829,-3.088837,14.79609,0.3344494,2.701164,2.1997,0.00087786,3.693314,-0.7512093,0.376358,0
28784,63263851,6.012588,-133.9415,0.7647921,3.66728,-10.45672,-0.3562217,2.691714,2.271171,0.00073478,3.406897,-0.2451897,0.376629,0
28874,63363811,-5.099566,134.5413,-0.7554095,-3.304182,8.013402,0.3742534,2.635181,2.303215,0.00056789,3.316292,6.848717,0.3765169,0
28964,63463771,7.032314,-131.0784,0.7097667,3.159793,3.322175,-0.4310054,2.531131,2.561857,0.00032471,3.025275,-2.367878,0.3765914,0
29055,63563731,-6.550452,131.6363,-0.6477826,-1.642188,-16.78363,0.5087194,2.45225,2.695341,0.0002745,3.105297,-0.5293846,0.3769105,0
29144,63663691,7.08296,-129.6499,0.5900181,0.7793154,35.57581,-0.5900173,2.325192,2.833906,-0.0001321,2.278539,5.108261,0.3762379,0
29233,63763651,-5.061682,122.555,-0.5054865,-0.09001109,-50.88739,0.6581273,2.262449,2.788469,-0.00009531,1.544608,3.55444,0.3762462,0
29323,63863611,7.186494,-122.5912,0.5078165,1.793895,50.34861,-0.6967871,2.235285,2.923361,-0.00029536,0.516937,5.041695,0.3757532,0
29412,63963571,-8.016678,127.6132,-0.5597563,1.17424,-41.73687,0.6658493,2.151264,2.90101,-0.0003366,0.432698,-1.932907,0.3762659,0
29503,64063531,6.293097,-132.0646,0.6057562,2.215705,38.51435,-0.6367405,2.2473,2.687299,-0.0002534,0.535169,5.978107,0.3766187,0
29592,64163491,-6.312212,133.1183,-0.6512733,-1.729988,-26.36146,0.5869216,2.305207,2.540039,-0.00009168,0.5782679,2.588367,0.3762376,0
29684,64263451,7.10418,-131.3985,0.6636892,2.299619,22.4013,-0.5593201,2.352042,2.584991,-0.00000337,0.1628312,-1.303864,0.3757648,0
29774,64363411,-6.036872,131.1567,-0.6453146,-1.928118,-26.65944,0.5794461,2.408373,2.549337,0.00008456,0.2823669,4.843044,0.3760744,0
29864,64463371,6.910088,-129.8521,0.6297569,2.633185,30.00271,-0.5971385,2.467693,2.542985,0.0001763,1.175172,-0.596714,0.3766026,0
29955,64563331,-6.121521,130.0723,-0.6185403,-1.164663,-31.55584,0.6103824,2.498242,2.552321,0.0002322,1.134282,1.87645,0.3764227,0
30044,64663291,6.50398,-126.5928,0.5857663,2.138213,37.37442,-0.6282984,2.55898,2.647195,0.00028674,0.5690883,1.757431,0.3760872,0
30133,64764084,-6.988796,126.649,-0.5287918,-0.7782187,-49.96013,0.661467,2.568646,2.922879,0.00032127,0.7022603,-2.281857,0.3764049,0
30223,64864044,6.31808,-131.6716,0.5777583,1.785773,39.65957,-0.618013,2.515263,2.982826,-0.0000012,0.6617765,-1.916409,0.3764378,0
30312,64964004,-6.736095,134.552,-0.6241266,-0.3507051,-29.78168,0.5784708,2.44355,2.842908,-0.00006812,0.8965684,0.8249283,0.3766583,0
30403,65063964,6.251989,-133.3555,0.6466947,2.398767,22.84233,-0.5358847,2.467485,2.773841,-0.0000089,0.384915,-0.19207,0.37614,0
30492,65163924,-6.747628,131.7261,-0.6311914,-1.578007,-23.77081,0.5416861,2.410696,2.747048,-0.0000668,0.2659307,1.36013,0.3761013,0
30584,65263884,7.143751,-131.372,0.6170027,0.09011733,28.7879,-0.5656154,2.338555,2.767274,-0.00009951,0.03670115,-4.632378,0.3761176,0
30674,65363844,-6.81509,131.2949,-0.6039996,-0.8401275,-34.08388,0.5856246,2.329482,2.759853,-0.00014694,0.04176801,0.7394791,0.3761317,0
30764,65463804,6.153472,-131.4687,0.5936022,0.6497135,36.99335,-0.601491,2.318719,2.763424,-0.00012429,0.4072028,0.8471489,0.3764819,0
30855,65563764,-6.691862,122.2139,-0.5106282,-0.4536843,-50.11579,0.6544919,2.333674,2.749915,0.00000068,0.5067459,-0.5784988,0.3765038,0
30944,65663724,6.054118,-115.22,0.4308289,-0.4513285,62.87761,-0.7093444,2.295388,2.729464,-0.00008392,0.9137423,-0.4673958,0.3767639,0
31033,65763684,-8.035866,105.6097,-0.339103,1.059008,-74.53968,0.7532738,2.335508,2.863588,0.0000439,0.4457157,2.729797,0.3763978,0
31123,65863644,6.664196,-99.98653,0.2609739,-3.337995,88.22142,-0.7912035,2.266067,2.806735,-0.00015995,0.0995622,0.2090454,0.3762012,0
31212,65963604,-4.087219,100.6369,-0.261564,1.866496,-90.65173,0.8393609,2.350149,2.752821,0.00002778,-0.1725857,-0.5754471,0.3758096,0
31303,66063564,8.952923,-105.6732,0.3244609,-0.867676,83.25303,-0.8167833,2.472238,2.715732,0.00017817,0.1824134,-7.36742,0.3763316,0
31392,66163524,-6.100138,115.42,-0.3809272,1.245164,-74.59521,0.7891406,2.540551,2.800267,0.0003036,0.6923802,3.676987,0.376623,0
31484,66263484,6.981943,-119.79,0.4376486,-0.6666681,66.6801,-0.7584417,2.63123,2.759943,0.00042859,0.3388369,-2.220249,0.3763751,0
31573,66363444,-6.62644,117.6113,-0.4384741,0.5459033,-63.90968,0.7438022,2.70705,2.783887,0.00054,0.0796054,1.237774,0.3763109,0
31665,66463404,7.312818,-116.2421,0.4218699,-0.7958874,67.73034,-0.7593113,2.731628,2.839816,0.00054283,-0.01110376,2.477646,0.3766741,0
31756,66563364,-6.706709,116.3959,-0.4079186,1.083713,-70.81571,0.7707927,2.737706,2.938494,0.00047037,-0.1544675,-0.6407738,0.3765725,0
31845,66663324,6.441731,-114.4487,0.3913428,-0.5803367,72.30791,-0.7752062,2.730299,3.04927,0.0004175,-0.3927608,1.59111,0.3763222,0
31934,66763284,-6.265558,106.9328,-0.3383943,1.789345,-77.26789,0.7915336,2.640374,3.107724,0.00028025,-0.3802123,-1.624107,0.3763669,0
32023,66864077,6.512412,-106.4815,0.2989322,-1.275156,86.60203,-0.7892807,2.583613,2.785976,0.00017017,-0.5088252,-3.176403,0.3760714,0
32113,66964037,-6.804052,110.0031,-0.3433593,0.4978484,-77.40731,0.767494,2.634187,2.85208,0.00040669,-0.6568896,3.010273,0.3758225,0
32204,67063997,7.389045,-114.2845,0.3931164,-0.2275061,68.16693,-0.7388539,2.646496,2.927299,0.00045835,-1.080252,-0.9545326,0.3756476,0
32293,67163957,-6.916079,116.2206,-0.4235668,1.640728,-64.5725,0.7233164,2.630527,2.851268,0.000463,-1.358851,5.058575,0.3756606,0
32385,67263917,6.708702,-113.7859,0.3999923,0.574287,67.93579,-0.7286494,2.647961,2.9685,0.00042067,-1.155996,2.333069,0.3759374,0
32474,67363877,-7.041765,111.9407,-0.3808219,1.77679,-69.55827,0.7429299,2.556561,3.022558,0.00030057,-0.8856078,2.570534,0.3761582,0
32565,67463837,7.367966,-111.2959,0.3678468,-0.9301637,72.41369,-0.7498589,2.516963,3.071692,0.00017618,-0.7760068,-1.467896,0.3761022,0
32656,67563797,-6.325455,108.0838,-0.3412107,1.370168,-74.92348,0.7606207,2.436426,2.993539,0.0000475,-1.105904,-0.6542206,0.3756163,0
32745,67663757,7.01045,-99.15749,0.2591419,-2.459274,87.92754,-0.7877558,2.296585,2.918792,-0.00023889,-1.216872,0.6932259,0.3756835,0
32834,67763717,-5.406588,87.32956,-0.161053,3.163739,-100.8329,0.8213679,2.22119,2.90653,-0.00024531,-0.9675403,-3.550053,0.3756072,0
32923,67863677,5.510624,-73.17548,0.06213879,-3.005877,110.6096,-0.8381096,2.165323,2.665944,-0.00036262,-0.1406626,0.8318901,0.3764682,0
33013,67963637,-6.68796,60.73724,0.02948119,3.67059,-116.1762,0.8363355,2.190892,2.725167,-0.00023839,-0.1618499,-1.087952,0.3758343,0
33104,68063597,5.063986,-69.7562,-0.0025577,-7.184725,117.7018,-0.8851025,2.131352,2.661572,-0.00026218,0.229711,0.4214287,0.3763053,0
33193,68163557,-6.784701,77.80855,-0.06058596,1.203685,-115.6322,0.8802006,2.333035,2.624464,-0.00011192,0.4715614,4.964352,0.3767024,0
33285,68263517,6.440928,-83.79726,0.1097704,-3.351271,105.6927,-0.872443,2.355048,2.707728,0.0000837,0.03224914,2.011871,0.3763715,0
33374,68363477,-6.881244,90.91148,-0.1714936,2.385465,-99.66604,0.8625473,2.444792,2.791445,0.00023472,0.00641027,-2.652168,0.3762392,0
33465,68463437,6.2858,-88.5584,0.1672575,-2.698317,98.3375,-0.8542923,2.507972,2.788087,0.00035077,-0.02642151,0.3893852,0.3761611,0
33556,68563397,-7.49037,86.1517,-0.1456338,2.355925,-102.0054,0.8645626,2.594055,2.822074,0.00044748,0.6826581,3.787041,0.3766585,0
33645,68663357,6.397835,-85.20623,0.1280899,-2.634368,103.2328,-0.8665433,2.626581,2.829812,0.00050624,0.0867037,6.749916,0.3761878,0
33734,68763317,-6.270692,82.8199,-0.1114429,2.791674,-104.1083,0.8654886,2.615678,2.803161,0.00046618,-0.2395774,-4.255295,0.3758602,0
33823,68863277,5.870875,-72.77145,0.04572354,-4.016064,108.63,-0.8575318,2.568096,2.680731,0.00037304,-0.4217983,3.577137,0.3760465,0
33913,68964070,-6.52824,73.94152,-0.04062839,3.045778,-113.0143,0.8491571,2.483187,3.185489,0.0000108,-0.5580432,-1.885796,0.3760129,0
34004,69064030,5.91811,-79.57461,0.08908775,-4.168304,109.35,-0.849762,2.314786,3.082724,-0.00033156,-0.2498569,0.03004074,0.3761212,0
34093,69163990,-6.323645,86.2796,-0.143782,2.19437,-106.053,0.845261,2.216381,3.031847,-0.0005172,-0.5900679,-4.110909,0.3757335,0
34185,69263950,6.377975,-88.5051,0.171114,-2.725146,100.047,-0.826842,2.080718,3.040778,-0.0006976,-0.8435128,0.4451752,0.37591,0
34274,69363910,-6.315849,85.8698,-0.1462543,3.538668,-104.0652,0.8379159,1.957685,2.890941,-0.00079457,-0.9990332,4.10738,0.3756895,0
34365,69463870,6.120982,-83.44608,0.1275363,-1.80957,105.817,-0.8380316,1.938318,2.769464,-0.00076086,-1.216412,-8.893299,0.3752857,0
34456,69563830,-5.57476,80.4832,-0.1082689,4.199874,-105.8368,0.8398907,1.860018,2.656484,-0.00072677,-1.474156,-3.668785,0.3752882,0
34545,69663790,6.523339,-74.7901,0.07254602,-3.224619,110.3786,-0.8388636,1.911364,2.50508,-0.00062406,-1.013997,4.978752,0.3756675,0
34634,69763750,-5.209386,62.38387,0.02381282,3.165575,-115.5127,0.8332737,1.95281,2.582696,-0.00040923,-1.046492,-2.555561,0.3752573,0
34723,69863710,5.59917,-49.56979,-0.1143924,-6.154696,121.8008,-0.8224424,1.986389,2.260516,-0.00034065,-0.6698101,0.30756,0.375733,0
34813,69963670,-3.266574,33.92934,0.216042,6.119284,-129.2676,0.8091114,2.053799,2.281378,-0.0001552,-0.1305078,2.218246,0.3760555,0
34904,70063630,4.082673,-15.63704,-0.3427724,-5.386719,134.6202,-0.8100463,2.199579,1.915642,-0.00000588,0.1774901,5.6427,0.3760511,0
34993,70163590,-6.075835,28.11461,0.2752198,6.687529,-133.3497,0.8400752,2.40545,2.098526,0.00037293,0.358681,2.887917,0.3758441,0
35085,70263550,3.882499,-39.2913,-0.2165596,-4.277806,131.1596,-0.8566414,2.592827,2.304493,0.00067153,0.3202798,1.43919,0.375937,0
35174,70363510,-5.299629,45.49207,0.1636312,5.285889,-127.5069,0.8672829,2.780759,2.359099,0.00090349,0.1800064,-4.533195,0.3756977,0
35265,70463470,4.694571,-53.48434,-0.1117186,-4.970578,127.6521,-0.8879747,2.88717,2.511692,0.00096888,-0.03561079,-2.429295,0.3757528,0
35356,70563430,-6.129601,50.49389,0.1200064,3.335966,-126.8076,0.8763182,3.000731,2.570833,0.00097277,-0.07472228,-2.144432,0.3758557,0
35445,70663390,4.680409,-50.24299,-0.134754,-4.750104,126.0517,-0.8723433,2.969339,2.6322,0.00087434,0.2437319,-3.659058,0.3761673,0
35534,70763350,-4.395591,45.56658,0.159563,5.117441,-127.8909,0.8676695,2.920266,2.729231,0.00068609,0.0954657,3.992653,0.3762948,0
35623,70863310,5.663602,-42.47179,-0.1775305,-4.505226,128.1188,-0.8587817,2.870023,2.843569,0.00046224,-0.2458622,1.875114,0.3758,0
35713,70963270,-4.079072,29.13321,0.2572342,5.736563,-128.7257,0.8283478,2.689013,2.962052,0.00013154,-0.2357333,-0.7640839,0.376,0
35804,71064063,5.004857,-33.04576,-0.2306203,-4.640501,133.756,-0.8266519,2.683405,2.58359,0.00017682,0.1588483,1.855373,0.3764501,0
35893,71164023,-5.583818,42.40657,0.1710727,5.103855,-129.4091,0.8321503,2.670353,2.660737,0.00022297,0.3728313,-0.2594948,0.3767087,0
35985,71263983,5.659575,-52.82082,-0.1123604,-5.584211,126.44,-0.8434049,2.64267,2.731897,0.00020971,0.113703,1.569653,0.3764871,0
36074,71363943,-4.107341,52.99697,0.1041795,4.828247,-124.8262,0.8361745,2.633979,2.713975,0.00018696,0.05778991,0.6663322,0.3764767,0
36165,71463903,5.769773,-50.47819,-0.1177328,-5.585299,125.4458,-0.8335949,2.60444,2.743545,0.00008133,-0.3137539,-0.1441956,0.3758842,0
36257,71563863,-4.094106,48.23985,0.1371014,5.92511,-126.7735,0.8317854,2.531242,2.770409,-0.0000056,-0.5463169,0.3588676,0.3758338,0
36346,71663823,5.737356,-44.0155,-0.1552842,-5.077927,128.0444,-0.8281775,2.525964,2.788848,-0.00007209,-1.083877,2.17762,0.3758805,0
36435,71763783,-3.509146,35.74076,0.2099642,5.242739,-128.4679,0.8088915,2.436824,2.733824,-0.00011894,-0.6202361,-0.2049446,0.3763348,0
36524,71863743,2.764821,-18.23565,-0.3071922,-5.513599,131.9812,-0.778282,2.367819,2.386579,-0.00018838,-0.48656,1.481819,0.3760105,0
36614,71963703,-4.432559,1.832612,0.3934015,5.634248,-131.9005,0.7321889,2.38949,2.468256,-0.00014965,-0.8971868,-0.5206108,0.375695,0
36705,72063663,2.461865,10.33974,-0.4707382,-7.037215,130.0539,-0.672327,2.339073,2.074592,-0.00014931,-1.252603,-0.00667572,0.3755508,0
36794,72163623,-0.463014,-22.78837,0.5675673,8.297114,-136.8858,0.6726089,2.325684,2.174324,-0.00012426,-1.392004,-2.549744,0.3751906,0
36886,72263583,4.065059,13.55201,-0.5123206,-4.55107,137.4597,-0.7069064,2.473673,2.128006,-0.00000532,-1.714197,-1.72224,0.3751147,0
36976,72363543,-0.3019114,-4.009154,0.4725426,7.889802,-136.3732,0.7456864,2.437263,2.251269,0.00010039,-1.403622,-3.290462,0.3755287,0
37068,72463503,-5.083102,-8.415463,-0.4188312,-18.92913,127.4196,-0.7755401,2.146571,2.301018,0.00003828,-45.38314,-18.03808,0.369893,0
37159,72563463,-23.37682,7.250918,0.3091582,-18.62472,-150.4484,0.7676549,3.588105,2.521215,0.00010131,-64.58051,-46.08831,0.3594638,0
37248,72663423,-21.17865,-32.02811,-0.3667463,-34.5037,101.5747,-0.7601681,2.10322,2.522962,0.00044196,-46.16872,-26.01833,0.3620457,0
37337,72763383,-28.50176,-11.85134,0.3719982,-23.50058,-159.9542,0.7530177,4.127115,2.672783,0.00055271,-29.34888,-33.85315,0.3661553,0
37426,72863343,-19.70086,-25.76911,-0.422704,-35.97831,108.0755,-0.7644122,-8.131593,2.690503,-0.00170911,-15.77456,-13.04426,0.3723879,0
37516,72963303,-17.08914,-15.81463,0.4428592,-12.81249,-159.6814,0.7654768,-43.75518,1.19557,-0.03513741,-4.809665,-19.96651,0.3789177,0
37607,73063263,1.268872,5.320502,-0.4841418,-15.83451,134.5901,-0.7304856,-88.17471,-5.63948,-0.08928557,2.976396,12.17098,0.3861322,0
37696,73164056,-6.114596,5.739953,0.3704421,0.111108,-151.2334,0.7658612,-102.8867,-18.16879,-0.1223334,8.818966,-12.16965,0.3884012,0
37788,73264016,4.165702,-19.72495,-0.2991458,-10.6794,144.3076,-0.8323653,-110.6701,-33.37408,-0.1244867,12.42527,20.21399,0.3921941,0
37877,73363976,-11.18384,38.57098,0.1908946,-0.4104252,-153.2642,0.8804139,-109.3965,-47.69025,-0.1126639,14.59404,-7.8228,0.3922879,0
37968,73463936,0.8787566,-39.06593,-0.2077405,-10.09077,142.5166,-0.8939266,-80.10085,-59.75151,-0.07124106,15.71149,27.07567,0.3955718,0
38059,73563896,-9.722887,35.3602,0.2136292,-0.5511993,-147.2325,0.8738799,-52.84489,-65.39668,-0.01719411,14.87687,-7.095051,0.3940301,0
38148,73663856,0.4790033,-32.95681,-0.2660131,-12.10383,136.3529,-0.870582,-22.00183,-64.89741,0.03174155,14.03599,21.82322,0.3969584,0
38237,73763816,-7.658075,30.61167,0.2689503,-3.830916,-138.6121,0.8257684,9.156967,-58.56006,0.07613654,12.28304,-4.454136,0.3952737,0
38326,73863776,0.2163736,-15.44543,-0.3684743,-15.19052,124.4359,-0.8064259,33.319,-47.13078,0.1084779,10.33509,23.27404,0.3976995,0
38416,73963736,-6.59636,5.206707,0.430232,-1.214846,-142.0838,0.7749267,46.67134,-32.87938,0.120927,9.066902,-8.015537,0.3984362,0
38507,74063696,-3.30949,5.01273,-0.5192566,3.264754,143.1835,-0.7397948,53.13752,-17.81411,0.1168156,7.415103,17.17854,0.3999311,0
38597,74163656,-9.548602,-26.73738,0.5629029,27.18988,-117.7779,0.7077042,56.17389,-3.932291,0.1034227,5.787533,-3.37286,0.3963854,0
38689,74263616,-4.968646,13.57857,-0.6045371,20.955,160.683,-0.7087656,56.24349,7.907453,0.08702503,4.782237,18.4742,0.393163,0
38778,74363576,-10.05403,-14.43752,0.5122992,35.84086,-107.1529,0.7505473,54.06589,17.64684,0.06897388,3.165711,2.305031,0.3865529,0
38869,74463536,-2.735069,-13.75358,-0.4259683,23.6219,164.489,-0.7825466,49.88669,25.25208,0.05087214,2.864599,16.33997,0.382677,0
38960,74563496,-10.76539,11.44875,0.3556744,36.52712,-104.3146,0.8090028,42.81182,30.63203,0.03234306,2.324097,3.257084,0.3774473,0
39049,74663456,0.8924026,-30.0307,-0.3037881,26.06417,163.9504,-0.8213577,34.18905,33.61092,0.01415739,3.79419,-0.05760193,0.3763608,0
39139,74763416,-6.230201,20.46617,0.3151072,24.9972,-107.7678,0.7968234,19.93228,34.23025,-0.00611514,5.574281,9.864998,0.3755825,0
39228,74863376,2.974361,-16.83003,-0.3378643,2.683568,147.5429,-0.8059833,6.219276,32.35464,-0.02685322,6.972207,3.503895,0.3757797,0
39318,74963336,-5.32191,15.95586,0.3390731,12.58235,-128.8272,0.7973884,-6.661299,28.26545,-0.04378845,8.663654,12.64162,0.3765527,0
39409,75063296,2.761287,-11.72093,-0.3663713,-1.049181,141.1269,-0.7839267,-16.70819,22.04581,-0.05470009,9.336092,3.013515,0.3770186,0
39498,75164089,-3.250985,-4.662802,0.4258421,14.87033,-133.4875,0.7340494,-23.98306,14.48724,-0.05910357,9.664747,8.716202,0.3771747,0
39590,75264049,5.654004,-8.257364,-0.3617313,-1.307607,144.734,-0.7618275,-27.36798,7.270597,-0.05714947,10.10447,1.318073,0.3782746,0
