LineNo,TimeUS,TPD,PD,DVD,TVD,VD,DAD,TAD,AD,labels
1735,15363852,-0.04388708,-0.04388708,-0.02618271,-0.02618271,-0.02618271,-0.00476742,-0.00476742,-0.00476742,0
1817,15463812,-0.04308774,-0.04308774,-0.02552026,-0.02552026,-0.02552026,-0.00450039,-0.00450039,-0.00450039,0
1896,15563772,-0.04230992,-0.04230992,-0.02491401,-0.02491401,-0.02491401,-0.00458717,-0.00458717,-0.00458717,0
1975,15663732,-0.04155382,-0.04155382,-0.02429795,-0.02429795,-0.02429795,-0.00533676,-0.00533676,-0.00533676,0
2056,15763692,-0.04081767,-0.04081767,-0.0237076,-0.0237076,-0.0237076,-0.00459576,-0.00459576,-0.00459576,0
2135,15863652,-0.04010525,-0.04010525,-0.0231802,-0.0231802,-0.0231802,-0.0041914,-0.0041914,-0.0041914,0
2215,15963612,-0.03941692,-0.03941692,-0.02264334,-0.02264334,-0.02264334,-0.00372219,-0.00372219,-0.00372219,0
2295,16063572,-0.03874813,-0.03874813,-0.02213483,-0.02213483,-0.02213483,-0.00486851,-0.00486851,-0.00486851,0
2374,16163532,-0.0380987,-0.0380987,-0.02163176,-0.02163176,-0.02163176,-0.00398159,-0.00398159,-0.00398159,0
2457,16263492,-0.03746916,-0.03746916,-0.02113372,-0.02113372,-0.02113372,-0.00324631,-0.00324631,-0.00324631,0
2537,16363452,-0.03652459,-0.03652459,-0.02053876,-0.02053876,-0.02053876,-0.00446987,-0.00446987,-0.00446987,0
2617,16463412,-0.03594386,-0.03594386,-0.02003524,-0.02003524,-0.02003524,-0.00335407,-0.00335407,-0.00335407,0
2696,16563372,-0.03537094,-0.03537094,-0.0195907,-0.0195907,-0.0195907,-0.00341225,-0.00341225,-0.00341225,0
2775,16663332,-0.03481115,-0.03481115,-0.01915974,-0.01915974,-0.01915974,-0.00342941,-0.00342941,-0.00342941,0
2856,16763292,-0.03426501,-0.03426501,-0.01869851,-0.01869851,-0.01869851,-0.00238419,-0.00238419,-0.00238419,0
2935,16864085,-0.03372743,-0.03372743,-0.01826069,-0.01826069,-0.01826069,-0.00352287,-0.00352287,-0.00352287,0
3015,16964045,-0.03319861,-0.03319861,-0.01782095,-0.01782095,-0.01782095,-0.00292206,-0.00292206,-0.00292206,0
3095,17064005,-0.03268254,-0.03268254,-0.01744042,-0.01744042,-0.01744042,-0.00347233,-0.00347233,-0.00347233,0
3174,17163965,-0.03219378,-0.03219378,-0.01703353,-0.01703353,-0.01703353,-0.00255108,-0.00255108,-0.00255108,0
3258,17263925,-0.03169932,-0.03169932,-0.01668392,-0.01668392,-0.01668392,-0.00364971,-0.00364971,-0.00364971,0
3338,17363885,-0.03121829,-0.03121829,-0.01628044,-0.01628044,-0.01628044,-0.00280476,-0.00280476,-0.00280476,0
3418,17463845,-0.0307493,-0.0307493,-0.0159663,-0.0159663,-0.0159663,-0.00364113,-0.00364113,-0.00364113,0
3497,17563805,-0.03029493,-0.03029493,-0.01565292,-0.01565292,-0.01565292,-0.00311089,-0.00311089,-0.00311089,0
3576,17663765,-0.02985243,-0.02985243,-0.01531551,-0.01531551,-0.01531551,-0.00326443,-0.00326443,-0.00326443,0
3657,17763725,-0.02941836,-0.02941836,-0.01496183,-0.01496183,-0.01496183,-0.00313854,-0.00313854,-0.00313854,0
3736,17863685,-0.02899436,-0.02899436,-0.01467295,-0.01467295,-0.01467295,-0.00313473,-0.00313473,-0.00313473,0
3816,17963645,-0.02858158,-0.02858158,-0.0143653,-0.0143653,-0.0143653,-0.00233746,-0.00233746,-0.00233746,0
3896,18063605,-0.02818025,-0.02818025,-0.01408056,-0.01408056,-0.01408056,-0.00338268,-0.00338268,-0.00338268,0
3975,18163565,-0.02778746,-0.02778746,-0.0137675,-0.0137675,-0.0137675,-0.00109768,-0.00109768,-0.00109768,0
4058,18263525,-0.02740003,-0.02740003,-0.01348986,-0.01348986,-0.01348986,-0.0025816,-0.0025816,-0.0025816,0
4138,18363485,-0.02702392,-0.02702392,-0.01327467,-0.01327467,-0.01327467,-0.00266266,-0.00266266,-0.00266266,0
4218,18463445,-0.02666617,-0.02666617,-0.01300659,-0.01300659,-0.01300659,-0.00179863,-0.00179863,-0.00179863,0
4297,18563405,-0.02631411,-0.02631411,-0.01275807,-0.01275807,-0.01275807,-0.00165653,-0.00165653,-0.00165653,0
4382,18663365,-0.02596638,-0.02596638,-0.01248868,-0.01248868,-0.01248868,-0.00174618,-0.00174618,-0.00174618,0
4463,18763325,-0.02562147,-0.02562147,-0.01224481,-0.01224481,-0.01224481,-0.00256443,-0.00256443,-0.00256443,0
4542,18863285,-0.02528277,-0.02528277,-0.01196439,-0.01196439,-0.01196439,-0.0007143,-0.0007143,-0.0007143,0
4622,18964078,-0.02494644,-0.02494644,-0.01175497,-0.01175497,-0.01175497,-0.00167847,-0.00167847,-0.00167847,0
4702,19064038,-0.02461762,-0.02461762,-0.01151977,-0.01151977,-0.01151977,-0.00195122,-0.00195122,-0.00195122,0
4781,19163998,-0.02429733,-0.02429733,-0.01134134,-0.01134134,-0.01134134,-0.00121975,-0.00121975,-0.00121975,0
4864,19263958,-0.02399549,-0.02399549,-0.01116523,-0.01116523,-0.01116523,-0.00136757,-0.00136757,-0.00136757,0
4944,19363918,-0.02369216,-0.02369216,-0.0109703,-0.0109703,-0.0109703,-0.00265122,-0.00265122,-0.00265122,0
5024,19463878,-0.02339608,-0.02339608,-0.01076091,-0.01076091,-0.01076091,-0.00182629,-0.00182629,-0.00182629,0
5103,19563838,-0.02310418,-0.02310418,-0.0105702,-0.0105702,-0.0105702,-0.00259399,-0.00259399,-0.00259399,0
5182,19663798,-0.02281938,-0.02281938,-0.01035909,-0.01035909,-0.01035909,-0.00249195,-0.00249195,-0.00249195,0
5263,19763758,-0.02253977,-0.02253977,-0.0101888,-0.0101888,-0.0101888,-0.00242519,-0.00242519,-0.00242519,0
5343,19863718,-0.02226573,-0.02226573,-0.01000198,-0.01000198,-0.01000198,-0.00245476,-0.00245476,-0.00245476,0
5423,19963678,-0.02199237,-0.02199237,-0.00974996,-0.00974996,-0.00974996,-0.00128078,-0.00128078,-0.00128078,0
5503,20063638,-0.0217175,-0.0217175,-0.00952111,-0.00952111,-0.00952111,-0.00108242,-0.00108242,-0.00108242,0
5582,20163598,-0.02144099,-0.02144099,-0.00927545,-0.00927545,-0.00927545,-0.00112915,-0.00112915,-0.00112915,0
5665,20263558,-0.02116803,-0.02116803,-0.00913127,-0.00913127,-0.00913127,-0.00094795,-0.00094795,-0.00094795,0
5745,20363518,-0.02089754,-0.02089754,-0.00895673,-0.00895673,-0.00895673,-0.00116062,-0.00116062,-0.00116062,0
5825,20463478,-0.02063077,-0.02063077,-0.00879341,-0.00879341,-0.00879341,-0.00142574,-0.00142574,-0.00142574,0
5904,20563438,-0.02036777,-0.02036777,-0.00866734,-0.00866734,-0.00866734,-0.00218487,-0.00218487,-0.00218487,0
5983,20663398,-0.02011272,-0.02011272,-0.00851474,-0.00851474,-0.00851474,-0.00116253,-0.00116253,-0.00116253,0
6064,20763358,-0.01986233,-0.01986233,-0.00838581,-0.00838581,-0.00838581,-0.00210381,-0.00210381,-0.00210381,0
6143,20863318,-0.01962161,-0.01962161,-0.00829933,-0.00829933,-0.00829933,-0.00097275,-0.00097275,-0.00097275,0
6223,20963278,-0.01938725,-0.01938725,-0.00811996,-0.00811996,-0.00811996,-0.00042534,-0.00042534,-0.00042534,0
6303,21064071,-0.01915547,-0.01915547,-0.00802341,-0.00802341,-0.00802341,-0.00066566,-0.00066566,-0.00066566,0
6382,21164031,-0.01893141,-0.01893141,-0.00792158,-0.00792158,-0.00792158,-0.00148392,-0.00148392,-0.00148392,0
6465,21263991,-0.01871012,-0.01871012,-0.00771486,-0.00771486,-0.00771486,0.0005827,0.0005827,0.0005827,0
6545,21363951,-0.01849629,-0.01849629,-0.00762751,-0.00762751,-0.00762751,-0.00198364,-0.00198364,-0.00198364,0
6625,21463911,-0.01828201,-0.01828201,-0.00750903,-0.00750903,-0.00750903,-0.00146866,-0.00146866,-0.00146866,0
6704,21563871,-0.01807014,-0.01807014,-0.00736138,-0.00736138,-0.00736138,-0.00020599,-0.00020599,-0.00020599,0
6783,21663831,-0.01786079,-0.01786079,-0.0072595,-0.0072595,-0.0072595,-0.00160027,-0.00160027,-0.00160027,0
6864,21763791,-0.01765634,-0.01765634,-0.00712748,-0.00712748,-0.00712748,-0.00039005,-0.00039005,-0.00039005,0
6943,21863751,-0.01745656,-0.01745656,-0.00707037,-0.00707037,-0.00707037,-0.00109291,-0.00109291,-0.00109291,0
7023,21963711,-0.01726629,-0.01726629,-0.00700562,-0.00700562,-0.00700562,-0.00104237,-0.00104237,-0.00104237,0
7102,22063671,-0.01708205,-0.01708205,-0.00692982,-0.00692982,-0.00692982,-0.00106144,-0.00106144,-0.00106144,0
7182,22163631,-0.01690294,-0.01690294,-0.00684609,-0.00684609,-0.00684609,-0.00189972,-0.00189972,-0.00189972,0
7265,22263591,-0.01672704,-0.01672704,-0.00670362,-0.00670362,-0.00670362,-0.0002737,-0.0002737,-0.0002737,0
7346,22363551,-0.01655252,-0.01655252,-0.00663129,-0.00663129,-0.00663129,-0.00170517,-0.00170517,-0.00170517,0
7426,22463511,-0.01638143,-0.01638143,-0.0065227,-0.0065227,-0.0065227,-0.00020885,-0.00020885,-0.00020885,0
7505,22563471,-0.01620822,-0.01620822,-0.00639284,-0.00639284,-0.00639284,-0.00118828,-0.00118828,-0.00118828,0
7584,22663431,-0.01604257,-0.01604257,-0.0062799,-0.0062799,-0.0062799,0.00001907,0.00001907,0.00001907,0
7665,22763391,-0.01587254,-0.01587254,-0.00615048,-0.00615048,-0.00615048,0.00007725,0.00007725,0.00007725,0
7744,22863351,-0.01573444,-0.01573444,-0.00604715,-0.00604715,-0.00604715,-0.00060081,-0.00060081,-0.00060081,0
7823,22963311,-0.01558573,-0.01558573,-0.00599115,-0.00599115,-0.00599115,-0.00002766,-0.00002766,-0.00002766,0
7903,23063271,-0.01543131,-0.01543131,-0.00590071,-0.00590071,-0.00590071,-0.00028896,-0.00028896,-0.00028896,0
7983,23164064,-0.01527303,-0.01527303,-0.00582557,-0.00582557,-0.00582557,0.00031853,0.00031853,0.00031853,0
8066,23264024,-0.01511132,-0.01511132,-0.00572989,-0.00572989,-0.00572989,0.00006676,0.00006676,0.00006676,0
8146,23363984,-0.01494822,-0.01494822,-0.00565484,-0.00565484,-0.00565484,-0.00070572,-0.00070572,-0.00070572,0
8225,23463944,-0.01478595,-0.01478595,-0.00552683,-0.00552683,-0.00552683,-0.00034142,-0.00034142,-0.00034142,0
8305,23563904,-0.0146204,-0.0146204,-0.00547829,-0.00547829,-0.00547829,-0.00140953,-0.00140953,-0.00140953,0
8384,23663864,-0.01445771,-0.01445771,-0.00541779,-0.00541779,-0.00541779,-0.00234604,-0.00234604,-0.00234604,0
8465,23763824,-0.01429893,-0.01429893,-0.00533517,-0.00533517,-0.00533517,-0.00057125,-0.00057125,-0.00057125,0
8544,23863784,-0.01414034,-0.01414034,-0.00522734,-0.00522734,-0.00522734,-0.0009594,-0.0009594,-0.0009594,0
8623,23963744,-0.01398336,-0.01398336,-0.00518646,-0.00518646,-0.00518646,-0.00145531,-0.00145531,-0.00145531,0
8703,24063704,-0.01383046,-0.01383046,-0.00512873,-0.00512873,-0.00512873,-0.00121307,-0.00121307,-0.00121307,0
8783,24163664,-0.01368039,-0.01368039,-0.00506937,-0.00506937,-0.00506937,-0.00139523,-0.00139523,-0.00139523,0
8866,24263624,-0.0135301,-0.0135301,-0.00492929,-0.00492929,-0.00492929,0.00013733,0.00013733,0.00013733,0
8946,24363584,-0.01338042,-0.01338042,-0.00488841,-0.00488841,-0.00488841,-0.00115776,-0.00115776,-0.00115776,0
9025,24463544,-0.01323169,-0.01323169,-0.00478644,-0.00478644,-0.00478644,-0.00101948,-0.00101948,-0.00101948,0
9105,24563504,-0.01308448,-0.01308448,-0.00473834,-0.00473834,-0.00473834,-0.0006218,-0.0006218,-0.0006218,0
9184,24663464,-0.01293865,-0.01293865,-0.00466081,-0.00466081,-0.00466081,-0.00033188,-0.00033188,-0.00033188,0
9265,24763424,-0.01279948,-0.01279948,-0.00464741,-0.00464741,-0.00464741,-0.00109005,-0.00109005,-0.00109005,0
9344,24863384,-0.01266349,-0.01266349,-0.00458785,-0.00458785,-0.00458785,-0.00069237,-0.00069237,-0.00069237,0
9424,24963344,-0.01252943,-0.01252943,-0.00456177,-0.00456177,-0.00456177,-0.00152492,-0.00152492,-0.00152492,0
9504,25063304,-0.01239667,-0.01239667,-0.00442934,-0.00442934,-0.00442934,0.00059032,0.00059032,0.00059032,0
9584,25163264,-0.01226206,-0.01226206,-0.00439112,-0.00439112,-0.00439112,-0.00028419,-0.00028419,-0.00028419,0
9667,25264057,-0.0121275,-0.0121275,-0.00433029,-0.00433029,-0.00433029,-0.00115776,-0.00115776,-0.00115776,0
9747,25364017,-0.01199628,-0.01199628,-0.00425711,-0.00425711,-0.00425711,0.00047016,0.00047016,0.00047016,0
9826,25463977,-0.01186302,-0.01186302,-0.00417097,-0.00417097,-0.00417097,-0.00054455,-0.00054455,-0.00054455,0
9906,25563937,-0.0117333,-0.0117333,-0.00411733,-0.00411733,-0.00411733,-0.0002203,-0.0002203,-0.0002203,0
9985,25663897,-0.01159807,-0.01159807,-0.00404113,-0.00404113,-0.00404113,-0.0009613,-0.0009613,-0.0009613,0
10066,25763857,-0.01146335,-0.01146335,-0.00394449,-0.00394449,-0.00394449,0.00041866,0.00041866,0.00041866,0
10145,25863817,-0.01132804,-0.01132804,-0.00389113,-0.00389113,-0.00389113,-0.00026226,-0.00026226,-0.00026226,0
10224,25963777,-0.01119112,-0.01119112,-0.00378869,-0.00378869,-0.00378869,-0.00029278,-0.00029278,-0.00029278,0
10304,26063737,-0.01105256,-0.01105256,-0.00371653,-0.00371653,-0.00371653,-0.00034809,-0.00034809,-0.00034809,0
10384,26163697,-0.01091383,-0.01091383,-0.00365164,-0.00365164,-0.00365164,-0.00019169,-0.00019169,-0.00019169,0
10467,26263657,-0.01077522,-0.01077522,-0.00359739,-0.00359739,-0.00359739,-0.00023174,-0.00023174,-0.00023174,0
10547,26363617,-0.01063768,-0.01063768,-0.0035195,-0.0035195,-0.0035195,0.00037098,0.00037098,0.00037098,0
10626,26463577,-0.01050017,-0.01050017,-0.00349873,-0.00349873,-0.00349873,-0.00079632,-0.00079632,-0.00079632,0
10706,26563537,-0.01036763,-0.01036763,-0.00347852,-0.00347852,-0.00347852,-0.00082397,-0.00082397,-0.00082397,0
10785,26663497,-0.01023619,-0.01023619,-0.00339973,-0.00339973,-0.00339973,0.00048923,0.00048923,0.00048923,0
10866,26763457,-0.01010583,-0.01010583,-0.00336478,-0.00336478,-0.00336478,-0.00071907,-0.00071907,-0.00071907,0
10945,26863417,-0.00997846,-0.00997846,-0.00329344,-0.00329344,-0.00329344,-0.00100803,-0.00100803,-0.00100803,0
11024,26963377,-0.00985042,-0.00985042,-0.00321989,-0.00321989,-0.00321989,-0.00011444,-0.00011444,-0.00011444,0
11104,27063337,-0.00971904,-0.00971904,-0.00312955,-0.00312955,-0.00312955,0.00123024,0.00123024,0.00123024,0
11184,27163297,-0.00958448,-0.00958448,-0.00306634,-0.00306634,-0.00306634,-0.00104713,-0.00104713,-0.00104713,0
11267,27264090,-0.00944839,-0.00944839,-0.00298183,-0.00298183,-0.00298183,0.00015736,0.00015736,0.00015736,0
11347,27364050,-0.00931015,-0.00931015,-0.00291938,-0.00291938,-0.00291938,-0.00056362,-0.00056362,-0.00056362,0
11426,27464010,-0.00916981,-0.00916981,-0.00280552,-0.00280552,-0.00280552,0.00034714,0.00034714,0.00034714,0
11506,27563970,-0.00902762,-0.00902762,-0.00272342,-0.00272342,-0.00272342,0.0004282,0.0004282,0.0004282,0
11585,27663930,-0.00888452,-0.00888452,-0.00267699,-0.00267699,-0.00267699,-0.00140953,-0.00140953,-0.00140953,0
11666,27763890,-0.00873861,-0.00873861,-0.00258874,-0.00258874,-0.00258874,-0.00038719,-0.00038719,-0.00038719,0
11745,27863850,-0.00859101,-0.00859101,-0.00249603,-0.00249603,-0.00249603,-0.00062656,-0.00062656,-0.00062656,0
11824,27963810,-0.00844396,-0.00844396,-0.0024548,-0.0024548,-0.0024548,-0.00038433,-0.00038433,-0.00038433,0
11904,28063770,-0.00830028,-0.00830028,-0.00242974,-0.00242974,-0.00242974,-0.00014114,-0.00014114,-0.00014114,0
11984,28163730,-0.00815867,-0.00815867,-0.00238058,-0.00238058,-0.00238058,0.00020409,0.00020409,0.00020409,0
12067,28263690,-0.00801827,-0.00801827,-0.00233347,-0.00233347,-0.00233347,-0.00019264,-0.00019264,-0.00019264,0
12147,28363650,-0.00787912,-0.00787912,-0.00227723,-0.00227723,-0.00227723,-0.00057125,-0.00057125,-0.00057125,0
12226,28463610,-0.00774285,-0.00774285,-0.00224877,-0.00224877,-0.00224877,-0.00030518,-0.00030518,-0.00030518,0
12306,28563570,-0.00760888,-0.00760888,-0.00220798,-0.00220798,-0.00220798,-0.0004797,-0.0004797,-0.0004797,0
12385,28663530,-0.00747501,-0.00747501,-0.00214077,-0.00214077,-0.00214077,-0.00011539,-0.00011539,-0.00011539,0
12466,28763490,-0.00734173,-0.00734173,-0.00208828,-0.00208828,-0.00208828,0.00002861,0.00002861,0.00002861,0
12545,28863450,-0.00720927,-0.00720927,-0.00203978,-0.00203978,-0.00203978,-0.0001955,-0.0001955,-0.0001955,0
12624,28963410,-0.00707748,-0.00707748,-0.00199475,-0.00199475,-0.00199475,0.00024223,0.00024223,0.00024223,0
12704,29063370,-0.00694909,-0.00694909,-0.0019624,-0.0019624,-0.0019624,0.00018311,0.00018311,0.00018311,0
12784,29163330,-0.00682194,-0.00682194,-0.0018854,-0.0018854,-0.0018854,0.00109577,0.00109577,0.00109577,0
12867,29263290,-0.0066935,-0.0066935,-0.00185194,-0.00185194,-0.00185194,0.00005436,0.00005436,0.00005436,0
12947,29364083,-0.00656576,-0.00656576,-0.00181927,-0.00181927,-0.00181927,-0.00140095,-0.00140095,-0.00140095,0
13026,29464043,-0.00644268,-0.00644268,-0.00181456,-0.00181456,-0.00181456,-0.00048256,-0.00048256,-0.00048256,0
13106,29564003,-0.00632426,-0.00632426,-0.00179866,-0.00179866,-0.00179866,-0.00073433,-0.00073433,-0.00073433,0
13185,29663963,-0.00620763,-0.00620763,-0.00171601,-0.00171601,-0.00171601,-0.00010395,-0.00010395,-0.00010395,0
13310,45963274,-0.00015068,-0.00015068,-0.00016817,-0.00016817,-0.00016817,0.00056362,0.00056362,0.00056362,0
13389,46064067,-0.00016033,-0.00016033,-0.00021007,-0.00021007,-0.00021007,-0.00146675,-0.00146675,-0.00146675,0
13473,46164027,-0.00017153,-0.00017153,-0.00021847,-0.00021847,-0.00021847,-0.00027084,-0.00027084,-0.00027084,0
13559,46263987,-0.00018403,-0.00018403,-0.00020042,-0.00020042,-0.00020042,0.00036716,0.00036716,0.00036716,0
13642,46363947,-0.00019415,-0.00019415,-0.00022773,-0.00022773,-0.00022773,-0.00034904,-0.00034904,-0.00034904,0
13728,46463907,-0.00021107,-0.00021107,-0.00028525,-0.00028525,-0.00028525,-0.00054455,-0.00054455,-0.00054455,0
13815,46563867,-0.00022794,-0.00022794,-0.00032285,-0.00032285,-0.00032285,-0.00077534,-0.00077534,-0.00077534,0
13900,46663827,-0.00025235,-0.00025235,-0.00035397,-0.00035397,-0.00035397,-0.00085163,-0.00085163,-0.00085163,0
13986,46763787,-0.0002726,-0.0002726,-0.00037724,-0.00037724,-0.00037724,-0.0002203,-0.0002203,-0.0002203,0
14071,46863747,-0.00029793,-0.00029793,-0.00039682,-0.00039682,-0.00039682,-0.00041103,-0.00041103,-0.00041103,0
14158,46963707,-0.00031604,-0.00031604,-0.000416,-0.000416,-0.000416,-0.00089264,-0.00089264,-0.00089264,0
14243,47063667,-0.00034256,-0.00034256,-0.00045277,-0.00045277,-0.00045277,-0.00026131,-0.00026131,-0.00026131,0
14329,47163627,-0.00036013,-0.00036013,-0.00044018,-0.00044018,-0.00044018,-0.00037193,-0.00037193,-0.00037193,0
14417,47263587,-0.00038306,-0.00038306,-0.00047223,-0.00047223,-0.00047223,-0.00121689,-0.00121689,-0.00121689,0
14502,47363547,-0.00039782,-0.00039782,-0.0004639,-0.0004639,-0.0004639,-0.00020218,-0.00020218,-0.00020218,0
14590,47463507,-0.0004152,-0.0004152,-0.00041812,-0.00041812,-0.00041812,0.00004292,0.00004292,0.00004292,0
14675,47563467,-0.00041976,-0.00041976,-0.0004189,-0.0004189,-0.0004189,-0.00012779,-0.00012779,-0.00012779,0
14760,47663427,-0.00043374,-0.00043374,-0.00042064,-0.00042064,-0.00042064,0.00018024,0.00018024,0.00018024,0
14846,47763387,-0.00043773,-0.00043773,-0.00039543,-0.00039543,-0.00039543,0.00032425,0.00032425,0.00032425,0
14931,47863347,-0.00044434,-0.00044434,-0.00034631,-0.00034631,-0.00034631,0.00036907,0.00036907,0.00036907,0
15019,47963307,-0.00044047,-0.00044047,-0.0003693,-0.0003693,-0.0003693,-0.00032806,-0.00032806,-0.00032806,0
15108,48063267,-0.00044558,-0.00044558,-0.00035057,-0.00035057,-0.00035057,0.00037193,0.00037193,0.00037193,0
15198,48164060,-0.00044188,-0.00044188,-0.00030874,-0.00030874,-0.00030874,-0.00049305,-0.00049305,-0.00049305,0
15290,48264020,-0.00044707,-0.00044707,-0.00037991,-0.00037991,-0.00037991,-0.00099277,-0.00099277,-0.00099277,0
15379,48363980,-0.00045331,-0.00045331,-0.00042218,-0.00042218,-0.00042218,-0.00057983,-0.00057983,-0.00057983,0
15472,48463940,-0.00053373,-0.00047105,-0.00007082,-0.0001335,-0.00043361,-0.00373813,-0.00212683,0.00117969,0
15561,48563900,-0.00060144,-0.0004799,-0.00190601,-0.00202755,-0.00044904,-0.04121734,-0.04485948,0.00027466,0
15650,48663860,-0.00109435,-0.00049658,-0.0095595,-0.01015727,-0.00045234,-0.122102,-0.1552708,0.0002203,0
15740,48763820,-0.00266376,-0.00050029,-0.02538409,-0.02754757,-0.00041265,-0.2156524,-0.3209789,-0.00019073,0
15829,48863780,-0.00596605,-0.00051412,-0.04898559,-0.05443753,-0.0004768,-0.3061191,-0.5307001,-0.00053883,0
15920,48963740,-0.0115207,-0.00051875,-0.0795244,-0.09052635,-0.00047521,-0.3934291,-0.7838964,-0.00087452,0
16009,49063700,-0.01971976,-0.00052959,-0.1162328,-0.135423,-0.00041934,-0.4777063,-1.078899,0.00034523,0
16099,49163660,-0.03084783,-0.00052532,-0.1584106,-0.1887331,-0.00041357,-0.5590696,-1.413691,-0.00070286,0
16191,49263620,-0.0450994,-0.00053385,-0.2054195,-0.249985,-0.00046655,-0.6376334,-1.785749,-0.00014782,0
16280,49363580,-0.06259362,-0.00053561,-0.2566778,-0.3187358,-0.00044642,-0.7135075,-2.193569,0.00020409,0
16372,49463540,-0.08338737,-0.00054973,-0.3116564,-0.394494,-0.00049678,-0.7867972,-2.634448,0.00005341,0
16461,49563500,-0.1074864,-0.00055356,-0.369874,-0.4768068,-0.00049999,-0.8576002,-3.106466,-0.00022984,0
16550,49663460,-0.1348536,-0.00056765,-0.430819,-0.5651049,-0.00048894,-0.9221357,-3.603176,0.00050354,0
16640,49763420,-0.1653976,-0.00056783,-0.4934517,-0.6582816,-0.00047372,-0.9686635,-4.108401,-0.00043392,0
16729,49863380,-0.1989423,-0.00104547,-0.5562567,-0.7541535,-0.02412911,-0.9927878,-4.55866,-0.6529083,0
16820,49963340,-0.2352286,-0.00795518,-0.6178989,-0.8451723,-0.1180198,-0.9996993,-4.643186,-0.9594278,0
16909,50063300,-0.2739532,-0.02461259,-0.6776766,-0.9270171,-0.2154947,-0.9999999,-4.581885,-0.925992,0
16999,50163260,-0.3148131,-0.04995512,-0.7355034,-1.000361,-0.3064306,-0.9999999,-4.493752,-0.8635072,0
17091,50264053,-0.3575971,-0.08400272,-0.7915387,-1.065133,-0.3900091,-0.9999999,-4.405242,-0.8102121,0
17180,50364013,-0.4023243,-0.1244588,-0.8461606,-1.124026,-0.5324945,-0.9999999,-4.214493,-3.264893,0
17272,50463973,-0.4495873,-0.2007912,-0.9002853,-1.149081,-1.03999,-0.9999999,-2.273456,-4.727391,0
17361,50563933,-0.5010459,-0.3195809,-0.9557357,-1.137201,-1.338971,-0.9999999,-0.3994419,-1.828599,0
17450,50663893,-0.5573471,-0.4546584,-1.012933,-1.115622,-1.395942,-0.9999999,0.2983965,-0.304841,0
17540,50763853,-0.6187187,-0.5784557,-1.07181,-1.112073,-1.351414,-0.9999999,0.2716728,0.5300484,0
17629,50863813,-0.685382,-0.7015134,-1.1323,-1.116168,-1.294735,-0.9999999,-0.01419197,0.45961,0
17720,50963773,-0.7575539,-0.824872,-1.194339,-1.127021,-1.264989,-0.9999999,-0.2569235,0.1497908,0
17810,51063733,-0.8354474,-0.9502872,-1.257869,-1.143029,-1.26493,-0.9999999,-0.3711684,-0.1196756,0
17900,51163693,-0.9192685,-1.081029,-1.322829,-1.161068,-1.284723,-0.9999999,-0.3828464,-0.196043,0
17992,51263653,-1.009218,-1.215316,-1.389163,-1.183065,-1.307554,-0.9999999,-0.3768533,-0.2441607,0
18081,51363613,-1.105491,-1.352849,-1.456818,-1.20946,-1.329586,-0.9999999,-0.3941368,-0.2468491,0
18173,51463573,-1.208276,-1.493096,-1.525743,-1.240922,-1.352977,-0.9999999,-0.4299495,-0.2552719,0
18262,51563533,-1.317757,-1.635888,-1.595886,-1.277755,-1.378031,-0.9999999,-0.479836,-0.2284851,0
18351,51663493,-1.43411,-1.781599,-1.667201,-1.319711,-1.40972,-0.9999999,-0.5392956,-0.3468208,0
18441,51763453,-1.557505,-1.930403,-1.739641,-1.366743,-1.443911,-0.9999999,-0.5959262,-0.3563328,0
18530,51863413,-1.688108,-2.083034,-1.813161,-1.418236,-1.484921,-0.9999999,-0.6487188,-0.3895931,0
18621,51963373,-1.826077,-2.239591,-1.887717,-1.474202,-1.529944,-0.9995133,-0.7013275,-0.4430647,0
18710,52063333,-1.971554,-2.40114,-1.96292,-1.533334,-1.581224,-0.9876199,-0.7325993,-0.4810591,0
18801,52163293,-2.124611,-2.567337,-2.037195,-1.594469,-1.634415,-0.9487618,-0.7378233,-0.5461807,0
18893,52264086,-2.285151,-2.739007,-2.108233,-1.654378,-1.687819,-0.8824464,-0.7047984,-0.5607748,0
18984,52364046,-2.452901,-2.915492,-2.174304,-1.711713,-1.739658,-0.8044434,-0.6515874,-0.4913568,0
19078,52464006,-2.627486,-3.097391,-2.23486,-1.764956,-1.790318,-0.7252699,-0.5897804,-0.541646,0
19167,52563966,-2.808489,-3.284846,-2.289676,-1.813319,-1.835135,-0.6452795,-0.5287531,-0.4195614,0
19256,52663926,-2.995455,-3.475369,-2.338536,-1.858622,-1.878847,-0.5645044,-0.461135,-0.4616852,0
19346,52763886,-3.187902,-3.66965,-2.381237,-1.899488,-1.918394,-0.4829744,-0.3862046,-0.3922405,0
19435,52863846,-3.385309,-3.867952,-2.41758,-1.934938,-1.951587,-0.4007205,-0.3133602,-0.3348932,0
19526,52963806,-3.587133,-4.069144,-2.44738,-1.965369,-1.980909,-0.31777,-0.2362084,-0.2643051,0
19615,53063766,-3.792794,-4.27345,-2.470456,-1.989799,-2.007021,-0.234151,-0.1521695,-0.2681398,0
19705,53163726,-4.001689,-4.479916,-2.486635,-2.008409,-2.025184,-0.1498897,-0.06437176,-0.1392822,0
19797,53263686,-4.213193,-4.688408,-2.495872,-2.020657,-2.039521,-0.07040265,0.02285994,-0.1030092,0
19886,53363646,-4.426702,-4.897722,-2.499395,-2.028375,-2.045628,-0.01811476,0.06937492,-0.08303928,0
19978,53463606,-4.641791,-5.107789,-2.499992,-2.033994,-2.047413,-0.00074429,0.06944672,0.02048206,0
20068,53563566,-4.858266,-5.318096,-2.5,-2.04017,-2.049629,0,0.05212391,-0.01238441,0
20157,53663526,-5.076056,-5.528949,-2.5,-2.047107,-2.052628,0,0.03241985,-0.01534271,0
20247,53763486,-5.29511,-5.740063,-2.5,-2.055047,-2.055176,0,0.00577972,-0.01749992,0
20336,53863446,-5.515378,-5.951676,-2.5,-2.063701,-2.059794,0,-0.01339909,-0.02939415,0
20427,53963406,-5.736813,-6.163621,-2.5,-2.073191,-2.065132,0,-0.03329092,-0.06687641,0
20516,54063366,-5.959366,-6.376224,-2.5,-2.083141,-2.070039,0,-0.05711689,-0.0225687,0
20606,54163326,-6.182999,-6.589272,-2.5,-2.093727,-2.077939,0,-0.07381575,-0.07774734,0
20698,54263286,-6.407664,-6.803157,-2.5,-2.104507,-2.08597,0,-0.09040487,-0.0581646,0
20787,54364079,-6.633324,-7.017705,-2.5,-2.115619,-2.094994,0,-0.09657773,-0.09072399,0
20879,54464039,-6.85994,-7.233284,-2.5,-2.126656,-2.102575,0,-0.1090872,-0.05314445,0
20969,54563999,-7.087471,-7.449501,-2.5,-2.13797,-2.113504,0,-0.114499,-0.07862568,0
21058,54663959,-7.315886,-7.668597,-2.5,-2.147288,-2.123115,0,-0.1192775,-0.1012459,0
21147,54763919,-7.545145,-7.886552,-2.5,-2.158592,-2.133243,0,-0.1255092,-0.1343098,0
21237,54863879,-7.775218,-8.105731,-2.5,-2.169487,-2.143324,0,-0.1293378,-0.09473419,0
21328,54963839,-8.006073,-8.325644,-2.5,-2.180429,-2.155596,0,-0.1277689,-0.1328354,0
21417,55063799,-8.23768,-8.546904,-2.5,-2.190777,-2.164725,0,-0.1264824,-0.06820965,0
21507,55163759,-8.470009,-8.768852,-2.5,-2.201157,-2.177171,0,-0.1238788,-0.09961987,0
21598,55263719,-8.703031,-8.992192,-2.5,-2.210838,-2.187382,0,-0.1214639,-0.1039362,0
21688,55363679,-8.936717,-9.216306,-2.5,-2.220411,-2.199675,0,-0.1100785,-0.1463451,0
21781,55463639,-9.171042,-9.441797,-2.5,-2.229246,-2.209522,0,-0.1023239,-0.1082811,0
21870,55563599,-9.405984,-9.667925,-2.5,-2.238059,-2.218138,0,-0.1025357,-0.06960678,0
21959,55663559,-9.641517,-9.895155,-2.5,-2.246362,-2.225863,0,-0.1063493,-0.05161476,0
22048,55763519,-9.877617,-10.1228,-2.5,-2.254814,-2.234687,0,-0.1035242,-0.0231657,0
22138,55863479,-10.11426,-10.35171,-2.5,-2.262548,-2.244479,0,-0.09574281,-0.08689404,0
22229,55963439,-10.35143,-10.58101,-2.5,-2.270422,-2.253259,0,-0.08688668,-0.07628918,0
22318,56063399,-10.5891,-10.81148,-2.5,-2.277627,-2.260907,0,-0.08240597,-0.06864071,0
22409,56163359,-10.82726,-11.04235,-2.5,-2.284913,-2.269358,0,-0.08025207,-0.1138353,0
22500,56263319,-11.06588,-11.27437,-2.5,-2.291515,-2.275631,0,-0.07850602,-0.0325079,0
22590,56363279,-11.30495,-11.50682,-2.5,-2.298132,-2.28408,0,-0.07056627,-0.1080971,0
22683,56464072,-11.54445,-11.74041,-2.5,-2.304034,-2.291531,0,-0.06201227,-0.06700325,0
22772,56564032,-11.78435,-11.97429,-2.5,-2.31006,-2.296415,0,-0.06198347,-0.05726528,0
22861,56663992,-12.02466,-12.20919,-2.5,-2.315471,-2.303582,0,-0.05870724,-0.119072,0
22950,56763952,-12.26534,-12.44627,-2.5,-2.319073,-2.311061,0,-0.04330217,-0.05826473,0
23040,56863912,-12.50639,-12.68238,-2.5,-2.324008,-2.315569,0,-0.04194595,-0.03663349,0
23131,56963872,-12.74779,-12.9184,-2.5,-2.32939,-2.31933,0,-0.04527735,-0.01118851,0
23220,57063832,-12.98953,-13.1552,-2.5,-2.334331,-2.323368,0,-0.05229747,-0.02822399,0
23310,57163792,-13.23159,-13.39197,-2.5,-2.33962,-2.330098,0,-0.04984082,-0.07884312,0
23401,57263752,-13.47397,-13.62962,-2.5,-2.344344,-2.333455,0,-0.05346911,-0.0463953,0
23491,57363712,-13.71664,-13.86721,-2.5,-2.349431,-2.338603,0,-0.05461045,-0.07152271,0
23584,57463672,-13.9596,-14.10576,-2.5,-2.353837,-2.343836,0,-0.05147526,-0.08085346,0
23673,57563632,-14.20284,-14.34437,-2.5,-2.358473,-2.349929,0,-0.04773679,-0.09435558,0
23762,57663592,-14.44634,-14.58402,-2.5,-2.36232,-2.35383,0,-0.04507175,0.00411797,0
23851,57763552,-14.6901,-14.82346,-2.5,-2.366638,-2.357015,0,-0.05078118,-0.04100132,0
23941,57863512,-14.9341,-15.0638,-2.5,-2.370296,-2.362277,0,-0.04616889,-0.06211853,0
24032,57963472,-15.17834,-15.30399,-2.5,-2.374343,-2.366464,0,-0.04546143,-0.05890846,0
24121,58063432,-15.4228,-15.5458,-2.499949,-2.37695,-2.371486,0.00293963,-0.02904068,-0.04165649,0
24211,58163392,-15.66743,-15.78672,-2.498395,-2.3791,-2.373318,0.03650405,0.00769977,0.02099991,0
24302,58263352,-15.91188,-16.02897,-2.491266,-2.37417,-2.374874,0.1153405,0.105085,0.01845455,0
24392,58363312,-16.1554,-16.27038,-2.475188,-2.360204,-2.368405,0.2129852,0.2381888,0.07317448,0
24485,58463272,-16.39706,-16.51158,-2.449478,-2.334965,-2.353607,0.3110982,0.3827823,0.158452,0
24574,58564065,-16.63591,-16.75031,-2.414112,-2.299718,-2.328036,0.4092855,0.5385654,0.3322563,0
24663,58664025,-16.87098,-16.98669,-2.369069,-2.253361,-2.292638,0.5075425,0.6898783,0.4458818,0
24752,58763985,-17.10131,-17.21857,-2.314331,-2.197071,-2.248768,0.6058682,0.8457918,0.4777508,0
24842,58863945,-17.32594,-17.44795,-2.249876,-2.127865,-2.193697,0.7042624,1.007242,0.5510645,0
24933,58963905,-17.54387,-17.66902,-2.175691,-2.050551,-2.124169,0.8027168,1.156521,0.7743015,0
25022,59063865,-17.75416,-17.88315,-2.091774,-1.962787,-2.043928,0.900021,1.293875,0.8926401,0
25112,59163825,-17.95585,-18.08858,-1.999122,-1.866395,-1.954616,0.9726498,1.401207,0.949626,0
25203,59263785,-18.14823,-18.28492,-1.901547,-1.764862,-1.856144,0.9987652,1.451972,1.057937,0
25293,59363745,-18.33101,-18.47092,-1.802881,-1.662974,-1.752413,0.9999999,1.448179,1.034628,0
25386,59463705,-18.50415,-18.64648,-1.704144,-1.561817,-1.64611,0.9999999,1.427716,1.054348,0
25475,59563665,-18.66761,-18.8114,-1.605359,-1.461575,-1.539282,0.9999999,1.398272,1.109253,0
25564,59663625,-18.82139,-18.96544,-1.506529,-1.36248,-1.432352,0.9999999,1.358052,1.08592,0
25653,59763585,-18.96546,-19.10863,-1.40765,-1.264481,-1.324407,0.9999999,1.312916,1.078545,0
25743,59863545,-19.09982,-19.24104,-1.308726,-1.167505,-1.220473,0.9999999,1.280061,1.111595,0
25834,59963505,-19.22444,-19.36275,-1.209761,-1.07145,-1.118662,0.9999999,1.246125,1.061453,0
25923,60063465,-19.33932,-19.47378,-1.110755,-0.9762874,-1.014714,0.9999999,1.204022,1.043254,0
26013,60163425,-19.44442,-19.57427,-1.01171,-0.8818617,-0.915177,0.9999999,1.171159,0.992815,0
26104,60263385,-19.53976,-19.6645,-0.9126284,-0.7878835,-0.8153352,0.9999999,1.145941,0.9998207,0
26194,60363345,-19.6253,-19.74435,-0.8135111,-0.6944669,-0.7168074,0.9999999,1.122864,1.068224,0
26288,60463305,-19.81403,-19.81403,-0.6198878,-0.6198878,-0.6198878,1,1,1.005937,0
26377,60563265,-19.87182,-19.87386,-0.5442628,-0.5422217,-0.5381775,0.5,0.4915827,0.7030048,0
26466,60664058,-19.92447,-19.92677,-0.5132835,-0.5109849,-0.4859527,0.2818708,0.1911451,0.5011482,0
26555,60764018,-19.97414,-19.97433,-0.4778561,-0.4776694,-0.440358,0.4151573,0.2444238,0.4492941,0
26645,60863978,-20.01973,-20.01688,-0.4329168,-0.4357696,-0.3936753,0.4754045,0.2688307,0.4628963,0
26736,60963938,-20.05959,-20.05387,-0.3847422,-0.3904611,-0.3500066,0.4836411,0.2781529,0.4445705,0
26825,61063898,-20.09566,-20.08626,-0.3368664,-0.3462671,-0.3094026,0.4696954,0.277683,0.3707237,0
26915,61163858,-20.12704,-20.11358,-0.291329,-0.3047933,-0.2691784,0.4381495,0.2571866,0.3941536,0
27007,61263818,-20.15405,-20.13712,-0.2494458,-0.2663721,-0.2312973,0.3975119,0.2220997,0.3980093,0
27099,61363778,-20.17708,-20.1561,-0.211833,-0.2328095,-0.1980654,0.3533905,0.1818881,0.3560181,0
27191,61463738,-20.19656,-20.1722,-0.1786544,-0.2030136,-0.1703255,0.309293,0.1429732,0.2336626,0
27280,61563698,-20.21295,-20.18471,-0.1497916,-0.1780289,-0.1441952,0.2674018,0.1000047,0.2410078,0
27369,61663658,-20.22666,-20.19522,-0.12496,-0.1563931,-0.1235022,0.2288994,0.06118242,0.1471415,0
27458,61763618,-20.23779,-20.20286,-0.1038128,-0.1387444,-0.1057305,0.192786,0.02638241,0.149087,0
27548,61863578,-20.24726,-20.20937,-0.0860195,-0.1239101,-0.09171212,0.162974,0.00134293,0.14433,0
27639,61963538,-20.25509,-20.21359,-0.07102225,-0.1125213,-0.07979407,0.136932,-0.02488701,0.05934525,0
27728,62063498,-20.26155,-20.21727,-0.05845382,-0.1027312,-0.07158263,0.1144433,-0.04612245,0.03120518,0
27818,62163458,-20.26673,-20.21916,-0.04798084,-0.09555531,-0.06346384,0.09446897,-0.06414197,0.05363369,0
27909,62263418,-20.27108,-20.22103,-0.03933605,-0.0893922,-0.05993003,0.07845335,-0.07257202,0.01025963,0
28000,62363378,-20.27448,-20.22161,-0.03219674,-0.08505807,-0.05753825,0.0639691,-0.07955347,-0.04811478,0
28092,62463338,-20.2774,-20.22274,-0.02635111,-0.08100443,-0.05589472,0.05297523,-0.07433836,0.01681805,0
28181,62563298,-20.27978,-20.22288,-0.0215186,-0.07841679,-0.05502657,0.04371348,-0.07424119,0.0168581,0
28270,62664091,-20.28172,-20.22369,-0.01753622,-0.07556844,-0.05482635,0.03596909,-0.06918555,-0.02093506,0
28359,62764051,-20.28327,-20.22375,-0.01427479,-0.07379505,-0.05523735,0.02932308,-0.06386732,-0.02212048,0
28449,62864011,-20.28453,-20.22461,-0.01160971,-0.07153524,-0.05710177,0.02386763,-0.05388557,-0.04105091,0
28540,62963971,-20.28547,-20.22489,-0.00946978,-0.07005816,-0.05803374,0.01907775,-0.0432134,-0.01166153,0
28629,63063931,-20.28633,-20.22596,-0.00773056,-0.06810043,-0.05771258,0.01572547,-0.03765966,0.00093365,0
28718,63163891,-20.28703,-20.22617,-0.0062982,-0.06715635,-0.05687569,0.01292815,-0.03693314,0.00751209,0
28810,63263851,-20.2876,-20.2271,-0.00512198,-0.06561881,-0.0560801,0.01061448,-0.03406897,0.0024519,0
28900,63363811,-20.28806,-20.22727,-0.00415835,-0.06494815,-0.05687787,0.00868803,-0.03316292,-0.06848717,0
28992,63463771,-20.28843,-20.22819,-0.00337101,-0.06361882,-0.056295,0.00707358,-0.03025275,0.02367878,0
29081,63563731,-20.28874,-20.22839,-0.00272919,-0.06307953,-0.05521657,0.00577701,-0.03105297,0.00529385,0
29170,63663691,-20.28899,-20.22931,-0.00220657,-0.06188064,-0.05757901,0.00471213,-0.02278539,-0.05108261,0
29259,63763651,-20.28918,-20.22972,-0.00178199,-0.0612461,-0.05764039,0.0037906,-0.01544608,-0.0355444,0
29349,63863611,-20.28933,-20.23087,-0.00144045,-0.05990603,-0.05944614,0.00303629,-0.00516937,-0.05041695,0
29440,63963571,-20.28947,-20.23145,-0.00116275,-0.05918399,-0.05699224,0.00249792,-0.00432698,0.01932907,0
29529,64063531,-20.28956,-20.23255,-0.00093983,-0.05795399,-0.05677316,0.00197548,-0.00535169,-0.05978107,0
29618,64163491,-20.28966,-20.23295,-0.00075912,-0.05747176,-0.05570928,0.00166363,-0.00578268,-0.02588367,0
29710,64263451,-20.28971,-20.23395,-0.00061166,-0.05637459,-0.05587835,0.00127496,-0.00162831,0.01303864,0
29800,64363411,-20.28976,-20.23437,-0.00049814,-0.05588877,-0.05517991,0.0010108,-0.00282367,-0.04843044,0
29892,64463371,-20.28981,-20.23517,-0.00040551,-0.05504296,-0.05247741,0.00085133,-0.01175172,0.00596714,0
29981,64563331,-20.28986,-20.23559,-0.00032559,-0.05459317,-0.05253913,0.00074806,-0.01134282,-0.0187645,0
30070,64663291,-20.2899,-20.23661,-0.0002548,-0.05355314,-0.05299379,0.00067529,-0.00569088,-0.01757431,0
30159,64764084,-20.28991,-20.23713,-0.00019756,-0.05298198,-0.05111281,0.00044157,-0.0070226,0.02281857,0
30249,64864044,-20.28991,-20.2381,-0.00016267,-0.05197297,-0.05058163,0.00026656,-0.00661777,0.01916409,0
30340,64964004,-20.28991,-20.23849,-0.00014161,-0.05156495,-0.04953506,0.00016093,-0.00896568,-0.00824928,0
30429,65063964,-20.28991,-20.23945,-0.0001289,-0.05059399,-0.04974367,0.00009719,-0.00384915,0.0019207,0
30518,65163924,-20.28991,-20.23994,-0.00012122,-0.0500907,-0.0494949,0.00005869,-0.00265931,-0.0136013,0
30610,65263884,-20.28991,-20.24091,-0.00011659,-0.04912293,-0.04835649,0.00003545,-0.00036701,0.04632378,0
30700,65363844,-20.28991,-20.24145,-0.00011379,-0.04858058,-0.04834569,0.0000214,-0.00041768,-0.00739479,0
30792,65463804,-20.28991,-20.24238,-0.0001121,-0.04764261,-0.04699831,0.00001292,-0.00407203,-0.00847149,0
30881,65563764,-20.28991,-20.24298,-0.00011108,-0.04703856,-0.0453073,0.0000078,-0.00506746,0.00578499,0
30970,65663724,-20.28991,-20.24386,-0.00011046,-0.04616392,-0.04425329,0.00000471,-0.00913742,0.00467396,0
31059,65763684,-20.28991,-20.24442,-0.00011009,-0.04559715,-0.0447242,0.00000286,-0.00445716,-0.02729797,0
31149,65863644,-20.28991,-20.24537,-0.00010987,-0.04465088,-0.04497732,0.00000174,-0.00099562,-0.00209045,0
31240,65963604,-20.28991,-20.24608,-0.00010973,-0.04394152,-0.04445633,-0.00000067,0.00172586,0.00575447,0
31329,66063564,-20.28991,-20.24715,-0.00010965,-0.04286722,-0.04173603,0.00000065,-0.00182413,0.0736742,0
31418,66163524,-20.28991,-20.24777,-0.0001096,-0.04225193,-0.04132538,0.00000039,-0.0069238,-0.03676987,0
31510,66263484,-20.28991,-20.24877,-0.00010957,-0.04124971,-0.04021354,0.00000027,-0.00338837,0.02220249,0
31600,66363444,-20.28991,-20.24952,-0.00010955,-0.04049896,-0.0407549,0.00000016,-0.00079605,-0.01237774,0
31693,66463404,-20.28991,-20.25059,-0.00010954,-0.03943083,-0.03990939,0.0000001,0.00011104,-0.02477646,0
31782,66563364,-20.28991,-20.25146,-0.00010954,-0.0385568,-0.03897574,0.00000007,0.00154467,0.00640774,0
31871,66663324,-20.28991,-20.25261,-0.00010953,-0.03741056,-0.03852971,0.00000006,0.00392761,-0.0159111,0
31960,66763284,-20.28991,-20.25351,-0.00010953,-0.03651456,-0.03715273,0.00000006,0.00380212,0.01624107,0
32049,66864077,-20.28991,-20.25452,-0.00010953,-0.03549893,-0.03609795,0.00000004,0.00508825,0.03176403,0
32141,66964037,-20.28991,-20.25531,-0.00010953,-0.03470792,-0.03668623,0.00000004,0.0065689,-0.03010273,0
32230,67063997,-20.28991,-20.25639,-0.00010953,-0.0336276,-0.03542636,0.00000005,0.01080252,0.00954533,0
32319,67163957,-20.28991,-20.25732,-0.00010953,-0.03269742,-0.03603751,0.00000003,0.01358851,-0.05058575,0
32411,67263917,-20.28991,-20.25832,-0.00010953,-0.03169766,-0.0344282,0.00000003,0.01155996,-0.02333069,0
32500,67363877,-20.28991,-20.2591,-0.00010953,-0.03091763,-0.03275879,0.00000002,0.00885608,-0.02570534,0
32593,67463837,-20.28991,-20.25998,-0.00010952,-0.03004482,-0.03161399,0.00000001,0.00776007,0.01467896,0
32682,67563797,-20.28991,-20.26075,-0.00010952,-0.02927334,-0.03181747,0.00000001,0.01105904,0.00654221,0
32771,67663757,-20.28991,-20.26169,-0.00010953,-0.02833341,-0.03143814,0.00000004,0.01216872,-0.00693226,0
32860,67763717,-20.28991,-20.26245,-0.00010953,-0.0275668,-0.02869921,0.00000003,0.0096754,0.03550053,0
32949,67863677,-20.28991,-20.26312,-0.00010952,-0.02689663,-0.02753968,0.00000002,0.00140663,-0.0083189,0
33041,67963637,-20.28991,-20.26361,-0.00010953,-0.0264108,-0.02640996,0.00000004,0.0016185,0.01087952,0
33130,68063597,-20.28991,-20.26416,-0.00010953,-0.02585782,-0.02559793,0.00000002,-0.00229711,-0.00421429,0
33219,68163557,-20.28991,-20.26461,-0.00010953,-0.0254147,-0.02512424,0.00000003,-0.00471561,-0.04964352,0
33311,68263517,-20.28991,-20.26524,-0.00010953,-0.0247775,-0.02483312,0.00000003,-0.00032249,-0.02011871,0
33400,68363477,-20.28991,-20.26576,-0.00010953,-0.02426114,-0.02374694,0.00000005,-0.0000641,0.02652168,0
33493,68463437,-20.28991,-20.26631,-0.00010953,-0.02371549,-0.02406839,0.00000007,0.00026422,-0.00389385,0
33582,68563397,-20.28991,-20.26666,-0.00010953,-0.0233566,-0.02214056,0.00000006,-0.00682658,-0.03787041,0
33671,68663357,-20.28991,-20.26715,-0.00010953,-0.02286832,-0.02417043,0.00000005,-0.00086704,-0.06749916,0
33760,68763317,-20.28991,-20.26771,-0.00010954,-0.0223068,-0.02238543,0.00000008,0.00239577,0.04255295,0
33849,68863277,-20.28991,-20.26835,-0.00010954,-0.02167081,-0.02322684,0.00000007,0.00421798,-0.03577137,0
33941,68964070,-20.28991,-20.26896,-0.00010953,-0.0210568,-0.02168392,0.00000004,0.00558043,0.01885796,0
34030,69064030,-20.28991,-20.26952,-0.00010953,-0.02050504,-0.02124912,0.00000004,0.00249857,-0.00030041,0
34119,69163990,-20.28991,-20.27004,-0.00010953,-0.01998501,-0.02085637,0.00000003,0.00590068,0.04110909,0
34211,69263950,-20.28991,-20.27067,-0.00010952,-0.01934781,-0.02114352,0.00000002,0.00843513,-0.00445175,0
34300,69363910,-20.28991,-20.27134,-0.00010953,-0.01868008,-0.02124294,0.00000002,0.00999033,-0.0410738,0
34393,69463870,-20.28991,-20.27211,-0.00010952,-0.01791592,-0.01961878,0.00000001,0.01216412,0.08893299,0
34482,69563830,-20.28991,-20.27284,-0.00010953,-0.01717984,-0.01973499,0.00000004,0.01474156,0.03668785,0
34571,69663790,-20.28991,-20.27349,-0.00010953,-0.01653653,-0.01904388,0.00000003,0.01013997,-0.04978752,0
34660,69763750,-20.28991,-20.27407,-0.00010952,-0.01595303,-0.01824532,0.00000002,0.01046492,0.02555561,0
34749,69863710,-20.28991,-20.27461,-0.00010953,-0.01541349,-0.016588,0.00000005,0.0066981,-0.0030756,0
34841,69963670,-20.28991,-20.27499,-0.00010953,-0.01503018,-0.01536359,0.00000003,0.00130508,-0.02218246,0
34930,70063630,-20.28991,-20.27533,-0.00010953,-0.01468839,-0.0144919,0.00000004,-0.0017749,-0.056427,0
35019,70163590,-20.28991,-20.27559,-0.00010953,-0.01442837,-0.01452501,0.00000002,-0.00358681,-0.02887917,0
35111,70263550,-20.28991,-20.27588,-0.00010952,-0.01413906,-0.01433855,0.00000001,-0.0032028,-0.0143919,0
35200,70363510,-20.28991,-20.27612,-0.00010953,-0.01390469,-0.01316133,0.00000002,-0.00180006,0.04533195,0
35293,70463470,-20.28991,-20.2764,-0.00010952,-0.01362027,-0.01344559,0.00000001,0.00035611,0.02429295,0
35382,70563430,-20.28991,-20.27663,-0.00010952,-0.01339077,-0.01355006,0.00000001,0.00074722,0.02144432,0
35471,70663390,-20.28991,-20.27685,-0.00010953,-0.01317227,-0.01245506,0.00000003,-0.00243732,0.03659058,0
35560,70763350,-20.28991,-20.27719,-0.00010953,-0.01283658,-0.01347915,0.00000003,-0.00095466,-0.03992653,0
35649,70863310,-20.28991,-20.27765,-0.00010953,-0.01237027,-0.01341096,0.00000003,0.00245862,-0.01875114,0
35741,70963270,-20.28991,-20.27814,-0.00010953,-0.01188199,-0.01258162,0.00000004,0.00235733,0.00764084,0
35830,71064063,-20.28991,-20.27856,-0.00010953,-0.01145963,-0.01132477,0.00000004,-0.00158848,-0.01855373,0
35919,71164023,-20.28991,-20.27887,-0.00010953,-0.01114835,-0.01087369,0.00000004,-0.00372831,0.00259495,0
36011,71263983,-20.28991,-20.27924,-0.00010953,-0.01078214,-0.01096991,0.00000007,-0.00113703,-0.01569653,0
36100,71363943,-20.28991,-20.27958,-0.00010953,-0.01044645,-0.01084862,0.00000005,-0.0005779,-0.00666332,0
36194,71463903,-20.28991,-20.27993,-0.00010953,-0.01009366,-0.01158122,0.00000005,0.00313754,0.00144196,0
36283,71563863,-20.28991,-20.28036,-0.00010953,-0.00966641,-0.01143636,0.00000003,0.00546317,-0.00358868,0
36372,71663823,-20.28991,-20.28093,-0.00010953,-0.0090878,-0.0122944,0.00000005,0.01083877,-0.0217762,0
36461,71763783,-20.28991,-20.28147,-0.00010953,-0.00855557,-0.00923997,0.00000003,0.00620236,0.00204945,0
36550,71863743,-20.28991,-20.28188,-0.00010952,-0.00813809,-0.00944721,0.00000002,0.0048656,-0.01481819,0
36642,71963703,-20.28991,-20.28239,-0.00010953,-0.00762906,-0.00930587,0.00000004,0.00897187,0.00520611,0
36731,72063663,-20.28991,-20.28291,-0.00010953,-0.0071127,-0.00977808,0.00000004,0.01252603,0.00006676,0
36820,72163623,-20.28991,-20.28339,-0.00010953,-0.00663175,-0.0092787,0.00000006,0.01392004,0.02549744,0
36912,72263583,-20.28991,-20.28389,-0.00010953,-0.00613614,-0.0094771,0.00000005,0.01714197,0.0172224,0
37002,72363543,-20.28991,-20.28438,-0.00010953,-0.0056381,-0.00819666,0.00000005,0.01403622,0.03290462,0
37096,72463503,-20.28947,-20.28474,0.01639047,0.01166147,-0.00132055,0.4125,0.4538314,0.1803808,0
37185,72563463,-20.28515,-20.28325,0.0713174,0.06941798,0.0325429,0.4890958,0.6458051,0.4608831,0
37274,72663423,-20.27597,-20.27789,0.108469,0.1103904,0.07020748,0.2645244,0.4616871,0.2601833,0
37363,72763383,-20.26406,-20.26937,0.1273473,0.1326611,0.1007407,0.1202681,0.2934888,0.3385315,0
37452,72863343,-20.25089,-20.25842,0.1345939,0.1421207,0.1198111,0.02960577,0.1577456,0.1304426,0
37544,72963303,-20.23738,-20.24651,0.1346532,0.1437816,0.1323485,-0.02570348,0.04809665,0.1996651,0
37633,73063263,-20.2241,-20.23362,0.1304578,0.1399769,0.1364269,-0.05811276,-0.02976396,-0.1217098,0
37722,73164056,-20.21137,-20.22049,0.1237245,0.1328419,0.1383374,-0.07502765,-0.08818965,0.1216965,0
37814,73264016,-20.19938,-20.20721,0.1159519,0.1237742,0.1329879,-0.08339681,-0.1242527,-0.2021399,0
37903,73363976,-20.18821,-20.1943,0.1075042,0.1135943,0.1273268,-0.08487158,-0.1459404,0.078228,0
37996,73463936,-20.17787,-20.1818,0.09923585,0.1031592,0.1173584,-0.08375864,-0.1571149,-0.2707567,0
38085,73563896,-20.16835,-20.17027,0.09117623,0.09309518,0.1070881,-0.08040401,-0.1487686,0.07095051,0
38174,73663856,-20.15962,-20.15969,0.08338482,0.08345318,0.09558083,-0.0752186,-0.1403599,-0.2182322,0
38263,73763816,-20.15162,-20.15003,0.07651892,0.07492957,0.08515202,-0.07192347,-0.1228304,0.04454136,0
38352,73863776,-20.14432,-20.14151,0.06962539,0.06682021,0.07267768,-0.06586587,-0.1033509,-0.2327404,0
38444,73963736,-20.13767,-20.13377,0.06344795,0.05955024,0.0660179,-0.06098325,-0.09066902,0.08015537,0
38533,74063696,-20.13162,-20.12698,0.05772215,0.05308959,0.05553187,-0.05630812,-0.07415103,-0.1717854,0
38623,74163656,-20.12611,-20.12082,0.05241579,0.04713015,0.04856814,-0.05197933,-0.05787533,0.0337286,0
38715,74263616,-20.12111,-20.11545,0.04774174,0.04208623,0.03999609,-0.04935125,-0.04782236,-0.184742,0
38804,74363576,-20.11655,-20.11067,0.04342769,0.03754512,0.03297343,-0.05119966,-0.03165711,-0.02305031,0
38897,74463536,-20.11246,-20.10662,0.03852734,0.03268383,0.02686983,-0.0522541,-0.02864598,-0.1633997,0
38986,74563496,-20.10886,-20.10288,0.03343351,0.02745084,0.02318429,-0.04925982,-0.02324097,-0.03257084,0
39075,74663456,-20.10576,-20.09949,0.02881751,0.02254554,0.02223935,-0.04557782,-0.0379419,0.00057602,0
39165,74763416,-20.1031,-20.09581,0.02449946,0.01720453,0.0207354,-0.04062076,-0.05574281,-0.09864998,0
39254,74863376,-20.10085,-20.09239,0.0206822,0.01222883,0.019596,-0.03562726,-0.06972207,-0.03503895,0
39346,74963336,-20.09895,-20.08871,0.0173552,0.00711472,0.01846247,-0.03084965,-0.08663654,-0.1264162,0
39435,75063296,-20.09736,-20.08545,0.01448852,0.00257446,0.01594093,-0.026443,-0.09336092,-0.03013515,0
39524,75164089,-20.09603,-20.0822,0.01208697,-0.00174115,0.01382559,-0.02272897,-0.09664747,-0.08716202,0
39616,75264049,-20.09493,-20.07942,0.00999302,-0.00551967,0.01110076,-0.01914628,-0.1010447,-0.01318073,0
39705,75364009,-20.09402,-20.07679,0.00826562,-0.00896338,0.00575058,-0.01619665,-0.09139267,-0.08778858,0
39799,75463969,-20.09327,-20.07482,0.00681465,-0.01163384,0.00212957,-0.0136264,-0.08550277,0.0248642,0
39888,75563929,-20.09265,-20.07323,0.00556999,-0.01385139,-0.00274997,-0.01127462,-0.06980182,-0.100131,0
39977,75663889,-20.09215,-20.07233,0.00454314,-0.01527375,-0.00630163,-0.00928285,-0.05812819,0.02354717,0
40066,75763849,-20.09174,-20.07177,0.00369843,-0.01626495,-0.01055559,-0.00763242,-0.04319882,-0.1152287,0
40155,75863809,-20.0914,-20.07192,0.00301737,-0.01646871,-0.01281562,-0.00630693,-0.02591849,0.05453873,0
40247,75963769,-20.09113,-20.07238,0.00244485,-0.01631126,-0.01637775,-0.00513669,-0.00858186,-0.05786037,0
40336,76063729,-20.09091,-20.07326,0.0019862,-0.01566517,-0.01731569,-0.0042248,0.00272607,0.03795338,0
40425,76163689,-20.09073,-20.07415,0.00160231,-0.01497973,-0.01763316,-0.0034361,0.00738543,-0.06334686,0
40517,76263649,-20.09059,-20.07536,0.00129249,-0.01393456,-0.01797472,-0.0027977,0.0158591,0.02011395,0
40606,76363609,-20.09048,-20.07662,0.00104006,-0.0128137,-0.01709117,-0.00222585,0.01949322,-0.03088284,0
40700,76463569,-20.09038,-20.07801,0.00084209,-0.01152363,-0.0163214,-0.00184327,0.02250443,0.04116154,0
40790,76563529,-20.0903,-20.07935,0.00067568,-0.01027037,-0.01502083,-0.00151977,0.02317,0.00256062,0
40879,76663489,-20.09025,-20.08073,0.00054515,-0.00897755,-0.0139537,-0.00117029,0.02426587,0.0137291,0
40968,76763449,-20.0902,-20.08206,0.00043991,-0.00770462,-0.01298796,-0.00094761,0.02516986,-0.00529385,0
41057,76863409,-20.09015,-20.08327,0.00035227,-0.00652639,-0.01065301,-0.00081319,0.02011108,0.05538845,0
41149,76963369,-20.0901,-20.08456,0.00027524,-0.00526919,-0.01096209,-0.00073204,0.02559179,-0.04500008,0
41238,77063329,-20.09008,-20.0857,0.00020869,-0.00416997,-0.00782674,-0.00053556,0.02129374,0.07269859,0
41327,77163289,-20.09008,-20.08688,0.00016719,-0.00303105,-0.00741712,-0.0003274,0.0237838,0.02043629,0
41419,77264082,-20.09008,-20.0879,0.00014182,-0.00203958,-0.00571974,-0.00020015,0.01948458,0.0503788,0
41509,77364042,-20.09008,-20.08891,-0.00036686,-0.00154118,-0.00396866,-0.03987217,-0.02381376,0.03039646,0
41601,77464002,-20.09027,-20.08992,-0.00338296,-0.00373086,-0.00526013,-0.02425494,-0.01278518,0.02792931,0
41691,77563962,-20.0907,-20.09116,-0.0052053,-0.00474143,-0.00549187,-0.01359318,-0.0062716,0.01280403,0
41780,77663922,-20.09126,-20.09233,-0.00617463,-0.00510163,-0.00711762,-0.00661563,0.00054659,-0.02216244,0
41869,77763882,-20.09188,-20.09368,-0.00658976,-0.004788,-0.00667991,-0.00215232,0.00942103,0.07776451,0
41958,77863842,-20.09256,-20.09506,-0.00664898,-0.0041502,-0.00903219,0.00079918,0.02077803,-0.05995464,0
42049,77963802,-20.09322,-20.09653,-0.00647725,-0.0031606,-0.00749774,0.00248245,0.0237037,0.1032324,0
42139,78063762,-20.09384,-20.09806,-0.00618326,-0.00196329,-0.00949442,0.00337616,0.03830161,-0.0393219,0
42228,78163722,-20.09443,-20.09954,-0.00581957,-0.00071215,-0.00713374,0.00383326,0.03734018,0.09262943,0
42320,78263682,-20.095,-20.10095,-0.00542495,0.00053086,-0.00891894,0.00399744,0.04795356,-0.03477478,0
42409,78363642,-20.09551,-20.10225,-0.00502645,0.00171916,-0.00607838,0.00393097,0.04655648,0.1210747,0
42502,78463602,-20.09596,-20.10346,-0.0046482,0.00285668,-0.00743891,0.00370785,0.05312923,-0.05717945,0
42592,78563562,-20.09638,-20.10447,-0.00428943,0.00380383,-0.00360116,0.00346293,0.04539294,0.149395,0
42681,78663522,-20.09677,-20.10542,-0.0039511,0.00469514,-0.00454853,0.00322103,0.04618936,-0.07636833,0
42770,78763482,-20.09715,-20.10634,-0.00363591,0.00556086,-0.00263449,0.00307722,0.04689252,0.1323757,0
42859,78863442,-20.09747,-20.10716,-0.00334159,0.00634591,-0.00180108,0.0028088,0.04425332,-0.03324413,0
42950,78963402,-20.09779,-20.10802,-0.00306609,0.00716584,-0.00191152,0.00265052,0.05090792,0.131753,0
43040,79063362,-20.09805,-20.10898,-0.00281484,0.00811412,-0.00575308,0.00238899,0.06057943,-0.1502237,0
43129,79163322,-20.0983,-20.11016,-0.00258253,0.00928393,-0.00376735,0.00228715,0.07232794,0.1280394,0
43221,79263282,-20.09853,-20.11112,-0.00234244,0.01024668,-0.00294101,0.00253252,0.06778993,-0.038311,0
43310,79364075,-20.09874,-20.11184,-0.00208383,0.01101188,0.00131081,0.00257058,0.05827446,0.08041286,0
43403,79464035,-20.09894,-20.11207,-0.00182964,0.01130513,0.00427314,0.00251637,0.04084012,0.01743889,0
43493,79563995,-20.09911,-20.1119,-0.0015831,0.01120865,0.00960383,0.00234793,0.01985243,0.06402302,0
43582,79663955,-20.09925,-20.11112,-0.00135927,0.0105023,0.0148523,0.00214081,-0.00844347,0.0925951,0
43671,79763915,-20.09938,-20.10984,-0.00115323,0.00930453,0.0187577,0.00192373,-0.03703283,-0.01424408,0
43760,79863875,-20.09948,-20.10819,-0.00097569,0.00773647,0.02017813,0.00164358,-0.05747324,0.00871086,0
43851,79963835,-20.09958,-20.10647,-0.00082053,0.006074,0.02075408,0.0014452,-0.06855446,-0.01460743,0
43941,80063795,-20.09965,-20.10479,-0.00068245,0.00445427,0.01814127,0.00125619,-0.06982331,-0.0184145,0
44031,80163755,-20.0997,-20.10332,-0.0005715,0.00304666,0.01660883,0.00098964,-0.06953061,-0.07009125,0
44123,80263715,-20.09975,-20.10209,-0.0004811,0.00185777,0.01360311,0.00083372,-0.06031401,-0.0041151,0
44212,80363675,-20.0998,-20.10116,-0.00040245,0.00096352,0.01091472,0.00074444,-0.05140137,-0.03638935,0
44304,80463635,-20.09985,-20.10046,-0.00033086,0.00028071,0.0090409,0.00069054,-0.04518759,-0.00556278,0
44394,80563595,-20.09989,-20.09984,-0.00026356,-0.0003136,0.00795295,0.00065052,-0.04142908,-0.0079279,0
44483,80663555,-20.09991,-20.09937,-0.00020543,-0.00074864,0.00513738,0.00045817,-0.03277831,-0.06360912,0
44572,80763515,-20.09991,-20.09913,-0.00016923,-0.00094926,0.00313776,0.00027658,-0.02594544,-0.07572269,0
44661,80863475,-20.09991,-20.09906,-0.00014737,-0.00099942,0.00255024,0.00016696,-0.01994789,0.00309467,0
44752,80963435,-20.09991,-20.09917,-0.00013419,-0.00086783,0.00047178,0.00010085,-0.00918741,-0.01917267,0
44842,81063395,-20.09991,-20.09943,-0.00012622,-0.0006023,-0.0000018,0.00006088,-0.00212903,0.03389835,0
44932,81163355,-20.09991,-20.09978,-0.00012142,-0.00025081,0.00023074,0.00003677,-0.00187236,0.01128006,0
45024,81263315,-20.09991,-20.10003,-0.00011852,0.00000355,0.0007026,0.00002226,-0.00348789,0.03309631,0
45113,81363275,-20.09991,-20.1004,-0.00011677,0.00037029,-0.0000896,0.00001346,-0.00127956,-0.04072952,0
45205,81464068,-20.09991,-20.1008,-0.00011571,0.00077541,0.00091934,0.00000814,-0.00246493,-0.00349522,0
45296,81564028,-20.09991,-20.10139,-0.00011508,0.00136197,-0.00091559,0.00000498,0.00611054,-0.02453995,0
45385,81663988,-20.09991,-20.10205,-0.00011468,0.00202399,0.00028634,0.000003,0.00808326,0.00682259,0
45474,81763948,-20.09991,-20.10283,-0.00011445,0.00280181,-0.00066508,0.00000183,0.01399855,-0.00792694,0
45563,81863908,-20.09991,-20.10364,-0.00011431,0.0036186,-0.00098295,0.00000116,0.02205686,0.04089546,0
45654,81963868,-20.09991,-20.1044,-0.00011422,0.00438041,0.00019354,0.0000007,0.01862357,-0.00867653,0
45744,82063828,-20.09991,-20.10504,-0.00011417,0.00501522,0.00154615,0.00000044,0.01839816,0.03221226,0
45833,82163788,-20.09991,-20.10565,-0.00011414,0.00562927,0.002979,0.00000027,0.01817995,0.0349474,0
45925,82263748,-20.09991,-20.10606,-0.00011412,0.00603334,0.00368313,0.00000018,0.01596494,0.02866936,0
46016,82363708,-20.10003,-20.10653,-0.00667661,-0.00017514,-0.00005337,-0.2624998,-0.250686,-0.05129528,0
46108,82463668,-20.10213,-20.10806,-0.03363829,-0.02770567,-0.01710209,-0.2074828,-0.2446586,-0.1497583,0
46198,82563628,-20.10636,-20.11101,-0.04942172,-0.04477084,-0.03096589,-0.1126086,-0.181659,-0.1610708,0
46287,82663588,-20.11147,-20.11514,-0.0572078,-0.05354081,-0.04151129,-0.05393705,-0.1206968,-0.122263,0
46376,82763548,-20.11739,-20.12001,-0.06051122,-0.05789648,-0.04982942,-0.01422679,-0.06245903,-0.05593586,0
46465,82863508,-20.12348,-20.12552,-0.0606388,-0.05859657,-0.05598173,0.01023896,-0.01534516,-0.04610062,0
46556,82963468,-20.12946,-20.13144,-0.05884755,-0.05687246,-0.05843045,0.02460039,0.02480271,-0.02389526,0
46647,83063428,-20.13507,-20.13753,-0.05600482,-0.05354267,-0.05834093,0.03195989,0.05144637,0.04575729,0
46736,83163388,-20.14036,-20.14343,-0.05262345,-0.0495546,-0.05719994,0.03530612,0.06666451,0.00135422,0
46828,83263348,-20.14545,-20.14938,-0.04900822,-0.04507511,-0.05855484,0.03667657,0.09418812,0.00791454,0
46917,83363308,-20.15004,-20.15518,-0.04538826,-0.04025276,-0.05618091,0.03599963,0.108103,0.00065231,0
47009,83463268,-20.1544,-20.16086,-0.04183744,-0.03537869,-0.05297155,0.03485722,0.1198201,0.03443146,0
47099,83564061,-20.15822,-20.16599,-0.03846235,-0.03068647,-0.04654471,0.03231082,0.1104429,0.02955246,0
47188,83664021,-20.16172,-20.17088,-0.03536751,-0.02621468,-0.04506818,0.02998983,0.1172639,-0.01363087,0
47277,83763981,-20.16503,-20.17535,-0.03247866,-0.0221564,-0.03726608,0.02812348,0.1073296,0.06911564,0
47366,83863941,-20.16805,-20.1794,-0.02976956,-0.01842191,-0.0343598,0.0262343,0.1035079,0.02489185,0
47457,83963901,-20.17076,-20.18306,-0.02724418,-0.01494315,-0.02883268,0.02409306,0.09913938,0.1163149,0
47548,84063861,-20.17337,-20.18642,-0.02488963,-0.01183787,-0.02886194,0.02296698,0.09854624,-0.05210018,0
47637,84163821,-20.17562,-20.18957,-0.02264888,-0.00870601,-0.02288315,0.02340403,0.09955955,0.1073866,0
47729,84263781,-20.17777,-20.19227,-0.02022789,-0.0057296,-0.02030551,0.02469666,0.09389284,-0.02938557,0
47818,84363741,-20.17962,-20.19447,-0.0177757,-0.0029234,-0.01355804,0.02400929,0.08408901,0.1229229,0
47910,84463701,-20.18124,-20.19597,-0.0154507,-0.00071925,-0.00635978,0.0224874,0.05867328,0.02823257,0
48000,84563661,-20.1826,-20.19676,-0.01329748,0.00086024,0.00053136,0.02025543,0.02920546,0.1081104,0
48089,84663621,-20.18383,-20.19686,-0.01136587,0.00165781,0.00766686,0.01829577,-0.00242934,0.0350275,0
48179,84763581,-20.18488,-20.19642,-0.00963831,0.00190588,0.01226739,0.01619984,-0.02590708,0.08366966,0
48268,84863541,-20.18577,-20.19553,-0.00811919,0.00164155,0.01487694,0.01414229,-0.04764956,-0.03168774,0
48359,84963501,-20.18651,-20.19438,-0.00680064,0.00106435,0.01588348,0.01219806,-0.0612681,-0.02426815,0
48449,85063461,-20.18712,-20.19318,-0.00567625,0.00038943,0.0148961,0.01036558,-0.06565295,-0.07168865,0
48538,85163421,-20.18761,-20.19196,-0.00471998,-0.00037306,0.01392864,0.00866681,-0.06590385,-0.01747036,0
48630,85263381,-20.18803,-20.1908,-0.00392119,-0.00115142,0.01261303,0.00729251,-0.06444521,-0.08044338,0
48719,85363341,-20.18839,-20.18972,-0.00324763,-0.00191584,0.01040631,0.00617244,-0.05984524,-0.00767136,0
48811,85463301,-20.18869,-20.18889,-0.00267993,-0.00248217,0.00758328,0.00520186,-0.0512917,-0.08429527,0
48902,85563261,-20.18893,-20.18842,-0.00220699,-0.00271602,0.00368832,0.00432513,-0.0342136,-0.02706337,0
48991,85664054,-20.18912,-20.18825,-0.00181299,-0.00269067,0.00241875,0.00358491,-0.02473296,-0.08222389,0
49080,85764014,-20.18928,-20.18818,-0.00148469,-0.00259431,0.00298334,0.002953,-0.02192615,0.03614044,0
49169,85863974,-20.18942,-20.18818,-0.00121656,-0.00246046,0.00143975,0.00247791,-0.01866774,-0.00860596,0
49260,85963934,-20.18952,-20.1883,-0.00099538,-0.00220998,0.00057886,0.00196362,-0.01287739,-0.02947426,0
49350,86063894,-20.18962,-20.1885,-0.00081468,-0.00193041,0.00043654,0.00166767,-0.01039035,-0.03082657,0
49439,86163854,-20.18968,-20.18888,-0.00066164,-0.0014612,-0.0018109,0.00133492,0.00160347,-0.00953484,0
49531,86263814,-20.18973,-20.18944,-0.00054339,-0.00083636,-0.00357955,0.00104699,0.01049751,-0.06686687,0
49620,86363774,-20.18978,-20.19015,-0.00044789,-0.00008412,-0.0046991,0.00087318,0.01999946,0.05840683,0
49712,86463734,-20.18983,-20.19092,-0.00036613,0.00072396,-0.00354294,0.00076826,0.0237966,-0.00093174,0
49803,86563694,-20.18988,-20.19157,-0.00029308,0.00139638,-0.00228725,0.00069481,0.01942286,0.03418446,0
49893,86663654,-20.18991,-20.19213,-0.00022686,0.0019936,-0.00259278,0.00058093,0.02058435,-0.07460213,0
49982,86763614,-20.18991,-20.19271,-0.00018097,0.00261689,-0.00048548,0.00035072,0.02136078,0.08089352,0
50071,86863574,-20.18991,-20.1931,-0.00015326,0.003034,0.00013129,0.00021174,0.01722286,-0.00495624,0
50162,86963534,-20.18991,-20.19335,-0.00013653,0.00330097,0.00085471,0.00012782,0.01342325,0.01366615,0
50251,87063494,-20.18991,-20.19349,-0.00012643,0.0034539,0.00197112,0.00007716,0.00925885,-0.01330757,0
50341,87163454,-20.18991,-20.19349,-0.00012033,0.00346365,0.00294022,0.0000466,0.0043642,0.03010368,0
50433,87263414,-20.18991,-20.19337,-0.00011665,0.00334648,0.00401777,0.00002815,-0.00269057,-0.0219717,0
50523,87363374,-20.19039,-20.19345,-0.01568962,-0.01262931,-0.00604995,-0.2587385,-0.2806759,-0.1833496,0
50614,87463334,-20.19306,-20.19493,-0.03581107,-0.03393607,-0.02074161,-0.1486926,-0.2096828,-0.2046232,0
50704,87563294,-20.19726,-20.19777,-0.04693093,-0.04641457,-0.03191509,-0.07709551,-0.1475931,-0.1178293,0
50794,87664087,-20.20212,-20.2016,-0.05215294,-0.0526754,-0.04092474,-0.03212857,-0.09462357,-0.01980877,0
50883,87764047,-20.20745,-20.20599,-0.05382809,-0.05528928,-0.04885744,-0.00297642,-0.04354623,-0.09961128,0
50972,87864007,-20.21281,-20.21099,-0.0531885,-0.05500856,-0.05272033,0.01468284,-0.0020654,0.04341602,0
51063,87963967,-20.21803,-20.21618,-0.05117584,-0.05302887,-0.05679045,0.02481632,0.03006116,-0.1756086,0
51152,88063927,-20.22277,-20.22159,-0.04845728,-0.04963648,-0.05583329,0.02922437,0.05746684,0.09639835,0
51242,88163887,-20.22746,-20.22675,-0.04538913,-0.0461008,-0.05565993,0.03177999,0.06906142,-0.1972008,0
51334,88263847,-20.23173,-20.23202,-0.04220032,-0.04191223,-0.05471692,0.03195168,0.09213994,0.07813358,0
51423,88363807,-20.23569,-20.237,-0.03904296,-0.03773559,-0.05352,0.03107034,0.1019898,-0.1152534,0
51515,88463767,-20.23944,-20.24196,-0.03598412,-0.0334646,-0.04879534,0.02997682,0.1122267,0.1718903,0
51605,88563727,-20.24281,-20.24639,-0.03307357,-0.02949081,-0.04671454,0.02808502,0.1106356,-0.07574654,0
51695,88663687,-20.2459,-20.2506,-0.03036859,-0.02566155,-0.04150617,0.02621595,0.107374,0.1663132,0
