LineNo,TimeUS,I,MagX,MagY,MagZ,OfsX,OfsY,OfsZ,MOX,MOY,MOZ,Health,S,labels
1705,15363852,0,232,52,-528,5,13,-18,0,0,0,1,15363852,0
1789,15463812,0,232,52,-528,5,13,-18,0,0,0,1,15463812,0
1868,15563772,0,232,52,-528,5,13,-18,0,0,0,1,15563772,0
1947,15663732,0,232,52,-528,5,13,-18,0,0,0,1,15663732,0
2026,15763692,0,232,52,-528,5,13,-18,0,0,0,1,15763692,0
2107,15863652,0,232,52,-528,5,13,-18,0,0,0,1,15863652,0
2187,15963612,0,232,52,-528,5,13,-18,0,0,0,1,15963612,0
2267,16063572,0,232,52,-528,5,13,-18,0,0,0,1,16063572,0
2346,16163532,0,232,52,-528,5,13,-18,0,0,0,1,16163532,0
2425,16263492,0,232,52,-528,5,13,-18,0,0,0,1,16263492,0
2509,16363452,0,232,52,-528,5,13,-18,0,0,0,1,16363452,0
2589,16463412,0,232,52,-528,5,13,-18,0,0,0,1,16463412,0
2668,16563372,0,232,52,-528,5,13,-18,0,0,0,1,16563372,0
2747,16663332,0,232,52,-528,5,13,-18,0,0,0,1,16663332,0
2826,16763292,0,232,52,-528,5,13,-18,0,0,0,1,16763292,0
2907,16864085,0,232,52,-528,5,13,-18,0,0,0,1,16864085,0
2987,16964045,0,232,52,-528,5,13,-18,0,0,0,1,16964045,0
3067,17064005,0,232,52,-528,5,13,-18,0,0,0,1,17064005,0
3146,17163965,0,232,52,-528,5,13,-18,0,0,0,1,17163965,0
3225,17263925,0,232,52,-528,5,13,-18,0,0,0,1,17263925,0
3310,17363885,0,232,52,-528,5,13,-18,0,0,0,1,17363885,0
3390,17463845,0,232,52,-528,5,13,-18,0,0,0,1,17463845,0
3469,17563805,0,232,52,-528,5,13,-18,0,0,0,1,17563805,0
3548,17663765,0,232,52,-528,5,13,-18,0,0,0,1,17663765,0
3627,17763725,0,232,52,-528,5,13,-18,0,0,0,1,17763725,0
3708,17863685,0,232,52,-528,5,13,-18,0,0,0,1,17863685,0
3788,17963645,0,232,52,-528,5,13,-18,0,0,0,1,17963645,0
3868,18063605,0,232,52,-528,5,13,-18,0,0,0,1,18063605,0
3947,18163565,0,232,52,-528,5,13,-18,0,0,0,1,18163565,0
4026,18263525,0,232,52,-528,5,13,-18,0,0,0,1,18263525,0
4110,18363485,0,232,52,-528,5,13,-18,0,0,0,1,18363485,0
4190,18463445,0,232,52,-528,5,13,-18,0,0,0,1,18463445,0
4269,18563405,0,232,52,-528,5,13,-18,0,0,0,1,18563405,0
4354,18663365,0,232,52,-528,5,13,-18,0,0,0,1,18663365,0
4433,18763325,0,232,52,-528,5,13,-18,0,0,0,1,18763325,0
4514,18863285,0,232,52,-528,5,13,-18,0,0,0,1,18863285,0
4594,18964078,0,232,52,-528,5,13,-18,0,0,0,1,18964078,0
4674,19064038,0,232,52,-528,5,13,-18,0,0,0,1,19064038,0
4753,19163998,0,232,52,-528,5,13,-18,0,0,0,1,19163998,0
4832,19263958,0,232,52,-528,5,13,-18,0,0,0,1,19263958,0
4916,19363918,0,232,52,-528,5,13,-18,0,0,0,1,19363918,0
4996,19463878,0,232,52,-528,5,13,-18,0,0,0,1,19463878,0
5075,19563838,0,232,52,-528,5,13,-18,0,0,0,1,19563838,0
5154,19663798,0,232,52,-528,5,13,-18,0,0,0,1,19663798,0
5233,19763758,0,232,52,-528,5,13,-18,0,0,0,1,19763758,0
5314,19863718,0,232,52,-528,5,13,-18,0,0,0,1,19863718,0
5395,19963678,0,232,52,-528,5,13,-18,0,0,0,1,19963678,0
5475,20063638,0,232,52,-528,5,13,-18,0,0,0,1,20063638,0
5554,20163598,0,232,52,-528,5,13,-18,0,0,0,1,20163598,0
5633,20263558,0,232,52,-528,5,13,-18,0,0,0,1,20263558,0
5717,20363518,0,232,52,-528,5,13,-18,0,0,0,1,20363518,0
5797,20463478,0,232,52,-528,5,13,-18,0,0,0,1,20463478,0
5876,20563438,0,232,52,-528,5,13,-18,0,0,0,1,20563438,0
5955,20663398,0,232,52,-528,5,13,-18,0,0,0,1,20663398,0
6034,20763358,0,232,52,-528,5,13,-18,0,0,0,1,20763358,0
6115,20863318,0,232,52,-528,5,13,-18,0,0,0,1,20863318,0
6195,20963278,0,232,52,-528,5,13,-18,0,0,0,1,20963278,0
6274,21064071,0,232,52,-528,5,13,-18,0,0,0,1,21064071,0
6354,21164031,0,232,52,-528,5,13,-18,0,0,0,1,21164031,0
6433,21263991,0,232,52,-528,5,13,-18,0,0,0,1,21263991,0
6517,21363951,0,232,52,-528,5,13,-18,0,0,0,1,21363951,0
6597,21463911,0,232,52,-528,5,13,-18,0,0,0,1,21463911,0
6676,21563871,0,232,52,-528,5,13,-18,0,0,0,1,21563871,0
6755,21663831,0,232,52,-528,5,13,-18,0,0,0,1,21663831,0
6834,21763791,0,232,52,-528,5,13,-18,0,0,0,1,21763791,0
6915,21863751,0,232,52,-528,5,13,-18,0,0,0,1,21863751,0
6995,21963711,0,232,52,-528,5,13,-18,0,0,0,1,21963711,0
7074,22063671,0,232,52,-528,5,13,-18,0,0,0,1,22063671,0
7154,22163631,0,232,52,-528,5,13,-18,0,0,0,1,22163631,0
7233,22263591,0,232,52,-528,5,13,-18,0,0,0,1,22263591,0
7318,22363551,0,232,52,-528,5,13,-18,0,0,0,1,22363551,0
7398,22463511,0,232,52,-528,5,13,-18,0,0,0,1,22463511,0
7477,22563471,0,232,52,-528,5,13,-18,0,0,0,1,22563471,0
7556,22663431,0,232,52,-528,5,13,-18,0,0,0,1,22663431,0
7635,22763391,0,232,52,-528,5,13,-18,0,0,0,1,22763391,0
7716,22863351,0,232,52,-528,5,13,-18,0,0,0,1,22863351,0
7795,22963311,0,232,52,-528,5,13,-18,0,0,0,1,22963311,0
7875,23063271,0,232,52,-528,5,13,-18,0,0,0,1,23063271,0
7955,23164064,0,232,52,-528,5,13,-18,0,0,0,1,23164064,0
8034,23264024,0,232,52,-528,5,13,-18,0,0,0,1,23264024,0
8118,23363984,0,232,52,-528,5,13,-18,0,0,0,1,23363984,0
8197,23463944,0,232,52,-528,5,13,-18,0,0,0,1,23463944,0
8277,23563904,0,232,52,-528,5,13,-18,0,0,0,1,23563904,0
8356,23663864,0,232,52,-528,5,13,-18,0,0,0,1,23663864,0
8435,23763824,0,232,52,-528,5,13,-18,0,0,0,1,23763824,0
8516,23863784,0,232,52,-528,5,13,-18,0,0,0,1,23863784,0
8595,23963744,0,232,52,-528,5,13,-18,0,0,0,1,23963744,0
8675,24063704,0,232,52,-528,5,13,-18,0,0,0,1,24063704,0
8755,24163664,0,232,52,-528,5,13,-18,0,0,0,1,24163664,0
8834,24263624,0,232,52,-528,5,13,-18,0,0,0,1,24263624,0
8918,24363584,0,232,52,-528,5,13,-18,0,0,0,1,24363584,0
8997,24463544,0,232,52,-528,5,13,-18,0,0,0,1,24463544,0
9077,24563504,0,232,52,-528,5,13,-18,0,0,0,1,24563504,0
9156,24663464,0,232,52,-528,5,13,-18,0,0,0,1,24663464,0
9235,24763424,0,232,52,-528,5,13,-18,0,0,0,1,24763424,0
9316,24863384,0,232,52,-528,5,13,-18,0,0,0,1,24863384,0
9395,24963344,0,232,52,-528,5,13,-18,0,0,0,1,24963344,0
9476,25063304,0,232,52,-528,5,13,-18,0,0,0,1,25063304,0
9556,25163264,0,232,52,-528,5,13,-18,0,0,0,1,25163264,0
9635,25264057,0,232,52,-528,5,13,-18,0,0,0,1,25264057,0
9719,25364017,0,232,52,-528,5,13,-18,0,0,0,1,25364017,0
9798,25463977,0,232,52,-528,5,13,-18,0,0,0,1,25463977,0
9878,25563937,0,232,52,-528,5,13,-18,0,0,0,1,25563937,0
9957,25663897,0,232,52,-528,5,13,-18,0,0,0,1,25663897,0
10036,25763857,0,232,52,-528,5,13,-18,0,0,0,1,25763857,0
10117,25863817,0,232,52,-528,5,13,-18,0,0,0,1,25863817,0
10196,25963777,0,232,52,-528,5,13,-18,0,0,0,1,25963777,0
10276,26063737,0,232,52,-528,5,13,-18,0,0,0,1,26063737,0
10356,26163697,0,232,52,-528,5,13,-18,0,0,0,1,26163697,0
10435,26263657,0,232,52,-528,5,13,-18,0,0,0,1,26263657,0
10519,26363617,0,232,52,-528,5,13,-18,0,0,0,1,26363617,0
10598,26463577,0,232,52,-528,5,13,-18,0,0,0,1,26463577,0
10678,26563537,0,232,52,-528,5,13,-18,0,0,0,1,26563537,0
10757,26663497,0,232,52,-528,5,13,-18,0,0,0,1,26663497,0
10836,26763457,0,232,52,-528,5,13,-18,0,0,0,1,26763457,0
10917,26863417,0,232,52,-528,5,13,-18,0,0,0,1,26863417,0
10996,26963377,0,232,52,-528,5,13,-18,0,0,0,1,26963377,0
11076,27063337,0,232,52,-528,5,13,-18,0,0,0,1,27063337,0
11156,27163297,0,232,52,-528,5,13,-18,0,0,0,1,27163297,0
11235,27264090,0,232,52,-528,5,13,-18,0,0,0,1,27264090,0
11319,27364050,0,232,52,-528,5,13,-18,0,0,0,1,27364050,0
11398,27464010,0,232,52,-528,5,13,-18,0,0,0,1,27464010,0
11478,27563970,0,232,52,-528,5,13,-18,0,0,0,1,27563970,0
11557,27663930,0,232,52,-528,5,13,-18,0,0,0,1,27663930,0
11636,27763890,0,232,52,-528,5,13,-18,0,0,0,1,27763890,0
11717,27863850,0,232,52,-528,5,13,-18,0,0,0,1,27863850,0
11796,27963810,0,232,52,-528,5,13,-18,0,0,0,1,27963810,0
11876,28063770,0,232,52,-528,5,13,-18,0,0,0,1,28063770,0
11956,28163730,0,232,52,-528,5,13,-18,0,0,0,1,28163730,0
12035,28263690,0,232,52,-528,5,13,-18,0,0,0,1,28263690,0
12119,28363650,0,232,52,-528,5,13,-18,0,0,0,1,28363650,0
12198,28463610,0,232,52,-528,5,13,-18,0,0,0,1,28463610,0
12278,28563570,0,232,52,-528,5,13,-18,0,0,0,1,28563570,0
12357,28663530,0,232,52,-528,5,13,-18,0,0,0,1,28663530,0
12436,28763490,0,232,52,-528,5,13,-18,0,0,0,1,28763490,0
12517,28863450,0,232,52,-528,5,13,-18,0,0,0,1,28863450,0
12596,28963410,0,232,52,-528,5,13,-18,0,0,0,1,28963410,0
12676,29063370,0,232,52,-528,5,13,-18,0,0,0,1,29063370,0
12756,29163330,0,232,52,-528,5,13,-18,0,0,0,1,29163330,0
12835,29263290,0,232,52,-528,5,13,-18,0,0,0,1,29263290,0
12919,29364083,0,232,52,-528,5,13,-18,0,0,0,1,29364083,0
12998,29464043,0,232,52,-528,5,13,-18,0,0,0,1,29464043,0
13078,29564003,0,232,52,-528,5,13,-18,0,0,0,1,29564003,0
13157,29663963,0,232,52,-528,5,13,-18,0,0,0,1,29663963,0
13279,45963274,0,232,52,-528,5,13,-18,0,0,0,1,45963274,0
13361,46064067,0,232,52,-528,5,13,-18,0,0,0,1,46064067,0
13441,46164027,0,232,52,-528,5,13,-18,0,0,0,1,46164027,0
13525,46263987,0,232,52,-528,5,13,-18,0,0,0,1,46263987,0
13610,46363947,0,232,52,-528,5,13,-18,0,0,0,1,46363947,0
13694,46463907,0,232,52,-528,5,13,-18,0,0,0,1,46463907,0
13781,46563867,0,232,52,-528,5,13,-18,0,0,0,1,46563867,0
13866,46663827,0,232,52,-528,5,13,-18,0,0,0,1,46663827,0
13952,46763787,0,232,52,-528,5,13,-18,0,0,0,1,46763787,0
14037,46863747,0,232,52,-528,5,13,-18,0,0,0,1,46863747,0
14122,46963707,0,232,52,-528,5,13,-18,0,0,0,1,46963707,0
14209,47063667,0,232,52,-528,5,13,-18,0,0,0,1,47063667,0
14295,47163627,0,232,52,-528,5,13,-18,0,0,0,1,47163627,0
14381,47263587,0,232,52,-528,5,13,-18,0,0,0,1,47263587,0
14468,47363547,0,232,52,-528,5,13,-18,0,0,0,1,47363547,0
14554,47463507,0,232,52,-528,5,13,-18,0,0,0,1,47463507,0
14641,47563467,0,232,52,-528,5,13,-18,0,0,0,1,47563467,0
14726,47663427,0,232,52,-528,5,13,-18,0,0,0,1,47663427,0
14812,47763387,0,232,52,-528,5,13,-18,0,0,0,1,47763387,0
14897,47863347,0,232,52,-528,5,13,-18,0,0,0,1,47863347,0
14983,47963307,0,232,52,-528,5,13,-18,0,0,0,1,47963307,0
15074,48063267,0,232,52,-528,5,13,-18,0,0,0,1,48063267,0
15164,48164060,0,232,52,-528,5,13,-18,0,0,0,1,48164060,0
15254,48264020,0,232,52,-528,5,13,-18,0,0,0,1,48264020,0
15345,48363980,0,232,52,-528,5,13,-18,0,0,0,1,48363980,0
15436,48463940,0,232,52,-528,5,13,-18,0,0,0,1,48463940,0
15527,48563900,0,232,52,-528,5,13,-18,0,0,0,1,48563900,0
15616,48663860,0,232,52,-528,5,13,-18,0,0,0,1,48663860,0
15706,48763820,0,232,52,-528,5,13,-18,0,0,0,1,48763820,0
15795,48863780,0,232,52,-528,5,13,-18,0,0,0,1,48863780,0
15884,48963740,0,232,52,-528,5,13,-18,0,0,0,1,48963740,0
15975,49063700,0,232,52,-528,5,13,-18,0,0,0,1,49063700,0
16065,49163660,0,232,52,-528,5,13,-18,0,0,0,1,49163660,0
16155,49263620,0,232,52,-528,5,13,-18,0,0,0,1,49263620,0
16246,49363580,0,232,52,-528,5,13,-18,0,0,0,1,49363580,0
16336,49463540,0,232,52,-528,5,13,-18,0,0,0,1,49463540,0
16427,49563500,0,232,52,-528,5,13,-18,0,0,0,1,49563500,0
16516,49663460,0,232,52,-528,5,13,-18,0,0,0,1,49663460,0
16606,49763420,0,232,52,-528,5,13,-18,0,0,0,1,49763420,0
16695,49863380,0,232,52,-528,5,13,-18,0,0,0,1,49863380,0
16784,49963340,0,232,52,-528,5,13,-18,0,0,0,1,49963340,0
16875,50063300,0,232,52,-528,5,13,-18,0,0,0,1,50063300,0
16965,50163260,0,232,52,-528,5,13,-18,0,0,0,1,50163260,0
17055,50264053,0,232,52,-528,5,13,-18,0,0,0,1,50264053,0
17146,50364013,0,232,52,-528,5,13,-18,0,0,0,1,50364013,0
17236,50463973,0,231,53,-528,5,13,-18,0,0,0,1,50463973,0
17327,50563933,0,230,54,-529,5,13,-18,0,0,0,1,50563933,0
17416,50663893,0,230,52,-529,5,13,-18,0,0,0,1,50663893,0
17506,50763853,0,225,61,-530,5,13,-18,0,0,0,1,50763853,0
17595,50863813,0,230,55,-528,5,13,-18,0,0,0,1,50863813,0
17684,50963773,0,231,60,-527,5,13,-18,0,0,0,1,50963773,0
17775,51063733,0,232,50,-528,5,13,-18,0,0,0,1,51063733,0
17866,51163693,0,231,55,-528,5,13,-18,0,0,0,1,51163693,0
17956,51263653,0,232,50,-528,5,13,-18,0,0,0,1,51263653,0
18047,51363613,0,233,60,-527,5,13,-18,0,0,0,1,51363613,0
18137,51463573,0,231,55,-528,5,13,-18,0,0,0,1,51463573,0
18228,51563533,0,232,59,-527,5,13,-18,0,0,0,1,51563533,0
18317,51663493,0,232,50,-528,5,13,-18,0,0,0,1,51663493,0
18407,51763453,0,232,57,-527,5,13,-18,0,0,0,1,51763453,0
18496,51863413,0,233,50,-527,5,13,-18,0,0,0,1,51863413,0
18585,51963373,0,233,58,-527,5,13,-18,0,0,0,1,51963373,0
18676,52063333,0,234,49,-527,5,13,-18,0,0,0,1,52063333,0
18767,52163293,0,233,57,-527,5,13,-18,0,0,0,1,52163293,0
18857,52264086,0,231,49,-528,5,13,-18,0,0,0,1,52264086,0
18950,52364046,0,233,57,-527,5,13,-18,0,0,0,1,52364046,0
19042,52464006,0,235,50,-527,5,13,-18,0,0,0,1,52464006,0
19133,52563966,0,233,58,-527,5,13,-18,0,0,0,1,52563966,0
19222,52663926,0,231,52,-528,5,13,-18,0,0,0,1,52663926,0
19312,52763886,0,231,58,-528,5,13,-18,0,0,0,1,52763886,0
19401,52863846,0,231,51,-528,5,13,-18,0,0,0,1,52863846,0
19490,52963806,0,232,57,-527,5,13,-18,0,0,0,1,52963806,0
19581,53063766,0,233,48,-528,5,13,-18,0,0,0,1,53063766,0
19671,53163726,0,233,52,-527,5,13,-18,0,0,0,1,53163726,0
19761,53263686,0,233,41,-528,5,13,-18,0,0,0,1,53263686,0
19852,53363646,0,236,47,-526,5,13,-18,0,0,0,1,53363646,0
19942,53463606,0,233,39,-528,5,13,-18,0,0,0,1,53463606,0
20034,53563566,0,236,42,-527,5,13,-18,0,0,0,1,53563566,0
20123,53663526,0,234,32,-529,5,13,-18,0,0,0,1,53663526,0
20213,53763486,0,236,39,-527,5,13,-18,0,0,0,1,53763486,0
20302,53863446,0,236,33,-528,5,13,-18,0,0,0,1,53863446,0
20391,53963406,0,238,40,-526,5,13,-18,0,0,0,1,53963406,0
20482,54063366,0,236,33,-528,5,13,-18,0,0,0,1,54063366,0
20572,54163326,0,237,39,-527,5,13,-18,0,0,0,1,54163326,0
20662,54263286,0,233,34,-529,5,13,-18,0,0,0,1,54263286,0
20753,54364079,0,235,41,-528,5,13,-18,0,0,0,1,54364079,0
20843,54464039,0,235,35,-528,5,13,-18,0,0,0,1,54464039,0
20935,54563999,0,235,45,-527,5,13,-18,0,0,0,1,54563999,0
21024,54663959,0,232,40,-529,5,13,-18,0,0,0,1,54663959,0
21113,54763919,0,231,49,-528,5,13,-18,0,0,0,1,54763919,0
21203,54863879,0,231,43,-529,5,13,-18,0,0,0,1,54863879,0
21292,54963839,0,233,51,-528,5,13,-18,0,0,0,1,54963839,0
21383,55063799,0,233,42,-528,5,13,-18,0,0,0,1,55063799,0
21473,55163759,0,234,49,-527,5,13,-18,0,0,0,1,55163759,0
21562,55263719,0,231,42,-529,5,13,-18,0,0,0,1,55263719,0
21654,55363679,0,236,47,-527,5,13,-18,0,0,0,1,55363679,0
21744,55463639,0,234,41,-528,5,13,-18,0,0,0,1,55463639,0
21836,55563599,0,238,46,-526,5,13,-18,0,0,0,1,55563599,0
21925,55663559,0,232,40,-529,5,13,-18,0,0,0,1,55663559,0
22014,55763519,0,235,47,-527,5,13,-18,0,0,0,1,55763519,0
22104,55863479,0,232,40,-529,5,13,-18,0,0,0,1,55863479,0
22193,55963439,0,235,46,-527,5,13,-18,0,0,0,1,55963439,0
22284,56063399,0,234,38,-528,5,13,-18,0,0,0,1,56063399,0
22374,56163359,0,235,45,-527,5,13,-18,0,0,0,1,56163359,0
22464,56263319,0,233,39,-529,5,13,-18,0,0,0,1,56263319,0
22556,56363279,0,235,46,-527,5,13,-18,0,0,0,1,56363279,0
22647,56464072,0,232,38,-529,5,13,-18,0,0,0,1,56464072,0
22738,56564032,0,234,44,-528,5,13,-18,0,0,0,1,56564032,0
22827,56663992,0,230,40,-530,5,13,-18,0,0,0,1,56663992,0
22916,56763952,0,234,49,-527,5,13,-18,0,0,0,1,56763952,0
23006,56863912,0,233,43,-528,5,13,-18,0,0,0,1,56863912,0
23095,56963872,0,236,49,-526,5,13,-18,0,0,0,1,56963872,0
23186,57063832,0,232,43,-528,5,13,-18,0,0,0,1,57063832,0
23276,57163792,0,235,49,-527,5,13,-18,0,0,0,1,57163792,0
23365,57263752,0,232,43,-528,5,13,-18,0,0,0,1,57263752,0
23457,57363712,0,235,47,-527,5,13,-18,0,0,0,1,57363712,0
23548,57463672,0,232,41,-529,5,13,-18,0,0,0,1,57463672,0
23639,57563632,0,237,47,-526,5,13,-18,0,0,0,1,57563632,0
23728,57663592,0,229,44,-530,5,13,-18,0,0,0,1,57663592,0
23817,57763552,0,234,49,-527,5,13,-18,0,0,0,1,57763552,0
23907,57863512,0,230,42,-529,5,13,-18,0,0,0,1,57863512,0
23996,57963472,0,235,46,-527,5,13,-18,0,0,0,1,57963472,0
24087,58063432,0,232,39,-529,5,13,-18,0,0,0,1,58063432,0
24177,58163392,0,236,46,-526,5,13,-18,0,0,0,1,58163392,0
24266,58263352,0,232,40,-529,5,13,-18,0,0,0,1,58263352,0
24358,58363312,0,237,46,-526,5,13,-18,0,0,0,1,58363312,0
24449,58463272,0,232,40,-529,5,13,-18,0,0,0,1,58463272,0
24540,58564065,0,236,46,-527,5,13,-18,0,0,0,1,58564065,0
24629,58664025,0,231,41,-529,5,13,-18,0,0,0,1,58664025,0
24718,58763985,0,236,46,-526,5,13,-18,0,0,0,1,58763985,0
24808,58863945,0,234,39,-528,5,13,-18,0,0,0,1,58863945,0
24897,58963905,0,237,45,-526,5,13,-18,0,0,0,1,58963905,0
24988,59063865,0,234,39,-528,5,13,-18,0,0,0,1,59063865,0
25078,59163825,0,236,45,-527,5,13,-18,0,0,0,1,59163825,0
25167,59263785,0,233,39,-529,5,13,-18,0,0,0,1,59263785,0
25259,59363745,0,236,44,-527,5,13,-18,0,0,0,1,59363745,0
25350,59463705,0,231,39,-529,5,13,-18,0,0,0,1,59463705,0
25441,59563665,0,237,43,-527,5,13,-18,0,0,0,1,59563665,0
25530,59663625,0,232,42,-529,5,13,-18,0,0,0,1,59663625,0
25619,59763585,0,236,47,-527,5,13,-18,0,0,0,1,59763585,0
25709,59863545,0,231,42,-529,5,13,-18,0,0,0,1,59863545,0
25798,59963505,0,236,45,-527,5,13,-18,0,0,0,1,59963505,0
25889,60063465,0,232,41,-529,5,13,-18,0,0,0,1,60063465,0
25979,60163425,0,236,45,-527,5,13,-18,0,0,0,1,60163425,0
26068,60263385,0,232,42,-529,5,13,-18,0,0,0,1,60263385,0
26160,60363345,0,236,46,-527,5,13,-18,0,0,0,1,60363345,0
26250,60463305,0,232,42,-529,5,13,-18,0,0,0,1,60463305,0
26343,60563265,0,237,46,-526,5,13,-18,0,0,0,1,60563265,0
26432,60664058,0,240,44,-525,5,13,-18,0,0,0,1,60664058,0
26521,60764018,0,253,46,-519,5,13,-18,0,0,0,1,60764018,0
26611,60863978,0,249,41,-521,5,13,-18,0,0,0,1,60863978,0
26700,60963938,0,251,44,-520,5,13,-18,0,0,0,1,60963938,0
26791,61063898,0,242,42,-524,5,13,-18,0,0,0,1,61063898,0
26881,61163858,0,245,47,-523,5,13,-18,0,0,0,1,61163858,0
26970,61263818,0,237,44,-526,5,13,-18,0,0,0,1,61263818,0
27065,61363778,0,240,47,-525,5,13,-18,0,0,0,1,61363778,0
27155,61463738,0,234,45,-528,5,13,-18,0,0,0,1,61463738,0
27246,61563698,0,239,49,-525,5,13,-18,0,0,0,1,61563698,0
27335,61663658,0,231,45,-529,5,13,-18,0,0,0,1,61663658,0
27424,61763618,0,238,44,-526,5,13,-18,0,0,0,1,61763618,0
27514,61863578,0,233,41,-528,5,13,-18,0,0,0,1,61863578,0
27603,61963538,0,238,44,-526,5,13,-18,0,0,0,1,61963538,0
27694,62063498,0,230,45,-529,5,13,-18,0,0,0,1,62063498,0
27783,62163458,0,235,49,-527,5,13,-18,0,0,0,1,62163458,0
27873,62263418,0,229,47,-530,5,13,-18,0,0,0,1,62263418,0
27966,62363378,0,235,49,-527,5,13,-18,0,0,0,1,62363378,0
28056,62463338,0,228,47,-530,5,13,-18,0,0,0,1,62463338,0
28147,62563298,0,233,48,-528,5,13,-18,0,0,0,1,62563298,0
28236,62664091,0,227,47,-530,5,13,-18,0,0,0,1,62664091,0
28325,62764051,0,235,47,-527,5,13,-18,0,0,0,1,62764051,0
28415,62864011,0,227,45,-531,5,13,-18,0,0,0,1,62864011,0
28504,62963971,0,233,47,-528,5,13,-18,0,0,0,1,62963971,0
28595,63063931,0,227,46,-531,5,13,-18,0,0,0,1,63063931,0
28684,63163891,0,234,49,-527,5,13,-18,0,0,0,1,63163891,0
28774,63263851,0,228,47,-530,5,13,-18,0,0,0,1,63263851,0
28866,63363811,0,235,48,-527,5,13,-18,0,0,0,1,63363811,0
28956,63463771,0,228,47,-530,5,13,-18,0,0,0,1,63463771,0
29047,63563731,0,234,46,-528,5,13,-18,0,0,0,1,63563731,0
29136,63663691,0,229,46,-530,5,13,-18,0,0,0,1,63663691,0
29225,63763651,0,235,47,-527,5,13,-18,0,0,0,1,63763651,0
29315,63863611,0,227,46,-530,5,13,-18,0,0,0,1,63863611,0
29404,63963571,0,233,43,-528,5,13,-18,0,0,0,1,63963571,0
29495,64063531,0,228,44,-530,5,13,-18,0,0,0,1,64063531,0
29584,64163491,0,236,45,-527,5,13,-18,0,0,0,1,64163491,0
29674,64263451,0,230,45,-530,5,13,-18,0,0,0,1,64263451,0
29766,64363411,0,236,45,-527,5,13,-18,0,0,0,1,64363411,0
29856,64463371,0,229,45,-530,5,13,-18,0,0,0,1,64463371,0
29947,64563331,0,236,44,-527,5,13,-18,0,0,0,1,64563331,0
30036,64663291,0,230,45,-529,5,13,-18,0,0,0,1,64663291,0
30125,64764084,0,237,43,-526,5,13,-18,0,0,0,1,64764084,0
30215,64864044,0,230,44,-529,5,13,-18,0,0,0,1,64864044,0
30304,64964004,0,237,44,-527,5,13,-18,0,0,0,1,64964004,0
30395,65063964,0,231,43,-529,5,13,-18,0,0,0,1,65063964,0
30484,65163924,0,238,43,-526,5,13,-18,0,0,0,1,65163924,0
30574,65263884,0,233,44,-528,5,13,-18,0,0,0,1,65263884,0
30666,65363844,0,238,43,-526,5,13,-18,0,0,0,1,65363844,0
30756,65463804,0,231,43,-529,5,13,-18,0,0,0,1,65463804,0
30847,65563764,0,238,43,-526,5,13,-18,0,0,0,1,65563764,0
30936,65663724,0,231,44,-529,5,13,-18,0,0,0,1,65663724,0
31025,65763684,0,237,41,-526,5,13,-18,0,0,0,1,65763684,0
31115,65863644,0,233,45,-528,5,13,-18,0,0,0,1,65863644,0
31204,65963604,0,237,45,-526,5,13,-18,0,0,0,1,65963604,0
31295,66063564,0,230,49,-529,5,13,-18,0,0,0,1,66063564,0
31384,66163524,0,237,44,-526,5,13,-18,0,0,0,1,66163524,0
31474,66263484,0,231,45,-529,5,13,-18,0,0,0,1,66263484,0
31565,66363444,0,237,44,-526,5,13,-18,0,0,0,1,66363444,0
31657,66463404,0,231,45,-529,5,13,-18,0,0,0,1,66463404,0
31748,66563364,0,237,43,-526,5,13,-18,0,0,0,1,66563364,0
31837,66663324,0,231,44,-529,5,13,-18,0,0,0,1,66663324,0
31926,66763284,0,237,43,-527,5,13,-18,0,0,0,1,66763284,0
32015,66864077,0,231,45,-529,5,13,-18,0,0,0,1,66864077,0
32105,66964037,0,237,42,-526,5,13,-18,0,0,0,1,66964037,0
32196,67063997,0,231,46,-529,5,13,-18,0,0,0,1,67063997,0
32285,67163957,0,236,43,-527,5,13,-18,0,0,0,1,67163957,0
32375,67263917,0,230,45,-529,5,13,-18,0,0,0,1,67263917,0
32466,67363877,0,236,42,-527,5,13,-18,0,0,0,1,67363877,0
32557,67463837,0,231,46,-529,5,13,-18,0,0,0,1,67463837,0
32648,67563797,0,237,43,-526,5,13,-18,0,0,0,1,67563797,0
32737,67663757,0,232,46,-528,5,13,-18,0,0,0,1,67663757,0
32826,67763717,0,237,43,-526,5,13,-18,0,0,0,1,67763717,0
32915,67863677,0,231,46,-529,5,13,-18,0,0,0,1,67863677,0
33005,67963637,0,236,40,-527,5,13,-18,0,0,0,1,67963637,0
33096,68063597,0,235,46,-527,5,13,-18,0,0,0,1,68063597,0
33185,68163557,0,239,41,-526,5,13,-18,0,0,0,1,68163557,0
33275,68263517,0,231,46,-529,5,13,-18,0,0,0,1,68263517,0
33366,68363477,0,236,42,-527,5,13,-18,0,0,0,1,68363477,0
33457,68463437,0,231,46,-529,5,13,-18,0,0,0,1,68463437,0
33548,68563397,0,236,42,-527,5,13,-18,0,0,0,1,68563397,0
33637,68663357,0,231,47,-529,5,13,-18,0,0,0,1,68663357,0
33726,68763317,0,236,43,-527,5,13,-18,0,0,0,1,68763317,0
33815,68863277,0,232,47,-528,5,13,-18,0,0,0,1,68863277,0
33905,68964070,0,236,43,-527,5,13,-18,0,0,0,1,68964070,0
33996,69064030,0,232,47,-528,5,13,-18,0,0,0,1,69064030,0
34085,69163990,0,236,42,-527,5,13,-18,0,0,0,1,69163990,0
34175,69263950,0,230,47,-529,5,13,-18,0,0,0,1,69263950,0
34266,69363910,0,235,42,-527,5,13,-18,0,0,0,1,69363910,0
34357,69463870,0,229,46,-530,5,13,-18,0,0,0,1,69463870,0
34448,69563830,0,235,42,-528,5,13,-18,0,0,0,1,69563830,0
34537,69663790,0,231,47,-529,5,13,-18,0,0,0,1,69663790,0
34626,69763750,0,236,41,-527,5,13,-18,0,0,0,1,69763750,0
34715,69863710,0,233,46,-528,5,13,-18,0,0,0,1,69863710,0
34805,69963670,0,235,42,-527,5,13,-18,0,0,0,1,69963670,0
34896,70063630,0,232,47,-528,5,13,-18,0,0,0,1,70063630,0
34985,70163590,0,235,38,-528,5,13,-18,0,0,0,1,70163590,0
35075,70263550,0,232,45,-529,5,13,-18,0,0,0,1,70263550,0
35166,70363510,0,235,40,-528,5,13,-18,0,0,0,1,70363510,0
35257,70463470,0,232,46,-528,5,13,-18,0,0,0,1,70463470,0
35348,70563430,0,237,40,-526,5,13,-18,0,0,0,1,70563430,0
35437,70663390,0,232,46,-528,5,13,-18,0,0,0,1,70663390,0
35526,70763350,0,235,42,-527,5,13,-18,0,0,0,1,70763350,0
35615,70863310,0,231,48,-529,5,13,-18,0,0,0,1,70863310,0
35705,70963270,0,235,41,-528,5,13,-18,0,0,0,1,70963270,0
35796,71064063,0,233,47,-528,5,13,-18,0,0,0,1,71064063,0
35885,71164023,0,235,41,-527,5,13,-18,0,0,0,1,71164023,0
35975,71263983,0,233,47,-528,5,13,-18,0,0,0,1,71263983,0
36066,71363943,0,236,42,-527,5,13,-18,0,0,0,1,71363943,0
36157,71463903,0,232,47,-528,5,13,-18,0,0,0,1,71463903,0
36249,71563863,0,235,42,-527,5,13,-18,0,0,0,1,71563863,0
36338,71663823,0,232,47,-528,5,13,-18,0,0,0,1,71663823,0
36427,71763783,0,235,40,-527,5,13,-18,0,0,0,1,71763783,0
36516,71863743,0,232,44,-528,5,13,-18,0,0,0,1,71863743,0
36606,71963703,0,235,38,-528,5,13,-18,0,0,0,1,71963703,0
36697,72063663,0,234,46,-527,5,13,-18,0,0,0,1,72063663,0
36786,72163623,0,233,40,-528,5,13,-18,0,0,0,1,72163623,0
36876,72263583,0,231,47,-529,5,13,-18,0,0,0,1,72263583,0
36968,72363543,0,233,41,-528,5,13,-18,0,0,0,1,72363543,0
37060,72463503,0,232,47,-528,5,13,-18,0,0,0,1,72463503,0
37151,72563463,0,225,43,-532,5,13,-18,0,0,0,1,72563463,0
37240,72663423,0,202,59,-539,5,13,-18,0,0,0,1,72663423,0
37329,72763383,0,177,71,-547,5,13,-18,0,0,0,1,72763383,0
37418,72863343,0,149,98,-551,5,13,-18,0,0,0,1,72863343,0
37508,72963303,0,125,113,-554,5,13,-18,0,0,0,1,72963303,0
37599,73063263,0,106,135,-553,5,13,-18,0,0,0,1,73063263,0
37688,73164056,0,97,135,-555,5,13,-18,0,0,0,1,73164056,0
37778,73264016,0,87,144,-554,5,13,-18,0,0,0,1,73264016,0
37869,73363976,0,75,141,-557,5,13,-18,0,0,0,1,73363976,0
37960,73463936,0,54,152,-556,5,13,-18,0,0,0,1,73463936,0
38051,73563896,0,37,151,-558,5,13,-18,0,0,0,1,73563896,0
38140,73663856,0,11,161,-556,5,13,-18,0,0,0,1,73663856,0
38229,73763816,0,-7,155,-558,5,13,-18,0,0,0,1,73763816,0
38318,73863776,0,-30,159,-556,5,13,-18,0,0,0,1,73863776,0
38408,73963736,0,-48,146,-558,5,13,-18,0,0,0,1,73963736,0
38499,74063696,0,-63,151,-555,5,13,-18,0,0,0,1,74063696,0
38589,74163656,0,-58,146,-557,5,13,-18,0,0,0,1,74163656,0
38679,74263616,0,-44,159,-555,5,13,-18,0,0,0,1,74263616,0
38770,74363576,0,-19,160,-556,5,13,-18,0,0,0,1,74363576,0
38861,74463536,0,11,174,-552,5,13,-18,0,0,0,1,74463536,0
38952,74563496,0,48,172,-550,5,13,-18,0,0,0,1,74563496,0
39041,74663456,0,84,182,-543,5,13,-18,0,0,0,1,74663456,0
39131,74763416,0,125,175,-538,5,13,-18,0,0,0,1,74763416,0
39220,74863376,0,155,173,-530,5,13,-18,0,0,0,1,74863376,0
39310,74963336,0,177,158,-528,5,13,-18,0,0,0,1,74963336,0
39401,75063296,0,189,156,-525,5,13,-18,0,0,0,1,75063296,0
39490,75164089,0,198,144,-524,5,13,-18,0,0,0,1,75164089,0
39580,75264049,0,206,148,-520,5,13,-18,0,0,0,1,75264049,0
39671,75364009,0,213,140,-520,5,13,-18,0,0,0,1,75364009,0
39763,75463969,0,213,146,-518,5,13,-18,0,0,0,1,75463969,0
39854,75563929,0,217,143,-517,5,13,-18,0,0,0,1,75563929,0
39943,75663889,0,215,152,-515,5,13,-18,0,0,0,1,75663889,0
40032,75763849,0,216,151,-516,5,13,-18,0,0,0,1,75763849,0
40121,75863809,0,212,163,-514,5,13,-18,0,0,0,1,75863809,0
40211,75963769,0,210,161,-515,5,13,-18,0,0,0,1,75963769,0
40302,76063729,0,207,173,-512,5,13,-18,0,0,0,1,76063729,0
40391,76163689,0,205,171,-514,5,13,-18,0,0,0,1,76163689,0
40481,76263649,0,204,177,-512,5,13,-18,0,0,0,1,76263649,0
40572,76363609,0,202,170,-515,5,13,-18,0,0,0,1,76363609,0
40664,76463569,0,204,176,-512,5,13,-18,0,0,0,1,76463569,0
40755,76563529,0,204,169,-515,5,13,-18,0,0,0,1,76563529,0
40845,76663489,0,205,174,-513,5,13,-18,0,0,0,1,76663489,0
40934,76763449,0,205,165,-516,5,13,-18,0,0,0,1,76763449,0
41023,76863409,0,205,169,-514,5,13,-18,0,0,0,1,76863409,0
41113,76963369,0,206,160,-517,5,13,-18,0,0,0,1,76963369,0
41204,77063329,0,207,165,-515,5,13,-18,0,0,0,1,77063329,0
41293,77163289,0,207,156,-518,5,13,-18,0,0,0,1,77163289,0
41383,77264082,0,208,161,-516,5,13,-18,0,0,0,1,77264082,0
41475,77364042,0,207,152,-519,5,13,-18,0,0,0,1,77364042,0
41565,77464002,0,203,157,-519,5,13,-18,0,0,0,1,77464002,0
41657,77563962,0,186,150,-527,5,13,-18,0,0,0,1,77563962,0
41746,77663922,0,157,159,-534,5,13,-18,0,0,0,1,77663922,0
41835,77763882,0,123,157,-543,5,13,-18,0,0,0,1,77763882,0
41924,77863842,0,89,168,-547,5,13,-18,0,0,0,1,77863842,0
42013,77963802,0,56,163,-553,5,13,-18,0,0,0,1,77963802,0
42105,78063762,0,24,171,-552,5,13,-18,0,0,0,1,78063762,0
42194,78163722,0,2,166,-555,5,13,-18,0,0,0,1,78163722,0
42284,78263682,0,-3,173,-553,5,13,-18,0,0,0,1,78263682,0
42375,78363642,0,-12,167,-554,5,13,-18,0,0,0,1,78363642,0
42466,78463602,0,-15,170,-553,5,13,-18,0,0,0,1,78463602,0
42558,78563562,0,-23,161,-555,5,13,-18,0,0,0,1,78563562,0
42647,78663522,0,-24,168,-553,5,13,-18,0,0,0,1,78663522,0
42736,78763482,0,-30,163,-555,5,13,-18,0,0,0,1,78763482,0
42825,78863442,0,-32,172,-552,5,13,-18,0,0,0,1,78863442,0
42914,78963402,0,-28,168,-553,5,13,-18,0,0,0,1,78963402,0
43006,79063362,0,-9,177,-551,5,13,-18,0,0,0,1,79063362,0
43095,79163322,0,12,171,-553,5,13,-18,0,0,0,1,79163322,0
43185,79263282,0,41,177,-550,5,13,-18,0,0,0,1,79263282,0
43276,79364075,0,67,169,-550,5,13,-18,0,0,0,1,79364075,0
43367,79464035,0,98,175,-543,5,13,-18,0,0,0,1,79464035,0
43459,79563995,0,125,169,-539,5,13,-18,0,0,0,1,79563995,0
43548,79663955,0,151,173,-531,5,13,-18,0,0,0,1,79663955,0
43637,79763915,0,163,164,-531,5,13,-18,0,0,0,1,79763915,0
43726,79863875,0,172,170,-526,5,13,-18,0,0,0,1,79863875,0
43815,79963835,0,174,165,-527,5,13,-18,0,0,0,1,79963835,0
43907,80063795,0,181,172,-522,5,13,-18,0,0,0,1,80063795,0
43997,80163755,0,182,167,-524,5,13,-18,0,0,0,1,80163755,0
44087,80263715,0,187,172,-520,5,13,-18,0,0,0,1,80263715,0
44178,80363675,0,187,167,-522,5,13,-18,0,0,0,1,80363675,0
44268,80463635,0,195,173,-517,5,13,-18,0,0,0,1,80463635,0
44360,80563595,0,190,171,-519,5,13,-18,0,0,0,1,80563595,0
44449,80663555,0,196,175,-516,5,13,-18,0,0,0,1,80663555,0
44538,80763515,0,194,168,-519,5,13,-18,0,0,0,1,80763515,0
44627,80863475,0,201,172,-515,5,13,-18,0,0,0,1,80863475,0
44716,80963435,0,198,166,-518,5,13,-18,0,0,0,1,80963435,0
44808,81063395,0,203,171,-514,5,13,-18,0,0,0,1,81063395,0
44898,81163355,0,199,166,-518,5,13,-18,0,0,0,1,81163355,0
44988,81263315,0,204,170,-515,5,13,-18,0,0,0,1,81263315,0
45079,81363275,0,199,165,-518,5,13,-18,0,0,0,1,81363275,0
45169,81464068,0,202,169,-515,5,13,-18,0,0,0,1,81464068,0
45261,81564028,0,197,166,-518,5,13,-18,0,0,0,1,81564028,0
45351,81663988,0,202,171,-515,5,13,-18,0,0,0,1,81663988,0
45440,81763948,0,197,166,-519,5,13,-18,0,0,0,1,81763948,0
45529,81863908,0,200,170,-516,5,13,-18,0,0,0,1,81863908,0
45618,81963868,0,196,164,-519,5,13,-18,0,0,0,1,81963868,0
45710,82063828,0,199,170,-516,5,13,-18,0,0,0,1,82063828,0
45799,82163788,0,193,165,-520,5,13,-18,0,0,0,1,82163788,0
45889,82263748,0,196,170,-517,5,13,-18,0,0,0,1,82263748,0
45982,82363708,0,189,168,-521,5,13,-18,0,0,0,1,82363708,0
46072,82463668,0,187,168,-521,5,13,-18,0,0,0,1,82463668,0
46164,82563628,0,162,163,-531,5,13,-18,0,0,0,1,82563628,0
46253,82663588,0,141,168,-536,5,13,-18,0,0,0,1,82663588,0
46342,82763548,0,101,166,-545,5,13,-18,0,0,0,1,82763548,0
46431,82863508,0,73,170,-549,5,13,-18,0,0,0,1,82863508,0
46520,82963468,0,35,166,-553,5,13,-18,0,0,0,1,82963468,0
46613,83063428,0,14,172,-553,5,13,-18,0,0,0,1,83063428,0
46702,83163388,0,-4,169,-554,5,13,-18,0,0,0,1,83163388,0
46792,83263348,0,-3,173,-552,5,13,-18,0,0,0,1,83263348,0
46883,83363308,0,-12,167,-554,5,13,-18,0,0,0,1,83363308,0
46973,83463268,0,-9,169,-554,5,13,-18,0,0,0,1,83463268,0
47065,83564061,0,-21,166,-554,5,13,-18,0,0,0,1,83564061,0
47154,83664021,0,-19,169,-554,5,13,-18,0,0,0,1,83664021,0
47243,83763981,0,-30,166,-554,5,13,-18,0,0,0,1,83763981,0
47332,83863941,0,-27,171,-552,5,13,-18,0,0,0,1,83863941,0
47421,83963901,0,-25,170,-553,5,13,-18,0,0,0,1,83963901,0
47514,84063861,0,0,176,-552,5,13,-18,0,0,0,1,84063861,0
47603,84163821,0,18,173,-552,5,13,-18,0,0,0,1,84163821,0
47693,84263781,0,50,177,-549,5,13,-18,0,0,0,1,84263781,0
47784,84363741,0,73,173,-547,5,13,-18,0,0,0,1,84363741,0
47874,84463701,0,107,176,-541,5,13,-18,0,0,0,1,84463701,0
47966,84563661,0,128,172,-538,5,13,-18,0,0,0,1,84563661,0
48055,84663621,0,155,169,-532,5,13,-18,0,0,0,1,84663621,0
48145,84763581,0,161,164,-531,5,13,-18,0,0,0,1,84763581,0
48234,84863541,0,172,167,-527,5,13,-18,0,0,0,1,84863541,0
48323,84963501,0,170,169,-527,5,13,-18,0,0,0,1,84963501,0
48415,85063461,0,180,174,-522,5,13,-18,0,0,0,1,85063461,0
48504,85163421,0,179,172,-523,5,13,-18,0,0,0,1,85163421,0
48594,85263381,0,189,173,-519,5,13,-18,0,0,0,1,85263381,0
48685,85363341,0,186,171,-521,5,13,-18,0,0,0,1,85363341,0
48775,85463301,0,194,172,-517,5,13,-18,0,0,0,1,85463301,0
48868,85563261,0,191,170,-519,5,13,-18,0,0,0,1,85563261,0
48957,85664054,0,199,171,-516,5,13,-18,0,0,0,1,85664054,0
49046,85764014,0,194,169,-519,5,13,-18,0,0,0,1,85764014,0
49135,85863974,0,202,171,-515,5,13,-18,0,0,0,1,85863974,0
49224,85963934,0,197,170,-517,5,13,-18,0,0,0,1,85963934,0
49316,86063894,0,205,172,-514,5,13,-18,0,0,0,1,86063894,0
49405,86163854,0,198,170,-517,5,13,-18,0,0,0,1,86163854,0
49495,86263814,0,205,170,-514,5,13,-18,0,0,0,1,86263814,0
49586,86363774,0,198,170,-517,5,13,-18,0,0,0,1,86363774,0
49676,86463734,0,204,170,-514,5,13,-18,0,0,0,1,86463734,0
49769,86563694,0,199,170,-516,5,13,-18,0,0,0,1,86563694,0
49858,86663654,0,205,171,-514,5,13,-18,0,0,0,1,86663654,0
49948,86763614,0,195,171,-518,5,13,-18,0,0,0,1,86763614,0
50037,86863574,0,198,168,-517,5,13,-18,0,0,0,1,86863574,0
50126,86963534,0,193,170,-519,5,13,-18,0,0,0,1,86963534,0
50217,87063494,0,200,169,-516,5,13,-18,0,0,0,1,87063494,0
50307,87163454,0,192,170,-519,5,13,-18,0,0,0,1,87163454,0
50397,87263414,0,198,170,-517,5,13,-18,0,0,0,1,87263414,0
50489,87363374,0,189,170,-520,5,13,-18,0,0,0,1,87363374,0
50578,87463334,0,185,166,-523,5,13,-18,0,0,0,1,87463334,0
50670,87563294,0,154,163,-534,5,13,-18,0,0,0,1,87563294,0
50760,87664087,0,130,157,-542,5,13,-18,0,0,0,1,87664087,0
50849,87764047,0,90,157,-550,5,13,-18,0,0,0,1,87764047,0
50938,87864007,0,67,153,-554,5,13,-18,0,0,0,1,87864007,0
51027,87963967,0,33,150,-558,5,13,-18,0,0,0,1,87963967,0
51118,88063927,0,22,149,-559,5,13,-18,0,0,0,1,88063927,0
51208,88163887,0,7,148,-560,5,13,-18,0,0,0,1,88163887,0
51298,88263847,0,13,146,-560,5,13,-18,0,0,0,1,88263847,0
51389,88363807,0,4,145,-560,5,13,-18,0,0,0,1,88363807,0
51479,88463767,0,9,143,-561,5,13,-18,0,0,0,1,88463767,0
51571,88563727,0,-3,145,-561,5,13,-18,0,0,0,1,88563727,0
51661,88663687,0,0,142,-561,5,13,-18,0,0,0,1,88663687,0
51750,88763647,0,-9,146,-560,5,13,-18,0,0,0,1,88763647,0
51839,88863607,0,-6,145,-561,5,13,-18,0,0,0,1,88863607,0
51928,88963567,0,-2,151,-559,5,13,-18,0,0,0,1,88963567,0
52019,89063527,0,24,147,-559,5,13,-18,0,0,0,1,89063527,0
52109,89163487,0,42,150,-557,5,13,-18,0,0,0,1,89163487,0
52199,89263447,0,76,149,-554,5,13,-18,0,0,0,1,89263447,0
52290,89363407,0,96,152,-550,5,13,-18,0,0,0,1,89363407,0
52380,89463367,0,130,151,-543,5,13,-18,0,0,0,1,89463367,0
52472,89563327,0,150,152,-538,5,13,-18,0,0,0,1,89563327,0
52562,89663287,0,173,149,-532,5,13,-18,0,0,0,1,89663287,0
52651,89764080,0,177,151,-530,5,13,-18,0,0,0,1,89764080,0
52740,89864040,0,191,149,-526,5,13,-18,0,0,0,1,89864040,0
52829,89964000,0,189,153,-525,5,13,-18,0,0,0,1,89964000,0
52921,90063960,0,199,151,-522,5,13,-18,0,0,0,1,90063960,0
53011,90163920,0,197,152,-523,5,13,-18,0,0,0,1,90163920,0
53101,90263880,0,207,149,-520,5,13,-18,0,0,0,1,90263880,0
53192,90363840,0,206,151,-520,5,13,-18,0,0,0,1,90363840,0
53281,90463800,0,215,147,-517,5,13,-18,0,0,0,1,90463800,0
53373,90563760,0,212,149,-518,5,13,-18,0,0,0,1,90563760,0
53463,90663720,0,218,146,-516,5,13,-18,0,0,0,1,90663720,0
53552,90763680,0,215,148,-517,5,13,-18,0,0,0,1,90763680,0
53641,90863640,0,223,142,-515,5,13,-18,0,0,0,1,90863640,0
53730,90963600,0,222,147,-514,5,13,-18,0,0,0,1,90963600,0
53822,91063560,0,225,142,-514,5,13,-18,0,0,0,1,91063560,0
53912,91163520,0,219,147,-515,5,13,-18,0,0,0,1,91163520,0
54002,91263480,0,223,144,-514,5,13,-18,0,0,0,1,91263480,0
54093,91363440,0,218,150,-515,5,13,-18,0,0,0,1,91363440,0
54182,91463400,0,223,146,-514,5,13,-18,0,0,0,1,91463400,0
54274,91563360,0,217,151,-515,5,13,-18,0,0,0,1,91563360,0
54364,91663320,0,220,146,-515,5,13,-18,0,0,0,1,91663320,0
54453,91763280,0,215,152,-516,5,13,-18,0,0,0,1,91763280,0
54543,91864073,0,218,147,-516,5,13,-18,0,0,0,1,91864073,0
54632,91964033,0,212,151,-517,5,13,-18,0,0,0,1,91964033,0
54723,92063993,0,216,147,-516,5,13,-18,0,0,0,1,92063993,0
54813,92163953,0,209,152,-518,5,13,-18,0,0,0,1,92163953,0
54904,92263913,0,214,149,-517,5,13,-18,0,0,0,1,92263913,0
54998,92363873,0,206,152,-519,5,13,-18,0,0,0,1,92363873,0
55087,92463833,0,197,147,-524,5,13,-18,0,0,0,1,92463833,0
55179,92563793,0,165,155,-533,5,13,-18,0,0,0,1,92563793,0
55269,92663753,0,136,159,-540,5,13,-18,0,0,0,1,92663753,0
55358,92763713,0,98,174,-543,5,13,-18,0,0,0,1,92763713,0
55447,92863673,0,64,175,-548,5,13,-18,0,0,0,1,92863673,0
55536,92963633,0,26,186,-548,5,13,-18,0,0,0,1,92963633,0
55628,93063593,0,5,182,-550,5,13,-18,0,0,0,1,93063593,0
55718,93163553,0,-10,190,-547,5,13,-18,0,0,0,1,93163553,0
55808,93263513,0,-17,182,-549,5,13,-18,0,0,0,1,93263513,0
55899,93363473,0,-29,187,-547,5,13,-18,0,0,0,1,93363473,0
55988,93463433,0,-30,180,-549,5,13,-18,0,0,0,1,93463433,0
56080,93563393,0,-42,184,-547,5,13,-18,0,0,0,1,93563393,0
56170,93663353,0,-46,178,-549,5,13,-18,0,0,0,1,93663353,0
56259,93763313,0,-56,186,-545,5,13,-18,0,0,0,1,93763313,0
56348,93863273,0,-55,181,-547,5,13,-18,0,0,0,1,93863273,0
56437,93964066,0,-50,191,-544,5,13,-18,0,0,0,1,93964066,0
56529,94064026,0,-27,187,-547,5,13,-18,0,0,0,1,94064026,0
56619,94163986,0,-3,194,-545,5,13,-18,0,0,0,1,94163986,0
56709,94263946,0,30,187,-547,5,13,-18,0,0,0,1,94263946,0
56800,94363906,0,56,191,-543,5,13,-18,0,0,0,1,94363906,0
56889,94463866,0,88,183,-542,5,13,-18,0,0,0,1,94463866,0
56981,94563826,0,115,185,-536,5,13,-18,0,0,0,1,94563826,0
57071,94663786,0,140,176,-533,5,13,-18,0,0,0,1,94663786,0
57161,94763746,0,150,178,-530,5,13,-18,0,0,0,1,94763746,0
57250,94863706,0,159,173,-529,5,13,-18,0,0,0,1,94863706,0
57339,94963666,0,160,182,-526,5,13,-18,0,0,0,1,94963666,0
57430,95063626,0,164,177,-526,5,13,-18,0,0,0,1,95063626,0
57520,95163586,0,165,186,-523,5,13,-18,0,0,0,1,95163586,0
57610,95263546,0,172,180,-523,5,13,-18,0,0,0,1,95263546,0
57701,95363506,0,174,186,-520,5,13,-18,0,0,0,1,95363506,0
57791,95463466,0,178,181,-520,5,13,-18,0,0,0,1,95463466,0
57883,95563426,0,177,187,-518,5,13,-18,0,0,0,1,95563426,0
57973,95663386,0,181,182,-519,5,13,-18,0,0,0,1,95663386,0
58062,95763346,0,182,187,-517,5,13,-18,0,0,0,1,95763346,0
58151,95863306,0,185,181,-518,5,13,-18,0,0,0,1,95863306,0
58240,95963266,0,185,186,-516,5,13,-18,0,0,0,1,95963266,0
58331,96064059,0,188,181,-517,5,13,-18,0,0,0,1,96064059,0
58421,96164019,0,188,188,-514,5,13,-18,0,0,0,1,96164019,0
58511,96263979,0,189,179,-517,5,13,-18,0,0,0,1,96263979,0
58603,96363939,0,187,184,-516,5,13,-18,0,0,0,1,96363939,0
58692,96463899,0,189,178,-517,5,13,-18,0,0,0,1,96463899,0
58784,96563859,0,187,185,-516,5,13,-18,0,0,0,1,96563859,0
58873,96663819,0,188,178,-518,5,13,-18,0,0,0,1,96663819,0
58963,96763779,0,187,185,-516,5,13,-18,0,0,0,1,96763779,0
59052,96863739,0,186,178,-519,5,13,-18,0,0,0,1,96863739,0
59142,96963699,0,185,184,-517,5,13,-18,0,0,0,1,96963699,0
59233,97063659,0,184,179,-519,5,13,-18,0,0,0,1,97063659,0
59322,97163619,0,184,188,-516,5,13,-18,0,0,0,1,97163619,0
59414,97263579,0,182,182,-518,5,13,-18,0,0,0,1,97263579,0
59505,97363539,0,176,185,-520,5,13,-18,0,0,0,1,97363539,0
59594,97463499,0,155,174,-530,5,13,-18,0,0,0,1,97463499,0
59686,97563459,0,125,179,-536,5,13,-18,0,0,0,1,97563459,0
59775,97663419,0,92,172,-545,5,13,-18,0,0,0,1,97663419,0
59865,97763379,0,61,178,-548,5,13,-18,0,0,0,1,97763379,0
59954,97863339,0,30,167,-553,5,13,-18,0,0,0,1,97863339,0
60043,97963299,0,5,174,-552,5,13,-18,0,0,0,1,97963299,0
60134,98064092,0,-8,167,-554,5,13,-18,0,0,0,1,98064092,0
60223,98164052,0,-8,171,-553,5,13,-18,0,0,0,1,98164052,0
60314,98264012,0,-11,162,-556,5,13,-18,0,0,0,1,98264012,0
60406,98363972,0,-13,168,-554,5,13,-18,0,0,0,1,98363972,0
60495,98463932,0,-16,160,-556,5,13,-18,0,0,0,1,98463932,0
60587,98563892,0,-21,169,-553,5,13,-18,0,0,0,1,98563892,0
60676,98663852,0,-25,163,-555,5,13,-18,0,0,0,1,98663852,0
60766,98763812,0,-27,172,-552,5,13,-18,0,0,0,1,98763812,0
60855,98863772,0,-18,168,-554,5,13,-18,0,0,0,1,98863772,0
60944,98963732,0,0,178,-551,5,13,-18,0,0,0,1,98963732,0
61036,99063692,0,22,171,-553,5,13,-18,0,0,0,1,99063692,0
61125,99163652,0,52,176,-549,5,13,-18,0,0,0,1,99163652,0
61216,99263612,0,77,170,-548,5,13,-18,0,0,0,1,99263612,0
61307,99363572,0,107,177,-541,5,13,-18,0,0,0,1,99363572,0
61396,99463532,0,130,170,-538,5,13,-18,0,0,0,1,99463532,0
61488,99563492,0,151,175,-531,5,13,-18,0,0,0,1,99563492,0
61577,99663452,0,160,167,-530,5,13,-18,0,0,0,1,99663452,0
61668,99763412,0,168,174,-526,5,13,-18,0,0,0,1,99763412,0
61757,99863372,0,171,170,-526,5,13,-18,0,0,0,1,99863372,0
61846,99963332,0,177,177,-522,5,13,-18,0,0,0,1,99963332,0
61937,100063292,0,179,171,-523,5,13,-18,0,0,0,1,100063292,0
62026,100164085,0,185,176,-520,5,13,-18,0,0,0,1,100164085,0
62117,100264045,0,185,168,-522,5,13,-18,0,0,0,1,100264045,0
62209,100364005,0,192,174,-518,5,13,-18,0,0,0,1,100364005,0
62298,100463965,0,193,168,-519,5,13,-18,0,0,0,1,100463965,0
62390,100563925,0,198,173,-516,5,13,-18,0,0,0,1,100563925,0
62479,100663885,0,197,166,-518,5,13,-18,0,0,0,1,100663885,0
62569,100763845,0,202,171,-515,5,13,-18,0,0,0,1,100763845,0
62658,100863805,0,200,166,-517,5,13,-18,0,0,0,1,100863805,0
62747,100963765,0,204,171,-514,5,13,-18,0,0,0,1,100963765,0
62838,101063725,0,203,166,-516,5,13,-18,0,0,0,1,101063725,0
62927,101163685,0,205,171,-514,5,13,-18,0,0,0,1,101163685,0
63018,101263645,0,199,165,-518,5,13,-18,0,0,0,1,101263645,0
63110,101363605,0,203,168,-515,5,13,-18,0,0,0,1,101363605,0
63199,101463565,0,198,166,-518,5,13,-18,0,0,0,1,101463565,0
63291,101563525,0,202,172,-514,5,13,-18,0,0,0,1,101563525,0
63380,101663485,0,197,166,-518,5,13,-18,0,0,0,1,101663485,0
63470,101763445,0,200,170,-516,5,13,-18,0,0,0,1,101763445,0
63559,101863405,0,194,166,-520,5,13,-18,0,0,0,1,101863405,0
63648,101963365,0,198,172,-516,5,13,-18,0,0,0,1,101963365,0
63740,102063325,0,193,168,-519,5,13,-18,0,0,0,1,102063325,0
63829,102163285,0,196,173,-517,5,13,-18,0,0,0,1,102163285,0
63921,102264078,0,188,169,-521,5,13,-18,0,0,0,1,102264078,0
64013,102364038,0,180,171,-523,5,13,-18,0,0,0,1,102364038,0
64102,102463998,0,150,163,-534,5,13,-18,0,0,0,1,102463998,0
64194,102563958,0,124,168,-540,5,13,-18,0,0,0,1,102563958,0
64283,102663918,0,87,163,-549,5,13,-18,0,0,0,1,102663918,0
64373,102763878,0,61,168,-551,5,13,-18,0,0,0,1,102763878,0
64462,102863838,0,26,161,-556,5,13,-18,0,0,0,1,102863838,0
64551,102963798,0,10,166,-554,5,13,-18,0,0,0,1,102963798,0
64642,103063758,0,-3,161,-556,5,13,-18,0,0,0,1,103063758,0
64731,103163718,0,0,164,-555,5,13,-18,0,0,0,1,103163718,0
64822,103263678,0,-7,161,-556,5,13,-18,0,0,0,1,103263678,0
64914,103363638,0,-6,164,-555,5,13,-18,0,0,0,1,103363638,0
65003,103463598,0,-17,161,-556,5,13,-18,0,0,0,1,103463598,0
65095,103563558,0,-14,164,-555,5,13,-18,0,0,0,1,103563558,0
65184,103663518,0,-26,161,-556,5,13,-18,0,0,0,1,103663518,0
65274,103763478,0,-24,165,-554,5,13,-18,0,0,0,1,103763478,0
65363,103863438,0,-25,162,-555,5,13,-18,0,0,0,1,103863438,0
65452,103963398,0,-3,168,-554,5,13,-18,0,0,0,1,103963398,0
65544,104063358,0,14,165,-555,5,13,-18,0,0,0,1,104063358,0
65633,104163318,0,46,170,-551,5,13,-18,0,0,0,1,104163318,0
65723,104263278,0,68,166,-550,5,13,-18,0,0,0,1,104263278,0
65815,104364071,0,103,169,-544,5,13,-18,0,0,0,1,104364071,0
65904,104464031,0,127,166,-540,5,13,-18,0,0,0,1,104464031,0
65996,104563991,0,154,166,-533,5,13,-18,0,0,0,1,104563991,0
66085,104663951,0,161,161,-532,5,13,-18,0,0,0,1,104663951,0
66176,104763911,0,174,164,-527,5,13,-18,0,0,0,1,104763911,0
66265,104863871,0,174,163,-527,5,13,-18,0,0,0,1,104863871,0
66354,104963831,0,184,167,-523,5,13,-18,0,0,0,1,104963831,0
66445,105063791,0,184,164,-524,5,13,-18,0,0,0,1,105063791,0
66534,105163751,0,193,166,-520,5,13,-18,0,0,0,1,105163751,0
66624,105263711,0,191,162,-522,5,13,-18,0,0,0,1,105263711,0
66717,105363671,0,201,164,-518,5,13,-18,0,0,0,1,105363671,0
66806,105463631,0,197,164,-519,5,13,-18,0,0,0,1,105463631,0
66898,105563591,0,205,165,-516,5,13,-18,0,0,0,1,105563591,0
66987,105663551,0,200,163,-518,5,13,-18,0,0,0,1,105663551,0
67077,105763511,0,208,165,-514,5,13,-18,0,0,0,1,105763511,0
67166,105863471,0,203,164,-517,5,13,-18,0,0,0,1,105863471,0
67255,105963431,0,210,166,-514,5,13,-18,0,0,0,1,105963431,0
67346,106063391,0,204,163,-517,5,13,-18,0,0,0,1,106063391,0
67435,106163351,0,210,164,-514,5,13,-18,0,0,0,1,106163351,0
67525,106263311,0,204,162,-517,5,13,-18,0,0,0,1,106263311,0
67618,106363271,0,210,163,-514,5,13,-18,0,0,0,1,106363271,0
67709,106464064,0,205,160,-517,5,13,-18,0,0,0,1,106464064,0
67801,106564024,0,210,159,-515,5,13,-18,0,0,0,1,106564024,0
67890,106663984,0,201,161,-519,5,13,-18,0,0,0,1,106663984,0
67980,106763944,0,206,165,-515,5,13,-18,0,0,0,1,106763944,0
68069,106863904,0,198,165,-518,5,13,-18,0,0,0,1,106863904,0
68158,106963864,0,204,167,-515,5,13,-18,0,0,0,1,106963864,0
68249,107063824,0,197,166,-518,5,13,-18,0,0,0,1,107063824,0
68340,107163784,0,201,166,-517,5,13,-18,0,0,0,1,107163784,0
68430,107263744,0,191,166,-521,5,13,-18,0,0,0,1,107263744,0
68522,107363704,0,181,163,-525,5,13,-18,0,0,0,1,107363704,0
68611,107463664,0,148,162,-536,5,13,-18,0,0,0,1,107463664,1
68703,107563624,0,123,164,-541,5,13,-18,0,0,0,1,107563624,1
68792,107663584,0,83,169,-547,5,13,-18,0,0,0,1,107663584,1
68881,107763544,0,57,168,-551,5,13,-18,0,0,0,1,107763544,1
68971,107863504,0,20,169,-553,5,13,-18,0,0,0,1,107863504,1
69060,107963464,0,8,171,-553,5,13,-18,0,0,0,1,107963464,1
69151,108063424,0,-8,172,-553,5,13,-18,0,0,0,1,108063424,1
69240,108163384,0,-3,171,-553,5,13,-18,0,0,0,1,108163384,1
69329,108263344,0,-13,169,-553,5,13,-18,0,0,0,1,108263344,1
69423,108363304,0,-9,168,-554,5,13,-18,0,0,0,1,108363304,1
69512,108463264,0,-21,170,-553,5,13,-18,0,0,0,1,108463264,1
69604,108564057,0,-20,168,-554,5,13,-18,0,0,0,1,108564057,1
69693,108664017,0,-30,171,-552,5,13,-18,0,0,0,1,108664017,1
69782,108763977,0,-14,172,-552,5,13,-18,0,0,0,1,108763977,1
69872,108863937,0,-2,174,-552,5,13,-18,0,0,0,1,108863937,1
69961,108963897,0,30,176,-551,5,13,-18,0,0,0,1,108963897,1
70053,109063857,0,52,175,-549,5,13,-18,0,0,0,1,109063857,1
70142,109163817,0,87,175,-545,5,13,-18,0,0,0,1,109163817,1
70231,109263777,0,110,174,-541,5,13,-18,0,0,0,1,109263777,1
70324,109363737,0,145,173,-533,5,13,-18,0,0,0,1,109363737,1
70413,109463697,0,160,174,-529,5,13,-18,0,0,0,1,109463697,1
70505,109563657,0,176,168,-525,5,13,-18,0,0,0,1,109563657,1
70595,109663617,0,177,170,-524,5,13,-18,0,0,0,1,109663617,1
70684,109763577,0,186,170,-521,5,13,-18,0,0,0,1,109763577,1
70774,109863537,0,182,174,-521,5,13,-18,0,0,0,1,109863537,1
70863,109963497,0,189,171,-519,5,13,-18,0,0,0,1,109963497,1
70954,110063457,0,185,172,-521,5,13,-18,0,0,0,1,110063457,1
71043,110163417,0,191,170,-519,5,13,-18,0,0,0,1,110163417,1
71132,110263377,0,186,172,-521,5,13,-18,0,0,0,1,110263377,1
71225,110363337,0,192,171,-518,5,13,-18,0,0,0,1,110363337,1
71314,110463297,0,187,173,-520,5,13,-18,0,0,0,1,110463297,1
71406,110564090,0,193,172,-518,5,13,-18,0,0,0,1,110564090,1
71496,110664050,0,186,177,-519,5,13,-18,0,0,0,1,110664050,1
71585,110764010,0,193,173,-518,5,13,-18,0,0,0,1,110764010,1
71675,110863970,0,187,172,-520,5,13,-18,0,0,0,1,110863970,1
71764,110963930,0,193,168,-519,5,13,-18,0,0,0,1,110963930,1
71855,111063890,0,186,170,-521,5,13,-18,0,0,0,1,111063890,1
71944,111163850,0,191,166,-520,5,13,-18,0,0,0,1,111163850,1
72033,111263810,0,185,170,-521,5,13,-18,0,0,0,1,111263810,1
72126,111363770,0,191,167,-520,5,13,-18,0,0,0,1,111363770,1
72215,111463730,0,187,169,-521,5,13,-18,0,0,0,1,111463730,1
72307,111563690,0,192,167,-520,5,13,-18,0,0,0,1,111563690,1
72396,111663650,0,186,172,-521,5,13,-18,0,0,0,1,111663650,1
72485,111763610,0,189,166,-521,5,13,-18,0,0,0,1,111763610,1
72575,111863570,0,187,171,-521,5,13,-18,0,0,0,1,111863570,1
72664,111963530,0,190,168,-520,5,13,-18,0,0,0,1,111963530,1
72755,112063490,0,184,172,-521,5,13,-18,0,0,0,1,112063490,1
72845,112163450,0,187,168,-521,5,13,-18,0,0,0,1,112163450,1
72935,112263410,0,176,172,-524,5,13,-18,0,0,0,1,112263410,1
73030,112363370,0,161,167,-530,5,13,-18,0,0,0,1,112363370,1
73119,112463330,0,127,174,-537,5,13,-18,0,0,0,1,112463330,1
73211,112563290,0,98,173,-543,5,13,-18,0,0,0,1,112563290,1
73300,112664083,0,63,182,-546,5,13,-18,0,0,0,1,112664083,1
73389,112764043,0,38,178,-549,5,13,-18,0,0,0,1,112764043,1
73479,112864003,0,5,185,-549,5,13,-18,0,0,0,1,112864003,1
73568,112963963,0,-4,183,-549,5,13,-18,0,0,0,1,112963963,1
73659,113063923,0,-16,189,-547,5,13,-18,0,0,0,1,113063923,1
73748,113163883,0,-14,184,-549,5,13,-18,0,0,0,1,113163883,1
73837,113263843,0,-22,188,-547,5,13,-18,0,0,0,1,113263843,1
73930,113363803,0,-20,181,-549,5,13,-18,0,0,0,1,113363803,1
74019,113463763,0,-29,188,-547,5,13,-18,0,0,0,1,113463763,1
74111,113563723,0,-29,182,-549,5,13,-18,0,0,0,1,113563723,1
74199,113663683,0,-35,189,-546,5,13,-18,0,0,0,1,113663683,1
74287,113763643,0,-30,187,-547,5,13,-18,0,0,0,1,113763643,1
74376,113863603,0,-18,196,-545,5,13,-18,0,0,0,1,113863603,1
74464,113963563,0,7,188,-547,5,13,-18,0,0,0,1,113963563,1
74554,114063523,0,31,194,-544,5,13,-18,0,0,0,1,114063523,1
74642,114163483,0,64,189,-544,5,13,-18,0,0,0,1,114163483,1
74730,114263443,0,89,193,-538,5,13,-18,0,0,0,1,114263443,1
74821,114363403,0,120,186,-535,5,13,-18,0,0,0,1,114363403,1
74909,114463363,0,140,189,-529,5,13,-18,0,0,0,1,114463363,1
75000,114563323,0,160,180,-526,5,13,-18,0,0,0,1,114563323,1
75088,114663283,0,163,184,-524,5,13,-18,0,0,0,1,114663283,1
75176,114764076,0,170,178,-524,5,13,-18,0,0,0,1,114764076,1
75265,114864036,0,168,184,-523,5,13,-18,0,0,0,1,114864036,1
75353,114963996,0,171,181,-523,5,13,-18,0,0,0,1,114963996,1
75443,115063956,0,169,188,-521,5,13,-18,0,0,0,1,115063956,1
75531,115163916,0,174,184,-521,5,13,-18,0,0,0,1,115163916,1
75619,115263876,0,171,189,-519,5,13,-18,0,0,0,1,115263876,1
75710,115363836,0,174,184,-520,5,13,-18,0,0,0,1,115363836,1
75798,115463796,0,171,188,-520,5,13,-18,0,0,0,1,115463796,1
75889,115563756,0,174,183,-521,5,13,-18,0,0,0,1,115563756,1
75977,115663716,0,170,188,-521,5,13,-18,0,0,0,1,115663716,1
76065,115763676,0,172,180,-522,5,13,-18,0,0,0,1,115763676,1
76154,115863636,0,173,186,-520,5,13,-18,0,0,0,1,115863636,1
76242,115963596,0,172,181,-522,5,13,-18,0,0,0,1,115963596,1
76332,116063556,0,169,187,-521,5,13,-18,0,0,0,1,116063556,1
76420,116163516,0,171,180,-523,5,13,-18,0,0,0,1,116163516,1
76508,116263476,0,171,185,-521,5,13,-18,0,0,0,1,116263476,1
76599,116363436,0,173,179,-522,5,13,-18,0,0,0,1,116363436,1
76687,116463396,0,171,184,-521,5,13,-18,0,0,0,1,116463396,1
76778,116563356,0,172,179,-523,5,13,-18,0,0,0,1,116563356,1
76866,116663316,0,170,185,-521,5,13,-18,0,0,0,1,116663316,1
76954,116763276,0,171,179,-523,5,13,-18,0,0,0,1,116763276,1
77043,116864069,0,168,185,-522,5,13,-18,0,0,0,1,116864069,1
77131,116964029,0,168,181,-524,5,13,-18,0,0,0,1,116964029,1
77221,117063989,0,168,187,-521,5,13,-18,0,0,0,1,117063989,1
77310,117163949,0,170,179,-524,5,13,-18,0,0,0,1,117163949,1
77398,117263909,0,160,180,-526,5,13,-18,0,0,0,1,117263909,1
77490,117363869,0,138,167,-537,5,13,-18,0,0,0,1,117363869,1
77578,117463829,0,108,169,-543,5,13,-18,0,0,0,1,117463829,1
77669,117563789,0,79,159,-551,5,13,-18,0,0,0,1,117563789,1
77757,117663749,0,50,161,-554,5,13,-18,0,0,0,1,117663749,1
77845,117763709,0,24,153,-558,5,13,-18,0,0,0,1,117763709,1
77934,117863669,0,8,160,-556,5,13,-18,0,0,0,1,117863669,1
78022,117963629,0,2,152,-559,5,13,-18,0,0,0,1,117963629,1
78112,118063589,0,9,156,-557,5,13,-18,0,0,0,1,118063589,1
78200,118163549,0,11,146,-560,5,13,-18,0,0,0,1,118163549,1
78288,118263509,0,14,152,-558,5,13,-18,0,0,0,1,118263509,1
78379,118363469,0,15,148,-560,5,13,-18,0,0,0,1,118363469,1
78467,118463429,0,16,157,-557,5,13,-18,0,0,0,1,118463429,1
78558,118563389,0,17,151,-559,5,13,-18,0,0,0,1,118563389,1
78646,118663349,0,30,160,-556,5,13,-18,0,0,0,1,118663349,1
78734,118763309,0,51,154,-556,5,13,-18,0,0,0,1,118763309,1
78823,118863269,0,80,162,-550,5,13,-18,0,0,0,1,118863269,1
78911,118964062,0,107,158,-547,5,13,-18,0,0,0,1,118964062,1
79001,119064022,0,136,165,-538,5,13,-18,0,0,0,1,119064022,1
79089,119163982,0,159,158,-534,5,13,-18,0,0,0,1,119163982,1
79177,119263942,0,180,164,-525,5,13,-18,0,0,0,1,119263942,1
79267,119363902,0,193,157,-523,5,13,-18,0,0,0,1,119363902,1
79356,119463862,0,199,163,-519,5,13,-18,0,0,0,1,119463862,1
79447,119563822,0,199,157,-520,5,13,-18,0,0,0,1,119563822,1
79535,119663782,0,200,163,-518,5,13,-18,0,0,0,1,119663782,1
79623,119763742,0,199,155,-521,5,13,-18,0,0,0,1,119763742,1
79711,119863702,0,203,160,-518,5,13,-18,0,0,0,1,119863702,1
79800,119963662,0,200,154,-521,5,13,-18,0,0,0,1,119963662,1
79890,120063622,0,202,157,-519,5,13,-18,0,0,0,1,120063622,1
79978,120163582,0,198,149,-523,5,13,-18,0,0,0,1,120163582,1
80066,120263542,0,201,153,-521,5,13,-18,0,0,0,1,120263542,1
80156,120363502,0,198,146,-524,5,13,-18,0,0,0,1,120363502,1
80245,120463462,0,201,151,-522,5,13,-18,0,0,0,1,120463462,1
80336,120563422,0,199,147,-524,5,13,-18,0,0,0,1,120563422,1
80424,120663382,0,200,153,-522,5,13,-18,0,0,0,1,120663382,1
80512,120763342,0,197,147,-524,5,13,-18,0,0,0,1,120763342,1
80600,120863302,0,199,153,-522,5,13,-18,0,0,0,1,120863302,1
80689,120963262,0,195,148,-524,5,13,-18,0,0,0,1,120963262,1
80779,121064055,0,199,151,-522,5,13,-18,0,0,0,1,121064055,1
80867,121164015,0,195,147,-525,5,13,-18,0,0,0,1,121164015,1
80955,121263975,0,197,154,-522,5,13,-18,0,0,0,1,121263975,1
81045,121363935,0,193,150,-525,5,13,-18,0,0,0,1,121363935,1
81134,121463895,0,196,155,-522,5,13,-18,0,0,0,1,121463895,1
81227,121563855,0,192,147,-526,5,13,-18,0,0,0,1,121563855,1
81315,121663815,0,142,131,-545,5,13,-18,0,0,0,1,121663815,1
81403,121763775,0,66,131,-560,5,13,-18,0,0,0,1,121763775,1
81491,121863735,0,62,158,-554,5,13,-18,0,0,0,1,121863735,1
81580,121963695,0,75,156,-553,5,13,-18,0,0,0,1,121963695,1
81671,122063655,0,89,156,-550,5,13,-18,0,0,0,1,122063655,1
81759,122163615,0,88,143,-554,5,13,-18,0,0,0,1,122163615,1
81847,122263575,0,81,145,-554,5,13,-18,0,0,0,1,122263575,1
81938,122363535,0,55,142,-559,5,13,-18,0,0,0,1,122363535,1
82028,122463495,0,32,152,-558,5,13,-18,0,0,0,1,122463495,1
82119,122563455,0,-1,148,-560,5,13,-18,0,0,0,1,122563455,1
82207,122663415,0,-29,157,-556,5,13,-18,0,0,0,1,122663415,1
82295,122763375,0,-63,152,-555,5,13,-18,0,0,0,1,122763375,1
82383,122863335,0,-78,160,-551,5,13,-18,0,0,0,1,122863335,1
82472,122963295,0,-94,153,-550,5,13,-18,0,0,0,1,122963295,1
82562,123064088,0,-97,157,-549,5,13,-18,0,0,0,1,123064088,1
82650,123164048,0,-108,150,-548,5,13,-18,0,0,0,1,123164048,1
82738,123264008,0,-105,157,-547,5,13,-18,0,0,0,1,123264008,1
82830,123363968,0,-110,150,-548,5,13,-18,0,0,0,1,123363968,1
82919,123463928,0,-107,157,-547,5,13,-18,0,0,0,1,123463928,1
83010,123563888,0,-111,152,-548,5,13,-18,0,0,0,1,123563888,1
83098,123663848,0,-108,158,-546,5,13,-18,0,0,0,1,123663848,1
83186,123763808,0,-111,153,-547,5,13,-18,0,0,0,1,123763808,1
83274,123863768,0,-107,160,-546,5,13,-18,0,0,0,1,123863768,1
83363,123963728,0,-109,155,-547,5,13,-18,0,0,0,1,123963728,1
83453,124063688,0,-105,163,-546,5,13,-18,0,0,0,1,124063688,1
83541,124163648,0,-110,158,-546,5,13,-18,0,0,0,1,124163648,1
83629,124263608,0,-104,162,-546,5,13,-18,0,0,0,1,124263608,1
83719,124363568,0,-110,157,-546,5,13,-18,0,0,0,1,124363568,1
83808,124463528,0,-105,163,-545,5,13,-18,0,0,0,1,124463528,1
83899,124563488,0,-110,157,-546,5,13,-18,0,0,0,1,124563488,1
83987,124663448,0,-105,163,-545,5,13,-18,0,0,0,1,124663448,1
84075,124763408,0,-110,157,-546,5,13,-18,0,0,0,1,124763408,1
84163,124863368,0,-106,164,-545,5,13,-18,0,0,0,1,124863368,1
84252,124963328,0,-111,159,-545,5,13,-18,0,0,0,1,124963328,1
84342,125063288,0,-106,165,-545,5,13,-18,0,0,0,1,125063288,1
84430,125164081,0,-113,161,-545,5,13,-18,0,0,0,1,125164081,1
84518,125264041,0,-108,168,-543,5,13,-18,0,0,0,1,125264041,1
84608,125364001,0,-113,161,-545,5,13,-18,0,0,0,1,125364001,1
84697,125463961,0,-109,165,-544,5,13,-18,0,0,0,1,125463961,1
84788,125563921,0,-114,158,-545,5,13,-18,0,0,0,1,125563921,1
84876,125663881,0,-112,165,-543,5,13,-18,0,0,0,1,125663881,1
84964,125763841,0,-116,159,-544,5,13,-18,0,0,0,1,125763841,1
85052,125863801,0,-114,165,-543,5,13,-18,0,0,0,1,125863801,1
85141,125963761,0,-117,159,-544,5,13,-18,0,0,0,1,125963761,1
85231,126063721,0,-114,167,-542,5,13,-18,0,0,0,1,126063721,1
85319,126163681,0,-120,161,-543,5,13,-18,0,0,0,1,126163681,1
85407,126263641,0,-114,164,-543,5,13,-18,0,0,0,1,126263641,1
85497,126363601,0,-119,161,-543,5,13,-18,0,0,0,1,126363601,1
85586,126463561,0,-112,166,-543,5,13,-18,0,0,0,1,126463561,1
85676,126563521,0,-118,160,-544,5,13,-18,0,0,0,1,126563521,1
85765,126663481,0,-115,165,-543,5,13,-18,0,0,0,1,126663481,1
85853,126763441,0,-122,159,-543,5,13,-18,0,0,0,1,126763441,1
85941,126863401,0,-118,164,-542,5,13,-18,0,0,0,1,126863401,1
86030,126963361,0,-125,158,-543,5,13,-18,0,0,0,1,126963361,1
86121,127063321,0,-121,164,-542,5,13,-18,0,0,0,1,127063321,1
86209,127163281,0,-127,159,-542,5,13,-18,0,0,0,1,127163281,1
86297,127264074,0,-121,165,-542,5,13,-18,0,0,0,1,127264074,1
86387,127364034,0,-123,159,-543,5,13,-18,0,0,0,1,127364034,1
86477,127463994,0,-120,163,-542,5,13,-18,0,0,0,1,127463994,1
86567,127563954,0,-126,157,-543,5,13,-18,0,0,0,1,127563954,1
86656,127663914,0,-125,163,-541,5,13,-18,0,0,0,1,127663914,1
86744,127763874,0,-130,156,-542,5,13,-18,0,0,0,1,127763874,1
86832,127863834,0,-128,163,-540,5,13,-18,0,0,0,1,127863834,1
86921,127963794,0,-132,158,-541,5,13,-18,0,0,0,1,127963794,1
87011,128063754,0,-129,165,-540,5,13,-18,0,0,0,1,128063754,1
87099,128163714,0,-135,158,-540,5,13,-18,0,0,0,1,128163714,1
87187,128263674,0,-129,165,-540,5,13,-18,0,0,0,1,128263674,1
87277,128363634,0,-137,162,-539,5,13,-18,0,0,0,1,128363634,1
87366,128463594,0,-131,165,-539,5,13,-18,0,0,0,1,128463594,1
87456,128563554,0,-140,159,-539,5,13,-18,0,0,0,1,128563554,1
87547,128663514,0,-135,165,-538,5,13,-18,0,0,0,1,128663514,1
87635,128763474,0,-141,159,-538,5,13,-18,0,0,0,1,128763474,1
87723,128863434,0,-135,166,-538,5,13,-18,0,0,0,1,128863434,1
87812,128963394,0,-141,161,-538,5,13,-18,0,0,0,1,128963394,1
87902,129063354,0,-137,168,-537,5,13,-18,0,0,0,1,129063354,1
87990,129163314,0,-143,162,-537,5,13,-18,0,0,0,1,129163314,1
88078,129263274,0,-139,168,-536,5,13,-18,0,0,0,1,129263274,1
88168,129364067,0,-144,162,-537,5,13,-18,0,0,0,1,129364067,1
88257,129464027,0,-140,168,-536,5,13,-18,0,0,0,1,129464027,1
88347,129563987,0,-147,161,-536,5,13,-18,0,0,0,1,129563987,1
88436,129663947,0,-144,168,-535,5,13,-18,0,0,0,1,129663947,1
88524,129763907,0,-149,162,-535,5,13,-18,0,0,0,1,129763907,1
88612,129863867,0,-145,169,-534,5,13,-18,0,0,0,1,129863867,1
88701,129963827,0,-149,163,-535,5,13,-18,0,0,0,1,129963827,1
88791,130063787,0,-146,170,-534,5,13,-18,0,0,0,1,130063787,1
88879,130163747,0,-151,165,-534,5,13,-18,0,0,0,1,130163747,1
88967,130263707,0,-147,172,-533,5,13,-18,0,0,0,1,130263707,1
89057,130363667,0,-153,165,-533,5,13,-18,0,0,0,1,130363667,1
89146,130463627,0,-147,170,-533,5,13,-18,0,0,0,1,130463627,1
89236,130563587,0,-154,165,-533,5,13,-18,0,0,0,1,130563587,1
89325,130663547,0,-150,171,-532,5,13,-18,0,0,0,1,130663547,1
89413,130763507,0,-156,164,-533,5,13,-18,0,0,0,1,130763507,1
89501,130863467,0,-153,170,-532,5,13,-18,0,0,0,1,130863467,1
89589,130963427,0,-158,161,-533,5,13,-18,0,0,0,1,130963427,1
89680,131063387,0,-154,169,-531,5,13,-18,0,0,0,1,131063387,1
89768,131163347,0,-159,161,-533,5,13,-18,0,0,0,1,131163347,1
89856,131263307,0,-156,169,-531,5,13,-18,0,0,0,1,131263307,1
89946,131363267,0,-161,161,-532,5,13,-18,0,0,0,1,131363267,1
90034,131464060,0,-157,169,-531,5,13,-18,0,0,0,1,131464060,1
90125,131564020,0,-162,162,-531,5,13,-18,0,0,0,1,131564020,1
90214,131663980,0,-158,170,-530,5,13,-18,0,0,0,1,131663980,1
90302,131763940,0,-161,163,-531,5,13,-18,0,0,0,1,131763940,1
90390,131863900,0,-159,173,-529,5,13,-18,0,0,0,1,131863900,1
90478,131963860,0,-162,165,-530,5,13,-18,0,0,0,1,131963860,1
90570,132063820,0,-161,175,-527,5,13,-18,0,0,0,1,132063820,1
90658,132163780,0,-165,169,-528,5,13,-18,0,0,0,1,132163780,1
90746,132263740,0,-160,184,-525,5,13,-18,0,0,0,1,132263740,1
90837,132363700,0,-163,179,-526,5,13,-18,0,0,0,1,132363700,1
90925,132463660,0,-158,187,-524,5,13,-18,0,0,0,1,132463660,1
91017,132563620,0,-163,180,-525,5,13,-18,0,0,0,1,132563620,1
91106,132663580,0,-162,190,-522,5,13,-18,0,0,0,1,132663580,1
91194,132763540,0,-166,182,-524,5,13,-18,0,0,0,1,132763540,1
91282,132863500,0,-163,191,-521,5,13,-18,0,0,0,1,132863500,1
91370,132963460,0,-166,180,-524,5,13,-18,0,0,0,1,132963460,1
91461,133063420,0,-165,188,-522,5,13,-18,0,0,0,1,133063420,1
91549,133163380,0,-166,178,-525,5,13,-18,0,0,0,1,133163380,1
91637,133263340,0,-165,186,-523,5,13,-18,0,0,0,1,133263340,1
91727,133363300,0,-166,176,-525,5,13,-18,0,0,0,1,133363300,1
91815,133463260,0,-165,185,-523,5,13,-18,0,0,0,1,133463260,1
91906,133564053,0,-168,178,-525,5,13,-18,0,0,0,1,133564053,1
91995,133664013,0,-166,186,-522,5,13,-18,0,0,0,1,133664013,1
92083,133763973,0,-166,175,-526,5,13,-18,0,0,0,1,133763973,1
92171,133863933,0,-165,183,-523,5,13,-18,0,0,0,1,133863933,1
92259,133963893,0,-165,173,-527,5,13,-18,0,0,0,1,133963893,1
92350,134063853,0,-167,181,-524,5,13,-18,0,0,0,1,134063853,1
92438,134163813,0,-167,172,-527,5,13,-18,0,0,0,1,134163813,1
92526,134263773,0,-168,181,-524,5,13,-18,0,0,0,1,134263773,1
92616,134363733,0,-167,172,-526,5,13,-18,0,0,0,1,134363733,1
92704,134463693,0,-168,180,-524,5,13,-18,0,0,0,1,134463693,1
