LineNo,TimeUS,I,Alt,Press,CRt,SMS,Offset,GndTemp,Health,labels
1708,15363852,0,0,101080.3,29.01,0,15363,0,25.52884,0
1792,15463812,0,0,101080.3,29.03,0,15463,0,25.52884,0
1871,15563772,0,0,101080.3,29.05,0,15563,0,25.52884,0
1950,15663732,0,0,101080.3,29.07,0,15663,0,25.52884,0
2029,15763692,0,0,101080.3,29.09,0,15763,0,25.52884,0
2110,15863652,0,0,101080.3,29.11,0,15863,0,25.52884,0
2190,15963612,0,0,101080.3,29.13,0,15963,0,25.52884,0
2270,16063572,0,0,101080.3,29.15,0,16063,0,25.52884,0
2349,16163532,0,0,101080.3,29.16,0,16163,0,25.52884,0
2428,16263492,0,0,101080.3,29.18,0,16263,0,25.52884,0
2512,16363452,0,0,101080.3,29.2,0,16363,0,25.52884,0
2592,16463412,0,0,101080.3,29.22,0,16463,0,25.52884,0
2671,16563372,0,0,101080.3,29.24,0,16563,0,25.52884,0
2750,16663332,0,0,101080.3,29.26,0,16663,0,25.52884,0
2829,16763292,0,0,101080.3,29.28,0,16763,0,25.52884,0
2910,16864085,0,0,101080.3,29.3,0,16864,0,25.52884,0
2990,16964045,0,0,101080.3,29.32,0,16964,0,25.52884,0
3070,17064005,0,0,101080.3,29.34,0,17064,0,25.52884,0
3149,17163965,0,0,101080.3,29.36,0,17163,0,25.52884,0
3228,17263925,0,0,101080.3,29.37,0,17263,0,25.52884,0
3313,17363885,0,0,101080.3,29.39,0,17363,0,25.52884,0
3393,17463845,0,0,101080.3,29.41,0,17463,0,25.52884,0
3472,17563805,0,0,101080.3,29.43,0,17563,0,25.52884,0
3551,17663765,0,0,101080.3,29.45,0,17663,0,25.52884,0
3630,17763725,0,0,101080.3,29.47,0,17763,0,25.52884,0
3711,17863685,0,0,101080.3,29.49,0,17863,0,25.52884,0
3791,17963645,0,0,101080.3,29.5,0,17963,0,25.52884,0
3871,18063605,0,0,101080.3,29.52,0,18063,0,25.52884,0
3950,18163565,0,0,101080.3,29.54,0,18163,0,25.52884,0
4029,18263525,0,0,101080.3,29.56,0,18263,0,25.52884,0
4113,18363485,0,0,101080.3,29.58,0,18363,0,25.52884,0
4193,18463445,0,0,101080.3,29.6,0,18463,0,25.52884,0
4272,18563405,0,0,101080.3,29.61,0,18563,0,25.52884,0
4357,18663365,0,0,101080.3,29.63,0,18663,0,25.52884,0
4436,18763325,0,0,101080.3,29.65,0,18763,0,25.52884,0
4517,18863285,0,0,101080.3,29.67,0,18863,0,25.52884,0
4597,18964078,0,0,101080.3,29.68,0,18964,0,25.52884,0
4677,19064038,0,0,101080.3,29.7,0,19064,0,25.52884,0
4756,19163998,0,0,101080.3,29.72,0,19163,0,25.52884,0
4835,19263958,0,0,101080.3,29.74,0,19263,0,25.52884,0
4919,19363918,0,0,101080.3,29.76,0,19363,0,25.52884,0
4999,19463878,0,0,101080.3,29.77,0,19463,0,25.52884,0
5078,19563838,0,0,101080.3,29.79,0,19563,0,25.52884,0
5157,19663798,0,0,101080.3,29.81,0,19663,0,25.52884,0
5236,19763758,0,0,101080.3,29.82,0,19763,0,25.52884,0
5317,19863718,0,0,101080.3,29.84,0,19863,0,25.52884,0
5398,19963678,0,0,101080.3,29.86,0,19963,0,25.52884,0
5478,20063638,0,0,101080.3,29.88,0,20063,0,25.52884,0
5557,20163598,0,0,101080.3,29.89,0,20163,0,25.52884,0
5636,20263558,0,0,101080.3,29.91,0,20263,0,25.52884,0
5720,20363518,0,0,101080.3,29.93,0,20363,0,25.52884,0
5800,20463478,0,0,101080.3,29.94,0,20463,0,25.52884,0
5879,20563438,0,0,101080.3,29.96,0,20563,0,25.52884,0
5958,20663398,0,0,101080.3,29.98,0,20663,0,25.52884,0
6037,20763358,0,0,101080.3,29.99,0,20763,0,25.52884,0
6118,20863318,0,0,101080.3,30.01,0,20863,0,25.52884,0
6198,20963278,0,0,101080.3,30.03,0,20963,0,25.52884,0
6277,21064071,0,0,101080.3,30.04,0,21064,0,25.52884,0
6357,21164031,0,0,101080.3,30.06,0,21164,0,25.52884,0
6436,21263991,0,0,101080.3,30.08,0,21263,0,25.52884,0
6520,21363951,0,0,101080.3,30.09,0,21363,0,25.52884,0
6600,21463911,0,0,101080.3,30.11,0,21463,0,25.52884,0
6679,21563871,0,0,101080.3,30.13,0,21563,0,25.52884,0
6758,21663831,0,0,101080.3,30.14,0,21663,0,25.52884,0
6837,21763791,0,0,101080.3,30.16,0,21763,0,25.52884,0
6918,21863751,0,0,101080.3,30.17,0,21863,0,25.52884,0
6998,21963711,0,0,101080.3,30.19,0,21963,0,25.52884,0
7077,22063671,0,0,101080.3,30.21,0,22063,0,25.52884,0
7157,22163631,0,0,101080.3,30.22,0,22163,0,25.52884,0
7236,22263591,0,0,101080.3,30.24,0,22263,0,25.52884,0
7321,22363551,0,0,101080.3,30.25,0,22363,0,25.52884,0
7401,22463511,0,0,101080.3,30.27,0,22463,0,25.52884,0
7480,22563471,0,0,101080.3,30.29,0,22563,0,25.52884,0
7559,22663431,0,0,101080.3,30.3,0,22663,0,25.52884,0
7638,22763391,0,0,101080.3,30.32,0,22763,0,25.52884,0
7719,22863351,0,0,101080.3,30.33,0,22863,0,25.52884,0
7798,22963311,0,0,101080.3,30.35,0,22963,0,25.52884,0
7878,23063271,0,0,101080.3,30.36,0,23063,0,25.52884,0
7958,23164064,0,0,101080.3,30.38,0,23164,0,25.52884,0
8037,23264024,0,0,101080.3,30.39,0,23264,0,25.52884,0
8121,23363984,0,0,101080.3,30.41,0,23363,0,25.52884,0
8200,23463944,0,0,101080.3,30.43,0,23463,0,25.52884,0
8280,23563904,0,0,101080.3,30.44,0,23563,0,25.52884,0
8359,23663864,0,0,101080.3,30.46,0,23663,0,25.52884,0
8438,23763824,0,0,101080.3,30.47,0,23763,0,25.52884,0
8519,23863784,0,0,101080.3,30.49,0,23863,0,25.52884,0
8598,23963744,0,0,101080.3,30.5,0,23963,0,25.52884,0
8678,24063704,0,0,101080.3,30.52,0,24063,0,25.52884,0
8758,24163664,0,0,101080.3,30.53,0,24163,0,25.52884,0
8837,24263624,0,0,101080.3,30.55,0,24263,0,25.52884,0
8921,24363584,0,0,101080.3,30.56,0,24363,0,25.52884,0
9000,24463544,0,0,101080.3,30.58,0,24463,0,25.52884,0
9080,24563504,0,0,101080.3,30.59,0,24563,0,25.52884,0
9159,24663464,0,0,101080.3,30.6,0,24663,0,25.52884,0
9238,24763424,0,0,101080.3,30.62,0,24763,0,25.52884,0
9319,24863384,0,0,101080.3,30.63,0,24863,0,25.52884,0
9398,24963344,0,0,101080.3,30.65,0,24963,0,25.52884,0
9479,25063304,0,0,101080.3,30.66,0,25063,0,25.52884,0
9559,25163264,0,0,101080.3,30.68,0,25163,0,25.52884,0
9638,25264057,0,0,101080.3,30.69,0,25264,0,25.52884,0
9722,25364017,0,0,101080.3,30.71,0,25364,0,25.52884,0
9801,25463977,0,0,101080.3,30.72,0,25463,0,25.52884,0
9881,25563937,0,0,101080.3,30.73,0,25563,0,25.52884,0
9960,25663897,0,0,101080.3,30.75,0,25663,0,25.52884,0
10039,25763857,0,0,101080.3,30.76,0,25763,0,25.52884,0
10120,25863817,0,0,101080.3,30.78,0,25863,0,25.52884,0
10199,25963777,0,0,101080.3,30.79,0,25963,0,25.52884,0
10279,26063737,0,0,101080.3,30.8,0,26063,0,25.52884,0
10359,26163697,0,0,101080.3,30.82,0,26163,0,25.52884,0
10438,26263657,0,0,101080.3,30.83,0,26263,0,25.52884,0
10522,26363617,0,0,101080.3,30.85,0,26363,0,25.52884,0
10601,26463577,0,0,101080.3,30.86,0,26463,0,25.52884,0
10681,26563537,0,0,101080.3,30.87,0,26563,0,25.52884,0
10760,26663497,0,0,101080.3,30.89,0,26663,0,25.52884,0
10839,26763457,0,0,101080.3,30.9,0,26763,0,25.52884,0
10920,26863417,0,0,101080.3,30.92,0,26863,0,25.52884,0
10999,26963377,0,0,101080.3,30.93,0,26963,0,25.52884,0
11079,27063337,0,0,101080.3,30.94,0,27063,0,25.52884,0
11159,27163297,0,0,101080.3,30.96,0,27163,0,25.52884,0
11238,27264090,0,0,101080.3,30.97,0,27264,0,25.52884,0
11322,27364050,0,0,101080.3,30.98,0,27364,0,25.52884,0
11401,27464010,0,0,101080.3,31,0,27464,0,25.52884,0
11481,27563970,0,0,101080.3,31.01,0,27563,0,25.52884,0
11560,27663930,0,0,101080.3,31.02,0,27663,0,25.52884,0
11639,27763890,0,0,101080.3,31.04,0,27763,0,25.52884,0
11720,27863850,0,0,101080.3,31.05,0,27863,0,25.52884,0
11799,27963810,0,0,101080.3,31.06,0,27963,0,25.52884,0
11879,28063770,0,0,101080.3,31.08,0,28063,0,25.52884,0
11959,28163730,0,0,101080.3,31.09,0,28163,0,25.52884,0
12038,28263690,0,0,101080.3,31.1,0,28263,0,25.52884,0
12122,28363650,0,0,101080.3,31.11,0,28363,0,25.52884,0
12201,28463610,0,0,101080.3,31.13,0,28463,0,25.52884,0
12281,28563570,0,0,101080.3,31.14,0,28563,0,25.52884,0
12360,28663530,0,0,101080.3,31.15,0,28663,0,25.52884,0
12439,28763490,0,0,101080.3,31.17,0,28763,0,25.52884,0
12520,28863450,0,0,101080.3,31.18,0,28863,0,25.52884,0
12599,28963410,0,0,101080.3,31.19,0,28963,0,25.52884,0
12679,29063370,0,0,101080.3,31.2,0,29063,0,25.52884,0
12759,29163330,0,0,101080.3,31.22,0,29163,0,25.52884,0
12838,29263290,0,0,101080.3,31.23,0,29263,0,25.52884,0
12922,29364083,0,0,101080.3,31.24,0,29364,0,25.52884,0
13001,29464043,0,0,101080.3,31.25,0,29464,0,25.52884,0
13081,29564003,0,0,101080.3,31.27,0,29564,0,25.52884,0
13160,29663963,0,0,101080.3,31.28,0,29663,0,25.52884,0
13282,45963274,0,0,101080.3,32.84,0,45963,0,25.52884,0
13364,46064067,0,0,101080.3,32.85,0,46064,0,25.52884,0
13444,46164027,0,0,101080.3,32.85,0,46164,0,25.52884,0
13528,46263987,0,0,101080.3,32.86,0,46263,0,25.52884,0
13613,46363947,0,0,101080.3,32.87,0,46363,0,25.52884,0
13697,46463907,0,0,101080.3,32.87,0,46463,0,25.52884,0
13784,46563867,0,0,101080.3,32.88,0,46563,0,25.52884,0
13869,46663827,0,0,101080.3,32.89,0,46663,0,25.52884,0
13955,46763787,0,0,101080.3,32.9,0,46763,0,25.52884,0
14040,46863747,0,0,101080.3,32.9,0,46863,0,25.52884,0
14125,46963707,0,0,101080.3,32.91,0,46963,0,25.52884,0
14212,47063667,0,0,101080.3,32.92,0,47063,0,25.52884,0
14298,47163627,0,0,101080.3,32.92,0,47163,0,25.52884,0
14384,47263587,0,0,101080.3,32.93,0,47263,0,25.52884,0
14471,47363547,0,0,101080.3,32.94,0,47363,0,25.52884,0
14557,47463507,0,0,101080.3,32.94,0,47463,0,25.52884,0
14644,47563467,0,0,101080.3,32.95,0,47563,0,25.52884,0
14729,47663427,0,0,101080.3,32.96,0,47663,0,25.52884,0
14815,47763387,0,0,101080.3,32.96,0,47763,0,25.52884,0
14900,47863347,0,0,101080.3,32.97,0,47863,0,25.52884,0
14986,47963307,0,0,101080.3,32.98,0,47963,0,25.52884,0
15077,48063267,0,0,101080.3,32.99,0,48063,0,25.52884,0
15167,48164060,0,0,101080.3,32.99,0,48164,0,25.52884,0
15257,48264020,0,0,101080.3,33,0,48264,0,25.52884,0
15348,48363980,0,0,101080.3,33.01,0,48363,0,25.52884,0
15439,48463940,0,0,101080.3,33.01,0,48463,0,25.52884,0
15530,48563900,0,0,101080.3,33.02,0,48563,0,25.52884,0
15619,48663860,0,0,101080.3,33.02,0,48663,0,25.52884,0
15709,48763820,0,0,101080.3,33.03,0,48763,0,25.52884,0
15798,48863780,0,0,101080.3,33.04,0,48863,0,25.52884,0
15887,48963740,0,0,101080.3,33.04,0,48963,0,25.52884,0
15978,49063700,0,0,101080.3,33.05,0,49063,0,25.52884,0
16068,49163660,0,0,101080.3,33.06,0,49163,0,25.52884,0
16158,49263620,0,0,101080.3,33.06,0,49263,0,25.52884,0
16249,49363580,0,0,101080.3,33.07,0,49363,0,25.52884,0
16339,49463540,0,0,101080.3,33.08,0,49463,0,25.52884,0
16430,49563500,0,0,101080.3,33.08,0,49563,0,25.52884,0
16519,49663460,0,0,101080.3,33.09,0,49663,0,25.52884,0
16609,49763420,0,0,101080.3,33.1,0,49763,0,25.52884,0
16698,49863380,0,0,101080.3,33.1,0,49863,0,25.52884,0
16787,49963340,0,0,101080.3,33.11,0,49963,0,25.52884,0
16878,50063300,0,0.01917209,101080.1,33.12,0.00599128,50063,0,25.52884,0
16968,50163260,0,0.03834417,101079.9,33.12,0.03594766,50163,0,25.52884,0
17058,50264053,0,0.08216608,101079.4,33.13,0.1035208,50264,0,25.52884,0
17149,50364013,0,0.1205103,101078.9,33.13,0.199961,50364,0,25.52884,0
17239,50463973,0,0.2026763,101078,33.14,0.3115369,50463,0,25.52884,0
17330,50563933,0,0.3314032,101076.5,33.15,0.4606896,50563,0,25.52884,0
17419,50663893,0,0.4765633,101074.8,33.15,0.6985021,50663,0,25.52884,0
17509,50763853,0,0.6217234,101073.1,33.16,1.007714,50763,0,25.52884,0
17598,50863813,0,0.7531891,101071.6,33.16,1.26608,50863,0,25.52884,0
17687,50963773,0,0.8901326,101070,33.17,1.382675,50963,0,25.52884,0
17778,51063733,0,1.027076,101068.4,33.18,1.388265,51063,0,25.52884,0
17869,51163693,0,1.158542,101066.9,33.18,1.366011,51163,0,25.52884,0
17959,51263653,0,1.295485,101065.3,33.19,1.354885,51263,0,25.52884,0
18050,51363613,0,1.42969,101063.8,33.19,1.349749,51363,0,25.52884,0
18140,51463573,0,1.577589,101062.1,33.2,1.351461,51463,0,25.52884,0
18231,51563533,0,1.709055,101060.5,33.21,1.367723,51563,0,25.52884,0
18320,51663493,0,1.854215,101058.9,33.21,1.387409,51663,0,25.52884,0
18410,51763453,0,2.01033,101057,33.22,1.401103,51763,0,25.52884,0
18499,51863413,0,2.15549,101055.4,33.22,1.42678,51863,0,25.52884,0
18588,51963373,0,2.311606,101053.6,33.23,1.468719,51963,0,25.52884,0
18679,52063333,0,2.475938,101051.7,33.24,1.504667,52063,0,25.52884,0
18770,52163293,0,2.643009,101049.7,33.24,1.539758,52163,0,25.52884,0
18860,52264086,0,2.818297,101047.7,33.25,1.592323,52264,0,25.52884,0
18953,52364046,0,2.996323,101045.7,33.25,1.65187,52364,0,25.52884,0
19045,52464006,0,3.182566,101043.5,33.26,1.706464,52464,0,25.52884,0
19136,52563966,0,3.368809,101041.4,33.27,1.760766,52563,0,25.52884,0
19225,52663926,0,3.568747,101039.1,33.27,1.817924,52663,0,25.52884,0
19315,52763886,0,3.763207,101036.8,33.28,1.87541,52763,0,25.52884,0
19404,52863846,0,3.963144,101034.5,33.28,1.925808,52863,0,25.52884,0
19493,52963806,0,4.16856,101032.1,33.29,1.961349,52963,0,25.52884,0
19584,53063766,0,4.368497,101029.8,33.29,1.987155,53063,0,25.52884,0
19674,53163726,0,4.582129,101027.3,33.3,2.012213,53163,0,25.52884,0
19764,53263686,0,4.787544,101024.9,33.31,2.037889,53263,0,25.52884,0
19855,53363646,0,5.001176,101022.5,33.31,2.063566,53363,0,25.52884,0
19945,53463606,0,5.214808,101020,33.32,2.086676,53463,0,25.52884,0
20037,53563566,0,5.422962,101017.6,33.32,2.10465,53563,0,25.52884,0
20126,53663526,0,5.628377,101015.2,33.33,2.112354,53663,0,25.52884,0
20216,53763486,0,5.847486,101012.7,33.33,2.105506,53763,0,25.52884,0
20305,53863446,0,6.055641,101010.3,33.34,2.100371,53863,0,25.52884,0
20394,53963406,0,6.269272,101007.8,33.34,2.110642,53963,0,25.52884,0
20485,54063366,0,6.480165,101005.4,33.35,2.120912,54063,0,25.52884,0
20575,54163326,0,6.699275,101002.9,33.36,2.122624,54163,0,25.52884,0
20665,54263286,0,6.918385,101000.3,33.36,2.131183,54263,0,25.52884,0
20756,54364079,0,7.121061,100998,33.37,2.147639,54364,0,25.52884,0
20846,54464039,0,7.34017,100995.5,33.37,2.147545,54464,0,25.52884,0
20938,54563999,0,7.55928,100992.9,33.38,2.131214,54563,0,25.52884,0
21027,54663959,0,7.775651,100990.4,33.38,2.135607,54663,0,25.52884,0
21116,54763919,0,7.992021,100987.9,33.39,2.163723,54763,0,25.52884,0
21206,54863879,0,8.211131,100985.4,33.39,2.179269,54863,0,25.52884,0
21295,54963839,0,8.441195,100982.7,33.4,2.180819,54963,0,25.52884,0
21386,55063799,0,8.654828,100980.3,33.4,2.194349,55063,0,25.52884,0
21476,55163759,0,8.873938,100977.7,33.41,2.211637,55163,0,25.52884,0
21565,55263719,0,9.106741,100975.1,33.42,2.211638,55263,0,25.52884,0
21657,55363679,0,9.331328,100972.4,33.42,2.214206,55363,0,25.52884,0
21747,55463639,0,9.553177,100969.9,33.43,2.238169,55463,0,25.52884,0
21839,55563599,0,9.777764,100967.3,33.43,2.255287,55563,0,25.52884,0
21928,55663559,0,10.00509,100964.7,33.44,2.249296,55663,0,25.52884,0
22017,55763519,0,10.23516,100962,33.44,2.245874,55763,0,25.52884,0
22107,55863479,0,10.46248,100959.4,33.45,2.259567,55863,0,25.52884,0
22196,55963439,0,10.69255,100956.7,33.45,2.276685,55963,0,25.52884,0
22287,56063399,0,10.91987,100954.1,33.46,2.285244,56063,0,25.52884,0
22377,56163359,0,11.15815,100951.4,33.46,2.289525,56163,0,25.52884,0
22467,56263319,0,11.38822,100948.7,33.47,2.300652,56263,0,25.52884,0
22559,56363279,0,11.6265,100946,33.47,2.31948,56363,0,25.52884,0
22650,56464072,0,11.85109,100943.4,33.48,2.332452,56464,0,25.52884,0
22741,56564032,0,12.08937,100940.6,33.48,2.328689,56564,0,25.52884,0
22830,56663992,0,12.3167,100938,33.49,2.317258,56663,0,25.52884,0
22919,56763952,0,12.55498,100935.2,33.49,2.316737,56763,0,25.52884,0
23009,56863912,0,12.79326,100932.5,33.5,2.330838,56863,0,25.52884,0
23098,56963872,0,13.02332,100929.8,33.5,2.348341,56963,0,25.52884,0
23189,57063832,0,13.26161,100927.1,33.51,2.356523,57063,0,25.52884,0
23279,57163792,0,13.49989,100924.3,33.51,2.354453,57163,0,25.52884,0
23368,57263752,0,13.73817,100921.5,33.52,2.35714,57263,0,25.52884,0
23460,57363712,0,13.97645,100918.8,33.52,2.369977,57363,0,25.52884,0
23551,57463672,0,14.21473,100916,33.53,2.380248,57463,0,25.52884,0
23642,57563632,0,14.45301,100913.3,33.53,2.382817,57563,0,25.52884,0
23731,57663592,0,14.6913,100910.5,33.54,2.382817,57663,0,25.52884,0
23820,57763552,0,14.92958,100907.8,33.54,2.382816,57763,0,25.52884,0
23910,57863512,0,15.1706,100905,33.55,2.383672,57863,0,25.52884,0
23999,57963472,0,15.40888,100902.3,33.55,2.387096,57963,0,25.52884,0
24090,58063432,0,15.6499,100899.5,33.56,2.392232,58063,0,25.52884,0
24180,58163392,0,15.88818,100896.8,33.56,2.395656,58163,0,25.52884,0
24269,58263352,0,16.13468,100893.9,33.57,2.398222,58263,0,25.52884,0
24361,58363312,0,16.37296,100891.1,33.57,2.405068,58363,0,25.52884,0
24452,58463272,0,16.61124,100888.4,33.58,2.412771,58463,0,25.52884,0
24543,58564065,0,16.85226,100885.6,33.58,2.409454,58564,0,25.52884,0
24632,58664025,0,17.09055,100882.9,33.58,2.396183,58664,0,25.52884,0
24721,58763985,0,17.31787,100880.2,33.59,2.383816,58763,0,25.52884,0
24811,58863945,0,17.54794,100877.6,33.59,2.367963,58863,0,25.52884,0
24900,58963905,0,17.76157,100875.1,33.6,2.335973,58963,0,25.52884,0
24991,59063865,0,17.96972,100872.7,33.6,2.282269,59063,0,25.52884,0
25081,59163825,0,18.16418,100870.5,33.61,2.205661,59163,0,25.52884,0
25170,59263785,0,18.36412,100868.2,33.61,2.115586,59263,0,25.52884,0
25262,59363745,0,18.53941,100866.1,33.62,2.031044,59363,0,25.52884,0
25353,59463705,0,18.71469,100864.1,33.62,1.953158,59463,0,25.52884,0
25444,59563665,0,18.87081,100862.3,33.63,1.864143,59563,0,25.52884,0
25533,59663625,0,19.01597,100860.6,33.63,1.758011,59663,0,25.52884,0
25622,59763585,0,19.15291,100859,33.64,1.641609,59763,0,25.52884,0
25712,59863545,0,19.28986,100857.5,33.64,1.526918,59863,0,25.52884,0
25801,59963505,0,19.40215,100856.2,33.64,1.429346,59963,0,25.52884,0
25892,60063465,0,19.50349,100855,33.65,1.338623,60063,0,25.52884,0
25982,60163425,0,19.59661,100853.9,33.65,1.225646,60163,0,25.52884,0
26071,60263385,0,19.67878,100853,33.66,1.095549,60263,0,25.52884,0
26163,60363345,0,19.75273,100852.1,33.66,0.9774352,60363,0,25.52884,0
26253,60463305,0,19.81572,100851.4,33.67,0.8764392,60463,0,25.52884,0
26346,60563265,0,19.86776,100850.8,33.67,0.7797235,60563,0,25.52884,0
26435,60664058,0,19.9061,100850.4,33.68,0.6785177,60664,0,25.52884,0
26524,60764018,0,19.94993,100849.8,33.68,0.5734133,60764,0,25.52884,0
26614,60863978,0,19.99101,100849.4,33.68,0.4839748,60863,0,25.52884,0
26703,60963938,0,20.02387,100849,33.69,0.4315891,60963,0,25.52884,0
26794,61063898,0,20.04305,100848.8,33.69,0.3995141,61063,0,25.52884,0
26884,61163858,0,20.06222,100848.5,33.7,0.3485017,61163,0,25.52884,0
26973,61263818,0,20.08687,100848.3,33.7,0.2786114,61263,0,25.52884,0
27068,61363778,0,20.10604,100848,33.71,0.2286063,61363,0,25.52884,0
27158,61463738,0,20.117,100847.9,33.71,0.2105504,61463,0,25.52884,0
27249,61563698,0,20.12521,100847.8,33.72,0.1925766,61563,0,25.52884,0
27338,61663658,0,20.12521,100847.8,33.72,0.1514953,61663,0,25.52884,0
27427,61763618,0,20.13617,100847.7,33.72,0.1009983,61763,0,25.52884,0
27517,61863578,0,20.13617,100847.7,33.73,0.06590605,61863,0,25.52884,0
27606,61963538,0,20.13617,100847.7,33.73,0.05049944,61963,0,25.52884,0
27697,62063498,0,20.13617,100847.7,33.74,0.03680468,62063,0,25.52884,0
27786,62163458,0,20.13617,100847.7,33.74,0.01711845,62163,0,25.52884,0
27876,62263418,0,20.13617,100847.7,33.74,0.00342369,62263,0,25.52884,0
27969,62363378,0,20.13617,100847.7,33.75,0,62363,0,25.52884,0
28059,62463338,0,20.13617,100847.7,33.75,0,62463,0,25.52884,0
28150,62563298,0,20.13617,100847.7,33.76,0,62563,0,25.52884,0
28239,62664091,0,20.13617,100847.7,33.76,0,62664,0,25.52884,0
28328,62764051,0,20.13617,100847.7,33.77,0,62764,0,25.52884,0
28418,62864011,0,20.13617,100847.7,33.77,0,62864,0,25.52884,0
28507,62963971,0,20.13617,100847.7,33.77,0,62963,0,25.52884,0
28598,63063931,0,20.13617,100847.7,33.78,0,63063,0,25.52884,0
28687,63163891,0,20.13617,100847.7,33.78,0,63163,0,25.52884,0
28777,63263851,0,20.13617,100847.7,33.79,0,63263,0,25.52884,0
28869,63363811,0,20.13617,100847.7,33.79,0,63363,0,25.52884,0
28959,63463771,0,20.13617,100847.7,33.79,0,63463,0,25.52884,0
29050,63563731,0,20.13617,100847.7,33.8,0,63563,0,25.52884,0
29139,63663691,0,20.13617,100847.7,33.8,0,63663,0,25.52884,0
29228,63763651,0,20.13617,100847.7,33.81,0,63763,0,25.52884,0
29318,63863611,0,20.13617,100847.7,33.81,0,63863,0,25.52884,0
29407,63963571,0,20.13617,100847.7,33.81,0,63963,0,25.52884,0
29498,64063531,0,20.13617,100847.7,33.82,0,64063,0,25.52884,0
29587,64163491,0,20.13617,100847.7,33.82,0,64163,0,25.52884,0
29677,64263451,0,20.13617,100847.7,33.83,0,64263,0,25.52884,0
29769,64363411,0,20.14438,100847.6,33.83,0.00256717,64363,0,25.52884,0
29859,64463371,0,20.14438,100847.6,33.83,0.01283586,64463,0,25.52884,0
29950,64563331,0,20.14438,100847.6,33.84,0.02567172,64563,0,25.52884,0
30039,64663291,0,20.14438,100847.6,33.84,0.02567172,64663,0,25.52884,0
30128,64764084,0,20.14438,100847.6,33.85,0.01283159,64764,0,25.52884,0
30218,64864044,0,20.14438,100847.6,33.85,0.0025629,64864,0,25.52884,0
30307,64964004,0,20.14438,100847.6,33.85,0,64964,0,25.52884,0
30398,65063964,0,20.14438,100847.6,33.86,0,65063,0,25.52884,0
30487,65163924,0,20.15534,100847.5,33.86,0.00342369,65163,0,25.52884,0
30577,65263884,0,20.15534,100847.5,33.86,0.01715278,65263,0,25.52884,0
30669,65363844,0,20.15534,100847.5,33.87,0.03436297,65363,0,25.52884,0
30759,65463804,0,20.15534,100847.5,33.87,0.03427695,65463,0,25.52884,0
30850,65563764,0,20.15534,100847.5,33.88,0.01712417,65563,0,25.52884,0
30939,65663724,0,20.15534,100847.5,33.88,0.00342369,65663,0,25.52884,0
31028,65763684,0,20.16903,100847.3,33.88,0.00427961,65763,0,25.52884,0
31118,65863644,0,20.16903,100847.3,33.89,0.02139807,65863,0,25.52884,0
31207,65963604,0,20.16903,100847.3,33.89,0.04279613,65963,0,25.52884,0
31298,66063564,0,20.16903,100847.3,33.89,0.04279613,66063,0,25.52884,0
31387,66163524,0,20.16903,100847.3,33.9,0.02139807,66163,0,25.52884,0
31477,66263484,0,20.17999,100847.2,33.9,0.0077033,66263,0,25.52884,0
31568,66363444,0,20.17999,100847.2,33.91,0.01711845,66363,0,25.52884,0
31660,66463404,0,20.17999,100847.2,33.91,0.03423691,66463,0,25.52884,0
31751,66563364,0,20.17999,100847.2,33.91,0.03423691,66563,0,25.52884,0
31840,66663324,0,20.17999,100847.2,33.92,0.01711845,66663,0,25.52884,0
31929,66763284,0,20.18821,100847.1,33.92,0.00599146,66763,0,25.52884,0
32018,66864077,0,20.18821,100847.1,33.92,0.01283457,66864,0,25.52884,0
32108,66964037,0,20.18821,100847.1,33.93,0.0256478,66964,0,25.52884,0
32199,67063997,0,20.18821,100847.1,33.93,0.02558819,67063,0,25.52884,0
32288,67163957,0,20.18821,100847.1,33.93,0.01283884,67163,0,25.52884,0
32378,67263917,0,20.19916,100847,33.94,0.00599146,67263,0,25.52884,0
32469,67363877,0,20.19916,100847,33.94,0.01715278,67363,0,25.52884,0
32560,67463837,0,20.19916,100847,33.94,0.03427695,67463,0,25.52884,0
32651,67563797,0,20.19916,100847,33.95,0.03424263,67563,0,25.52884,0
32740,67663757,0,20.19916,100847,33.95,0.01711845,67663,0,25.52884,0
32829,67763717,0,20.21012,100846.8,33.96,0.00684679,67763,0,25.52884,0
32918,67863677,0,20.21012,100846.8,33.96,0.01711547,67863,0,25.52884,0
33008,67963637,0,20.21012,100846.8,33.96,0.03423095,67963,0,25.52884,0
33099,68063597,0,20.21012,100846.8,33.97,0.03423095,68063,0,25.52884,0
33188,68163557,0,20.21012,100846.8,33.97,0.01711547,68163,0,25.52884,0
33278,68263517,0,20.21012,100846.8,33.97,0.0034231,68263,0,25.52884,0
33369,68363477,0,20.21012,100846.8,33.98,0,68363,0,25.52884,0
33460,68463437,0,20.21833,100846.8,33.98,0.00256777,68463,0,25.52884,0
33551,68563397,0,20.21833,100846.8,33.98,0.01283884,68563,0,25.52884,0
33640,68663357,0,20.21833,100846.8,33.99,0.02567768,68663,0,25.52884,0
33729,68763317,0,20.21833,100846.8,33.99,0.02567768,68763,0,25.52884,0
33818,68863277,0,20.21833,100846.8,33.99,0.01283884,68863,0,25.52884,0
33908,68964070,0,20.21833,100846.8,34,0.0025635,68964,0,25.52884,0
33999,69064030,0,20.22929,100846.6,34,0.00341799,69064,0,25.52884,0
34088,69163990,0,20.22929,100846.6,34,0.0170843,69163,0,25.52884,0
34178,69263950,0,20.22929,100846.6,34.01,0.03415174,69263,0,25.52884,0
34269,69363910,0,20.22929,100846.6,34.01,0.03432293,69363,0,25.52884,0
34360,69463870,0,20.22929,100846.6,34.01,0.01715278,69463,0,25.52884,0
34451,69563830,0,20.22929,100846.6,34.02,0.00342941,69563,0,25.52884,0
34540,69663790,0,20.23751,100846.5,34.02,0.00257206,69663,0,25.52884,0
34629,69763750,0,20.23751,100846.5,34.02,0.01283884,69763,0,25.52884,0
34718,69863710,0,20.23751,100846.5,34.03,0.02567768,69863,0,25.52884,0
34808,69963670,0,20.23751,100846.5,34.03,0.02567768,69963,0,25.52884,0
34899,70063630,0,20.23751,100846.5,34.03,0.01283884,70063,0,25.52884,0
34988,70163590,0,20.23751,100846.5,34.04,0.00256777,70163,0,25.52884,0
35078,70263550,0,20.23751,100846.5,34.04,0,70263,0,25.52884,0
35169,70363510,0,20.23751,100846.5,34.04,0,70363,0,25.52884,0
35260,70463470,0,20.25394,100846.3,34.05,0.00513554,70463,0,25.52884,0
35351,70563430,0,20.25394,100846.3,34.05,0.02567768,70563,0,25.52884,0
35440,70663390,0,20.25394,100846.3,34.05,0.05135536,70663,0,25.52884,0
35529,70763350,0,20.25394,100846.3,34.05,0.05135536,70763,0,25.52884,0
35618,70863310,0,20.25394,100846.3,34.06,0.02567768,70863,0,25.52884,0
35708,70963270,0,20.25394,100846.3,34.06,0.00513554,70963,0,25.52884,0
35799,71064063,0,20.25394,100846.3,34.06,0,71064,0,25.52884,0
35888,71164023,0,20.25394,100846.3,34.07,0,71164,0,25.52884,0
35978,71263983,0,20.25394,100846.3,34.07,0,71263,0,25.52884,0
36069,71363943,0,20.26216,100846.2,34.07,0.00256777,71363,0,25.52884,0
36160,71463903,0,20.26216,100846.2,34.08,0.01283884,71463,0,25.52884,0
36252,71563863,0,20.26216,100846.2,34.08,0.02576794,71563,0,25.52884,0
36341,71663823,0,20.26216,100846.2,34.08,0.02570771,71663,0,25.52884,0
36430,71763783,0,20.26216,100846.2,34.09,0.01284313,71763,0,25.52884,0
36519,71863743,0,20.26216,100846.2,34.09,0.00256777,71863,0,25.52884,0
36609,71963703,0,20.26216,100846.2,34.09,0,71963,0,25.52884,0
36700,72063663,0,20.26216,100846.2,34.09,0,72063,0,25.52884,0
36789,72163623,0,20.27311,100846.1,34.1,0.0034231,72163,0,25.52884,0
36879,72263583,0,20.27311,100846.1,34.1,0.01711547,72263,0,25.52884,0
36971,72363543,0,20.27311,100846.1,34.1,0.03423095,72363,0,25.52884,0
37063,72463503,0,20.27311,100846.1,34.11,0.03423095,72463,0,25.52884,0
37154,72563463,0,20.27311,100846.1,34.11,0.01711547,72563,0,25.52884,0
37243,72663423,0,20.26216,100846.2,34.11,0,72663,0,25.52884,0
37332,72763383,0,20.25394,100846.3,34.12,-0.01968324,72763,0,25.52884,0
37421,72863343,0,20.23751,100846.5,34.12,-0.05220532,72863,0,25.52884,0
37511,72963303,0,20.22929,100846.6,34.12,-0.08815408,72963,0,25.52884,0
37602,73063263,0,20.21833,100846.8,34.12,-0.110411,73063,0,25.52884,0
37691,73164056,0,20.21012,100846.8,34.13,-0.1129484,73164,0,25.52884,0
37781,73264016,0,20.18821,100847.1,34.13,-0.1076706,73264,0,25.52884,0
37872,73363976,0,20.17999,100847.2,34.13,-0.1143879,73363,0,25.52884,0
37963,73463936,0,20.16903,100847.3,34.14,-0.1298601,73463,0,25.52884,0
38054,73563896,0,20.15534,100847.5,34.14,-0.1320427,73563,0,25.52884,0
38143,73663856,0,20.14438,100847.6,34.14,-0.1218602,73663,0,25.52884,0
38232,73763816,0,20.13617,100847.7,34.14,-0.1165802,73763,0,25.52884,0
38321,73863776,0,20.12521,100847.8,34.15,-0.1130117,73863,0,25.52884,0
38411,73963736,0,20.117,100847.9,34.15,-0.1044166,73963,0,25.52884,0
38502,74063696,0,20.10604,100848,34.15,-0.09756923,74063,0,25.52884,0
38592,74163656,0,20.10604,100848,34.16,-0.09329259,74163,0,25.52884,0
38682,74263616,0,20.09782,100848.1,34.16,-0.08216798,74263,0,25.52884,0
38773,74363576,0,20.09782,100848.1,34.16,-0.06333828,74363,0,25.52884,0
38864,74463536,0,20.08687,100848.3,34.16,-0.04878759,74463,0,25.52884,0
38955,74563496,0,20.08687,100848.3,34.17,-0.04621983,74563,0,25.52884,0
39044,74663456,0,20.07318,100848.4,34.17,-0.05135477,74663,0,25.52884,0
39134,74763416,0,20.07318,100848.4,34.17,-0.05819976,74763,0,25.52884,0
39223,74863376,0,20.07318,100848.4,34.18,-0.05990863,74863,0,25.52884,0
39313,74963336,0,20.07318,100848.4,34.18,-0.04621386,74963,0,25.52884,0
39404,75063296,0,20.06222,100848.5,34.18,-0.02481878,75063,0,25.52884,0
39493,75164089,0,20.06222,100848.5,34.18,-0.02138465,75164,0,25.52884,0
39583,75264049,0,20.06222,100848.5,34.19,-0.03419706,75264,0,25.52884,0
39674,75364009,0,20.06222,100848.5,34.19,-0.03411189,75364,0,25.52884,0
39766,75463969,0,20.06222,100848.5,34.19,-0.0170843,75463,0,25.52884,0
39857,75563929,0,20.06222,100848.5,34.19,-0.00342369,75563,0,25.52884,0
39946,75663889,0,20.06222,100848.5,34.2,0,75663,0,25.52884,0
40035,75763849,0,20.06222,100848.5,34.2,0,75763,0,25.52884,0
40124,75863809,0,20.06222,100848.5,34.2,0,75863,0,25.52884,0
40214,75963769,0,20.06222,100848.5,34.21,0,75963,0,25.52884,0
40305,76063729,0,20.07318,100848.4,34.21,0.00342369,76063,0,25.52884,0
40394,76163689,0,20.07318,100848.4,34.21,0.01711845,76163,0,25.52884,0
40484,76263649,0,20.07318,100848.4,34.21,0.03423691,76263,0,25.52884,0
40575,76363609,0,20.07318,100848.4,34.22,0.03423691,76363,0,25.52884,0
40667,76463569,0,20.08687,100848.3,34.22,0.02139747,76463,0,25.52884,0
40758,76563529,0,20.08687,100848.3,34.22,0.02481878,76563,0,25.52884,0
40848,76663489,0,20.08687,100848.3,34.22,0.04279017,76663,0,25.52884,0
40937,76763449,0,20.08687,100848.3,34.23,0.04279017,76763,0,25.52884,0
41026,76863409,0,20.08687,100848.3,34.23,0.02139509,76863,0,25.52884,0
41116,76963369,0,20.09782,100848.1,34.23,0.00770271,76963,0,25.52884,0
41207,77063329,0,20.09782,100848.1,34.23,0.01711845,77063,0,25.52884,0
41296,77163289,0,20.09782,100848.1,34.24,0.03423691,77163,0,25.52884,0
41386,77264082,0,20.09782,100848.1,34.24,0.03423121,77264,0,25.52884,0
41478,77364042,0,20.09782,100848.1,34.24,0.01707861,77364,0,25.52884,0
41568,77464002,0,20.09782,100848.1,34.24,0.00341799,77464,0,25.52884,0
41660,77563962,0,20.09782,100848.1,34.25,0,77563,0,25.52884,0
41749,77663922,0,20.10604,100848,34.25,0.00256777,77663,0,25.52884,0
41838,77763882,0,20.10604,100848,34.25,0.01286458,77763,0,25.52884,0
41927,77863842,0,20.10604,100848,34.25,0.02577223,77863,0,25.52884,0
42016,77963802,0,20.10604,100848,34.26,0.02570771,77963,0,25.52884,0
42108,78063762,0,20.10604,100848,34.26,0.01284313,78063,0,25.52884,0
42197,78163722,0,20.10604,100848,34.26,0.00256777,78163,0,25.52884,0
42287,78263682,0,20.10604,100848,34.26,0,78263,0,25.52884,0
42378,78363642,0,20.117,100847.9,34.27,0.00342369,78363,0,25.52884,0
42469,78463602,0,20.117,100847.9,34.27,0.01711845,78463,0,25.52884,0
42561,78563562,0,20.117,100847.9,34.27,0.03423691,78563,0,25.52884,0
42650,78663522,0,20.117,100847.9,34.27,0.03423691,78663,0,25.52884,0
42739,78763482,0,20.117,100847.9,34.28,0.01711845,78763,0,25.52884,0
42828,78863442,0,20.117,100847.9,34.28,0.00342369,78863,0,25.52884,0
42917,78963402,0,20.117,100847.9,34.28,0,78963,0,25.52884,0
43009,79063362,0,20.117,100847.9,34.28,0,79063,0,25.52884,0
43098,79163322,0,20.117,100847.9,34.29,0,79163,0,25.52884,0
43188,79263282,0,20.117,100847.9,34.29,0,79263,0,25.52884,0
43279,79364075,0,20.117,100847.9,34.29,0,79364,0,25.52884,0
43370,79464035,0,20.117,100847.9,34.29,0,79464,0,25.52884,0
43462,79563995,0,20.117,100847.9,34.29,0,79563,0,25.52884,0
43551,79663955,0,20.117,100847.9,34.3,0,79663,0,25.52884,0
43640,79763915,0,20.117,100847.9,34.3,0,79763,0,25.52884,0
43729,79863875,0,20.117,100847.9,34.3,0,79863,0,25.52884,0
43818,79963835,0,20.117,100847.9,34.3,0,79963,0,25.52884,0
43910,80063795,0,20.117,100847.9,34.31,0,80063,0,25.52884,0
44000,80163755,0,20.117,100847.9,34.31,0,80163,0,25.52884,0
44090,80263715,0,20.10604,100848,34.31,-0.00342369,80263,0,25.52884,0
44181,80363675,0,20.10604,100848,34.31,-0.01711845,80363,0,25.52884,0
44271,80463635,0,20.10604,100848,34.32,-0.03423691,80463,0,25.52884,0
44363,80563595,0,20.10604,100848,34.32,-0.03423691,80563,0,25.52884,0
44452,80663555,0,20.10604,100848,34.32,-0.01711845,80663,0,25.52884,0
44541,80763515,0,20.10604,100848,34.32,-0.00342369,80763,0,25.52884,0
44630,80863475,0,20.10604,100848,34.32,0,80863,0,25.52884,0
44719,80963435,0,20.10604,100848,34.33,0,80963,0,25.52884,0
44811,81063395,0,20.10604,100848,34.33,0,81063,0,25.52884,0
44901,81163355,0,20.117,100847.9,34.33,0.00342369,81163,0,25.52884,0
44991,81263315,0,20.117,100847.9,34.33,0.01711845,81263,0,25.52884,0
45082,81363275,0,20.117,100847.9,34.34,0.03423691,81363,0,25.52884,0
45172,81464068,0,20.117,100847.9,34.34,0.03423121,81464,0,25.52884,0
45264,81564028,0,20.117,100847.9,34.34,0.01707861,81564,0,25.52884,0
45354,81663988,0,20.117,100847.9,34.34,0.00342369,81663,0,25.52884,0
45443,81763948,0,20.117,100847.9,34.34,0,81763,0,25.52884,0
45532,81863908,0,20.117,100847.9,34.35,0,81863,0,25.52884,0
45621,81963868,0,20.117,100847.9,34.35,0,81963,0,25.52884,0
45713,82063828,0,20.117,100847.9,34.35,0,82063,0,25.52884,0
45802,82163788,0,20.117,100847.9,34.35,0,82163,0,25.52884,0
45892,82263748,0,20.117,100847.9,34.36,0,82263,0,25.52884,0
45985,82363708,0,20.117,100847.9,34.36,0,82363,0,25.52884,0
46075,82463668,0,20.117,100847.9,34.36,0,82463,0,25.52884,0
46167,82563628,0,20.12521,100847.8,34.36,0.00256777,82563,0,25.52884,0
46256,82663588,0,20.12521,100847.8,34.36,0.01283884,82663,0,25.52884,0
46345,82763548,0,20.13617,100847.7,34.37,0.02910137,82763,0,25.52884,0
46434,82863508,0,20.13617,100847.7,34.37,0.04279613,82863,0,25.52884,0
46523,82963468,0,20.14438,100847.6,34.37,0.04964292,82963,0,25.52884,0
46616,83063428,0,20.14438,100847.6,34.37,0.04964053,83063,0,25.52884,0
46705,83163388,0,20.15534,100847.5,34.37,0.04621387,83163,0,25.52884,0
46795,83263348,0,20.16903,100847.3,34.38,0.05049348,83263,0,25.52884,0
46886,83363308,0,20.16903,100847.3,34.38,0.06847084,83363,0,25.52884,0
46976,83463268,0,20.17999,100847.2,34.38,0.08302391,83463,0,25.52884,0
47068,83564061,0,20.17999,100847.2,34.38,0.07701453,83564,0,25.52884,0
47157,83664021,0,20.18821,100847.1,34.38,0.06152681,83664,0,25.52884,0
47246,83763981,0,20.18821,100847.1,34.39,0.05121043,83763,0,25.52884,0
47335,83863941,0,20.19916,100847,34.39,0.04615595,83863,0,25.52884,0
47424,83963901,0,20.19916,100847,34.39,0.04628434,83963,0,25.52884,0
47517,84063861,0,20.19916,100847,34.39,0.04722184,84063,0,25.52884,0
47606,84163821,0,20.19916,100847,34.4,0.036849,84163,0,25.52884,0
47696,84263781,0,20.21012,100846.8,34.4,0.02055298,84263,0,25.52884,0
47787,84363741,0,20.21012,100846.8,34.4,0.02053916,84363,0,25.52884,0
47877,84463701,0,20.21012,100846.8,34.4,0.03423095,84463,0,25.52884,0
47969,84563661,0,20.21012,100846.8,34.4,0.03423095,84563,0,25.52884,0
48058,84663621,0,20.21012,100846.8,34.41,0.01711547,84663,0,25.52884,0
48148,84763581,0,20.21012,100846.8,34.41,0.0034231,84763,0,25.52884,0
48237,84863541,0,20.19916,100847,34.41,-0.0034231,84863,0,25.52884,0
48326,84963501,0,20.19916,100847,34.41,-0.01711547,84963,0,25.52884,0
48418,85063461,0,20.19916,100847,34.41,-0.03423095,85063,0,25.52884,0
48507,85163421,0,20.19916,100847,34.41,-0.03423095,85163,0,25.52884,0
48597,85263381,0,20.19916,100847,34.42,-0.01711547,85263,0,25.52884,0
48688,85363341,0,20.19916,100847,34.42,-0.0034231,85363,0,25.52884,0
48778,85463301,0,20.19916,100847,34.42,0,85463,0,25.52884,0
48871,85563261,0,20.19916,100847,34.42,0,85563,0,25.52884,0
48960,85664054,0,20.19916,100847,34.42,0,85664,0,25.52884,0
49049,85764014,0,20.19916,100847,34.43,0,85764,0,25.52884,0
49138,85863974,0,20.19916,100847,34.43,0,85863,0,25.52884,0
49227,85963934,0,20.19916,100847,34.43,0,85963,0,25.52884,0
49319,86063894,0,20.19916,100847,34.43,0,86063,0,25.52884,0
49408,86163854,0,20.19916,100847,34.43,0,86163,0,25.52884,0
49498,86263814,0,20.19916,100847,34.44,0,86263,0,25.52884,0
49589,86363774,0,20.19916,100847,34.44,0,86363,0,25.52884,0
49679,86463734,0,20.19916,100847,34.44,0,86463,0,25.52884,0
49772,86563694,0,20.19916,100847,34.44,0,86563,0,25.52884,0
49861,86663654,0,20.19916,100847,34.44,0,86663,0,25.52884,0
49951,86763614,0,20.19916,100847,34.45,0,86763,0,25.52884,0
50040,86863574,0,20.19916,100847,34.45,0,86863,0,25.52884,0
50129,86963534,0,20.19916,100847,34.45,0,86963,0,25.52884,0
50220,87063494,0,20.19916,100847,34.45,0,87063,0,25.52884,0
50310,87163454,0,20.19916,100847,34.45,0,87163,0,25.52884,0
50400,87263414,0,20.19916,100847,34.45,0,87263,0,25.52884,0
50492,87363374,0,20.19916,100847,34.46,0,87363,0,25.52884,0
50581,87463334,0,20.19916,100847,34.46,0,87463,0,25.52884,0
50673,87563294,0,20.19916,100847,34.46,0,87563,0,25.52884,0
50763,87664087,0,20.19916,100847,34.46,0,87664,0,25.52884,0
50852,87764047,0,20.21012,100846.8,34.46,0.0034174,87764,0,25.52884,0
50941,87864007,0,20.21012,100846.8,34.47,0.01707563,87864,0,25.52884,0
51030,87963967,0,20.21833,100846.8,34.47,0.03667942,87963,0,25.52884,0
51121,88063927,0,20.21833,100846.8,34.47,0.04706979,88063,0,25.52884,0
51211,88163887,0,20.22929,100846.6,34.47,0.04634142,88163,0,25.52884,0
51301,88263847,0,20.22929,100846.6,34.47,0.04635953,88263,0,25.52884,0
51392,88363807,0,20.23751,100846.5,34.47,0.04971787,88363,0,25.52884,0
51482,88463767,0,20.25394,100846.3,34.48,0.05480191,88463,0,25.52884,0
51574,88563727,0,20.25394,100846.3,34.48,0.06847382,88563,0,25.52884,0
51664,88663687,0,20.25394,100846.3,34.48,0.08045674,88663,0,25.52884,0
51753,88763647,0,20.26216,100846.2,34.48,0.06676198,88763,0,25.52884,0
51842,88863607,0,20.26216,100846.2,34.48,0.04108429,88863,0,25.52884,0
51931,88963567,0,20.26216,100846.2,34.48,0.03081322,88963,0,25.52884,0
52022,89063527,0,20.26216,100846.2,34.49,0.02567768,89063,0,25.52884,0
52112,89163487,0,20.27311,100846.1,34.49,0.01626194,89163,0,25.52884,0
52202,89263447,0,20.27311,100846.1,34.49,0.01968324,89263,0,25.52884,0
52293,89363407,0,20.27311,100846.1,34.49,0.03423095,89363,0,25.52884,0
52383,89463367,0,20.27311,100846.1,34.49,0.03423095,89463,0,25.52884,0
52475,89563327,0,20.27311,100846.1,34.49,0.01711547,89563,0,25.52884,0
52565,89663287,0,20.26216,100846.2,34.5,0,89663,0,25.52884,0
52654,89764080,0,20.26216,100846.2,34.5,-0.01710978,89764,0,25.52884,0
52743,89864040,0,20.26216,100846.2,34.5,-0.03419111,89864,0,25.52884,0
52832,89964000,0,20.26216,100846.2,34.5,-0.03410596,89964,0,25.52884,0
52924,90063960,0,20.26216,100846.2,34.5,-0.01708133,90063,0,25.52884,0
53014,90163920,0,20.26216,100846.2,34.5,-0.0034231,90163,0,25.52884,0
53104,90263880,0,20.25394,100846.3,34.51,-0.00256777,90263,0,25.52884,0
53195,90363840,0,20.25394,100846.3,34.51,-0.01286887,90363,0,25.52884,0
53284,90463800,0,20.25394,100846.3,34.51,-0.02570771,90463,0,25.52884,0
53376,90563760,0,20.25394,100846.3,34.51,-0.02568197,90563,0,25.52884,0
53466,90663720,0,20.25394,100846.3,34.51,-0.01283884,90663,0,25.52884,0
53555,90763680,0,20.25394,100846.3,34.51,-0.00256777,90763,0,25.52884,0
53644,90863640,0,20.25394,100846.3,34.52,0,90863,0,25.52884,0
53733,90963600,0,20.25394,100846.3,34.52,0,90963,0,25.52884,0
53825,91063560,0,20.25394,100846.3,34.52,0,91063,0,25.52884,0
53915,91163520,0,20.25394,100846.3,34.52,0,91163,0,25.52884,0
54005,91263480,0,20.25394,100846.3,34.52,0,91263,0,25.52884,0
54096,91363440,0,20.26216,100846.2,34.52,0.00256777,91363,0,25.52884,0
54185,91463400,0,20.26216,100846.2,34.53,0.01283884,91463,0,25.52884,0
54277,91563360,0,20.26216,100846.2,34.53,0.02567768,91563,0,25.52884,0
54367,91663320,0,20.26216,100846.2,34.53,0.02567768,91663,0,25.52884,0
54456,91763280,0,20.26216,100846.2,34.53,0.01283884,91763,0,25.52884,0
54546,91864073,0,20.26216,100846.2,34.53,0.0025635,91864,0,25.52884,0
54635,91964033,0,20.26216,100846.2,34.53,0,91964,0,25.52884,0
54726,92063993,0,20.26216,100846.2,34.54,0,92063,0,25.52884,0
54816,92163953,0,20.26216,100846.2,34.54,0,92163,0,25.52884,0
54907,92263913,0,20.26216,100846.2,34.54,0,92263,0,25.52884,0
55001,92363873,0,20.26216,100846.2,34.54,0,92363,0,25.52884,0
55090,92463833,0,20.26216,100846.2,34.54,0,92463,0,25.52884,0
55182,92563793,0,20.25394,100846.3,34.54,-0.00257206,92563,0,25.52884,0
55272,92663753,0,20.23751,100846.5,34.54,-0.01797438,92663,0,25.52884,0
55361,92763713,0,20.22929,100846.6,34.55,-0.05392313,92763,0,25.52884,0
55450,92863673,0,20.21833,100846.8,34.55,-0.09329557,92863,0,25.52884,0
55539,92963633,0,20.21012,100846.8,34.55,-0.1095581,92963,0,25.52884,0
55631,93063593,0,20.19916,100847,34.55,-0.104422,93063,0,25.52884,0
55721,93163553,0,20.18821,100847.1,34.55,-0.09842813,93163,0,25.52884,0
55811,93263513,0,20.17999,100847.2,34.55,-0.09928107,93263,0,25.52884,0
55902,93363473,0,20.16903,100847.3,34.55,-0.1009929,93363,0,25.52884,0
55991,93463433,0,20.15534,100847.5,34.56,-0.1009959,93463,0,25.52884,0
56083,93563393,0,20.14438,100847.6,34.56,-0.1052779,93563,0,25.52884,0
56173,93663353,0,20.13617,100847.7,34.56,-0.1129812,93663,0,25.52884,0
56262,93763313,0,20.13617,100847.7,34.56,-0.1095551,93763,0,25.52884,0
56351,93863273,0,20.12521,100847.8,34.56,-0.08815408,93863,0,25.52884,0
56440,93964066,0,20.12521,100847.8,34.56,-0.06416546,93964,0,25.52884,0
56532,94064026,0,20.117,100847.9,34.57,-0.05298453,94064,0,25.52884,0
56622,94163986,0,20.117,100847.9,34.57,-0.04949799,94163,0,25.52884,0
56712,94263946,0,20.10604,100848,34.57,-0.04615595,94263,0,25.52884,0
56803,94363906,0,20.10604,100848,34.57,-0.04628434,94363,0,25.52884,0
56892,94463866,0,20.10604,100848,34.57,-0.04722184,94463,0,25.52884,0
56984,94563826,0,20.09782,100848.1,34.57,-0.03942106,94563,0,25.52884,0
57074,94663786,0,20.09782,100848.1,34.57,-0.0299673,94663,0,25.52884,0
57164,94763746,0,20.09782,100848.1,34.58,-0.02910137,94763,0,25.52884,0
57253,94863706,0,20.09782,100848.1,34.58,-0.02567768,94863,0,25.52884,0
57342,94963666,0,20.08687,100848.3,34.58,-0.01626253,94963,0,25.52884,0
57433,95063626,0,20.08687,100848.3,34.58,-0.01968622,95063,0,25.52884,0
57523,95163586,0,20.08687,100848.3,34.58,-0.03423691,95163,0,25.52884,0
57613,95263546,0,20.08687,100848.3,34.58,-0.03423691,95263,0,25.52884,0
57704,95363506,0,20.08687,100848.3,34.58,-0.01711845,95363,0,25.52884,0
57794,95463466,0,20.08687,100848.3,34.58,-0.00342369,95463,0,25.52884,0
57886,95563426,0,20.08687,100848.3,34.59,0,95563,0,25.52884,0
57976,95663386,0,20.08687,100848.3,34.59,0,95663,0,25.52884,0
58065,95763346,0,20.08687,100848.3,34.59,0,95763,0,25.52884,0
58154,95863306,0,20.08687,100848.3,34.59,0,95863,0,25.52884,0
58243,95963266,0,20.08687,100848.3,34.59,0,95963,0,25.52884,0
58334,96064059,0,20.08687,100848.3,34.59,0,96064,0,25.52884,0
58424,96164019,0,20.09782,100848.1,34.59,0.00341799,96164,0,25.52884,0
58514,96263979,0,20.09782,100848.1,34.6,0.0170843,96263,0,25.52884,0
58606,96363939,0,20.09782,100848.1,34.6,0.03415174,96363,0,25.52884,0
58695,96463899,0,20.09782,100848.1,34.6,0.03432293,96463,0,25.52884,0
58787,96563859,0,20.09782,100848.1,34.6,0.01715278,96563,0,25.52884,0
58876,96663819,0,20.09782,100848.1,34.6,0.00342941,96663,0,25.52884,0
58966,96763779,0,20.09782,100848.1,34.6,0,96763,0,25.52884,0
59055,96863739,0,20.09782,100848.1,34.6,0,96863,0,25.52884,0
59145,96963699,0,20.09782,100848.1,34.61,0,96963,0,25.52884,0
59236,97063659,0,20.09782,100848.1,34.61,0,97063,0,25.52884,0
59325,97163619,0,20.10604,100848,34.61,0.00256777,97163,0,25.52884,0
59417,97263579,0,20.10604,100848,34.61,0.01283884,97263,0,25.52884,0
59508,97363539,0,20.09782,100848.1,34.61,0.02310991,97363,0,25.52884,0
59597,97463499,0,20.09782,100848.1,34.61,0.01283884,97463,0,25.52884,0
59689,97563459,0,20.09782,100848.1,34.61,-0.01283884,97563,0,25.52884,0
59778,97663419,0,20.09782,100848.1,34.61,-0.02310991,97663,0,25.52884,0
59868,97763379,0,20.08687,100848.3,34.62,-0.01626253,97763,0,25.52884,0
59957,97863339,0,20.08687,100848.3,34.62,-0.01968622,97863,0,25.52884,0
60046,97963299,0,20.08687,100848.3,34.62,-0.03423691,97963,0,25.52884,0
60137,98064092,0,20.07318,100848.4,34.62,-0.03850311,98064,0,25.52884,0
60226,98164052,0,20.07318,100848.4,34.62,-0.03842389,98164,0,25.52884,0
60317,98264012,0,20.07318,100848.4,34.62,-0.04605192,98264,0,25.52884,0
60409,98363972,0,20.06222,100848.5,34.62,-0.04606473,98363,0,25.52884,0
60498,98463932,0,20.06222,100848.5,34.62,-0.03851354,98463,0,25.52884,0
60590,98563892,0,20.06222,100848.5,34.63,-0.03863627,98563,0,25.52884,0
60679,98663852,0,20.06222,100848.5,34.63,-0.03436297,98663,0,25.52884,0
60769,98763812,0,20.054,100848.6,34.63,-0.01973055,98763,0,25.52884,0
60858,98863772,0,20.054,100848.6,34.63,-0.01627253,98863,0,25.52884,0
60947,98963732,0,20.054,100848.6,34.63,-0.02567768,98963,0,25.52884,0
61039,99063692,0,20.054,100848.6,34.63,-0.02567768,99063,0,25.52884,0
61128,99163652,0,20.054,100848.6,34.63,-0.01283884,99163,0,25.52884,0
61219,99263612,0,20.054,100848.6,34.63,-0.00256777,99263,0,25.52884,0
61310,99363572,0,20.054,100848.6,34.64,0,99363,0,25.52884,0
61399,99463532,0,20.054,100848.6,34.64,0,99463,0,25.52884,0
61491,99563492,0,20.054,100848.6,34.64,0,99563,0,25.52884,0
61580,99663452,0,20.04305,100848.8,34.64,-0.00342369,99663,0,25.52884,0
61671,99763412,0,20.04305,100848.8,34.64,-0.01711845,99763,0,25.52884,0
61760,99863372,0,20.04305,100848.8,34.64,-0.03423691,99863,0,25.52884,0
61849,99963332,0,20.04305,100848.8,34.64,-0.03423691,99963,0,25.52884,0
61940,100063292,0,20.04305,100848.8,34.64,-0.01711845,100063,0,25.52884,0
62029,100164085,0,20.04305,100848.8,34.65,-0.00341799,100164,0,25.52884,0
62120,100264045,0,20.04305,100848.8,34.65,0,100264,0,25.52884,0
62212,100364005,0,20.04305,100848.8,34.65,0,100364,0,25.52884,0
62301,100463965,0,20.04305,100848.8,34.65,0,100463,0,25.52884,0
62393,100563925,0,20.04305,100848.8,34.65,0,100563,0,25.52884,0
62482,100663885,0,20.04305,100848.8,34.65,0,100663,0,25.52884,0
62572,100763845,0,20.04305,100848.8,34.65,0,100763,0,25.52884,0
62661,100863805,0,20.04305,100848.8,34.65,0,100863,0,25.52884,0
62750,100963765,0,20.04305,100848.8,34.65,0,100963,0,25.52884,0
62841,101063725,0,20.04305,100848.8,34.66,0,101063,0,25.52884,0
62930,101163685,0,20.04305,100848.8,34.66,0,101163,0,25.52884,0
63021,101263645,0,20.04305,100848.8,34.66,0,101263,0,25.52884,0
63113,101363605,0,20.04305,100848.8,34.66,0,101363,0,25.52884,0
63202,101463565,0,20.04305,100848.8,34.66,0,101463,0,25.52884,0
63294,101563525,0,20.04305,100848.8,34.66,0,101563,0,25.52884,0
63383,101663485,0,20.04305,100848.8,34.66,0,101663,0,25.52884,0
63473,101763445,0,20.054,100848.6,34.66,0.00342369,101763,0,25.52884,0
63562,101863405,0,20.054,100848.6,34.66,0.01711845,101863,0,25.52884,0
63651,101963365,0,20.054,100848.6,34.67,0.03423691,101963,0,25.52884,0
63743,102063325,0,20.054,100848.6,34.67,0.03423691,102063,0,25.52884,0
63832,102163285,0,20.054,100848.6,34.67,0.01711845,102163,0,25.52884,0
63924,102264078,0,20.054,100848.6,34.67,0.00341799,102264,0,25.52884,0
64016,102364038,0,20.054,100848.6,34.67,0,102364,0,25.52884,0
64105,102463998,0,20.06222,100848.5,34.67,0.00256777,102463,0,25.52884,0
64197,102563958,0,20.07318,100848.4,34.67,0.01626253,102563,0,25.52884,0
64286,102663918,0,20.09782,100848.1,34.67,0.05056336,102663,0,25.52884,0
64376,102763878,0,20.117,100847.9,34.67,0.1047074,102763,0,25.52884,0
64465,102863838,0,20.13617,100847.7,34.68,0.1602918,102863,0,25.52884,0
64554,102963798,0,20.15534,100847.5,34.68,0.1926289,102963,0,25.52884,0
64645,103063758,0,20.17999,100847.2,34.68,0.199424,103063,0,25.52884,0
64734,103163718,0,20.21012,100846.8,34.68,0.2054143,103163,0,25.52884,0
64825,103263678,0,20.22929,100846.6,34.68,0.2259547,103263,0,25.52884,0
64917,103363638,0,20.25394,100846.3,34.68,0.244785,103363,0,25.52884,0
65006,103463598,0,20.26216,100846.2,34.68,0.2396518,103463,0,25.52884,0
65098,103563558,0,20.28133,100846,34.68,0.2105534,103563,0,25.52884,0
65187,103663518,0,20.3005,100845.8,34.68,0.1780283,103663,0,25.52884,0
65277,103763478,0,20.31146,100845.7,34.69,0.1634753,103763,0,25.52884,0
65366,103863438,0,20.31967,100845.6,34.69,0.1600516,103863,0,25.52884,0
65455,103963398,0,20.33611,100845.4,34.69,0.1446474,103963,0,25.52884,0
65547,104063358,0,20.34432,100845.3,34.69,0.1241052,104063,0,25.52884,0
65636,104163318,0,20.35528,100845.2,34.69,0.1163995,104163,0,25.52884,0
65726,104263278,0,20.36349,100845.1,34.69,0.1129758,104263,0,25.52884,0
65818,104364071,0,20.36349,100845.1,34.69,0.1009688,104364,0,25.52884,0
65907,104464031,0,20.37445,100844.9,34.69,0.0811982,104464,0,25.52884,0
65999,104563991,0,20.37445,100844.9,34.69,0.06232456,104563,0,25.52884,0
66088,104663951,0,20.37445,100844.9,34.69,0.05041428,104663,0,25.52884,0
66179,104763911,0,20.37445,100844.9,34.7,0.0368907,104763,0,25.52884,0
66268,104863871,0,20.37445,100844.9,34.7,0.01715278,104863,0,25.52884,0
66357,104963831,0,20.37445,100844.9,34.7,0.00342941,104963,0,25.52884,0
66448,105063791,0,20.37445,100844.9,34.7,0,105063,0,25.52884,0
66537,105163751,0,20.37445,100844.9,34.7,0,105163,0,25.52884,0
66627,105263711,0,20.37445,100844.9,34.7,0,105263,0,25.52884,0
66720,105363671,0,20.37445,100844.9,34.7,0,105363,0,25.52884,0
66809,105463631,0,20.37445,100844.9,34.7,0,105463,0,25.52884,0
66901,105563591,0,20.37445,100844.9,34.7,0,105563,0,25.52884,0
66990,105663551,0,20.37445,100844.9,34.7,0,105663,0,25.52884,0
67080,105763511,0,20.37445,100844.9,34.71,0,105763,0,25.52884,0
67169,105863471,0,20.37445,100844.9,34.71,0,105863,0,25.52884,0
67258,105963431,0,20.37445,100844.9,34.71,0,105963,0,25.52884,0
67349,106063391,0,20.37445,100844.9,34.71,0,106063,0,25.52884,0
67438,106163351,0,20.37445,100844.9,34.71,0,106163,0,25.52884,0
67528,106263311,0,20.38541,100844.8,34.71,0.00342369,106263,0,25.52884,0
67621,106363271,0,20.38541,100844.8,34.71,0.01711845,106363,0,25.52884,0
67712,106464064,0,20.38541,100844.8,34.71,0.03423121,106464,0,25.52884,0
67804,106564024,0,20.38541,100844.8,34.71,0.03419706,106564,0,25.52884,0
67893,106663984,0,20.38541,100844.8,34.71,0.0170843,106663,0,25.52884,0
67983,106763944,0,20.38541,100844.8,34.72,0.00342369,106763,0,25.52884,0
68072,106863904,0,20.38541,100844.8,34.72,0,106863,0,25.52884,0
68161,106963864,0,20.38541,100844.8,34.72,0,106963,0,25.52884,0
68252,107063824,0,20.38541,100844.8,34.72,0,107063,0,25.52884,0
68343,107163784,0,20.38541,100844.8,34.72,0,107163,0,25.52884,1
68433,107263744,0,20.38541,100844.8,34.72,0,107263,0,25.52884,1
68525,107363704,0,20.38541,100844.8,34.72,0,107363,0,25.52884,1
68614,107463664,0,20.37445,100844.9,34.72,-0.00342369,107463,0,25.52884,1
68706,107563624,0,20.37445,100844.9,34.72,-0.01711845,107563,0,25.52884,1
68795,107663584,0,20.36349,100845.1,34.72,-0.0376606,107663,0,25.52884,1
68884,107763544,0,20.35528,100845.2,34.72,-0.05392313,107763,0,25.52884,1
68974,107863504,0,20.34432,100845.3,34.73,-0.0676179,107863,0,25.52884,1
69063,107963464,0,20.33611,100845.4,34.73,-0.0830245,107963,0,25.52884,1
69154,108063424,0,20.31967,100845.6,34.73,-0.09500682,108063,0,25.52884,1
69243,108163384,0,20.31146,100845.7,34.73,-0.1044196,108163,0,25.52884,1
69332,108263344,0,20.3005,100845.8,34.73,-0.1129758,108263,0,25.52884,1
69426,108363304,0,20.3005,100845.8,34.73,-0.1104081,108363,0,25.52884,1
69515,108463264,0,20.29228,100845.9,34.73,-0.09072483,108463,0,25.52884,1
69607,108564057,0,20.28133,100846,34.73,-0.06844474,108564,0,25.52884,1
69696,108664017,0,20.28133,100846,34.73,-0.0623685,108664,0,25.52884,1
69785,108763977,0,20.27311,100846.1,34.73,-0.06569724,108763,0,25.52884,1
69875,108863937,0,20.27311,100846.1,34.73,-0.05982942,108863,0,25.52884,1
69964,108963897,0,20.27311,100846.1,34.74,-0.04542842,108963,0,25.52884,1
70056,109063857,0,20.26216,100846.2,34.74,-0.03261472,109063,0,25.52884,1
70145,109163817,0,20.26216,100846.2,34.74,-0.03002437,109163,0,25.52884,1
70234,109263777,0,20.26216,100846.2,34.74,-0.03680872,109263,0,25.52884,1
70327,109363737,0,20.26216,100846.2,34.74,-0.03423095,109363,0,25.52884,1
70416,109463697,0,20.25394,100846.3,34.74,-0.01968324,109463,0,25.52884,1
70508,109563657,0,20.25394,100846.3,34.74,-0.01626194,109563,0,25.52884,1
70598,109663617,0,20.25394,100846.3,34.74,-0.02567768,109663,0,25.52884,1
70687,109763577,0,20.25394,100846.3,34.74,-0.02567768,109763,0,25.52884,1
70777,109863537,0,20.23751,100846.5,34.74,-0.01797438,109863,0,25.52884,1
70866,109963497,0,20.23751,100846.5,34.74,-0.02824545,109963,0,25.52884,1
70957,110063457,0,20.23751,100846.5,34.74,-0.05135536,110063,0,25.52884,1
71046,110163417,0,20.23751,100846.5,34.75,-0.05135536,110163,0,25.52884,1
71135,110263377,0,20.23751,100846.5,34.75,-0.02567768,110263,0,25.52884,1
71228,110363337,0,20.23751,100846.5,34.75,-0.00513554,110363,0,25.52884,1
71317,110463297,0,20.23751,100846.5,34.75,0,110463,0,25.52884,1
71409,110564090,0,20.23751,100846.5,34.75,0,110564,0,25.52884,1
71499,110664050,0,20.23751,100846.5,34.75,0,110664,0,25.52884,1
71588,110764010,0,20.23751,100846.5,34.75,0,110764,0,25.52884,1
71678,110863970,0,20.23751,100846.5,34.75,0,110863,0,25.52884,1
71767,110963930,0,20.23751,100846.5,34.75,0,110963,0,25.52884,1
71858,111063890,0,20.23751,100846.5,34.75,0,111063,0,25.52884,1
71947,111163850,0,20.23751,100846.5,34.75,0,111163,0,25.52884,1
72036,111263810,0,20.23751,100846.5,34.75,0,111263,0,25.52884,1
72129,111363770,0,20.23751,100846.5,34.76,0,111363,0,25.52884,1
72218,111463730,0,20.23751,100846.5,34.76,0,111463,0,25.52884,1
72310,111563690,0,20.23751,100846.5,34.76,0,111563,0,25.52884,1
72399,111663650,0,20.23751,100846.5,34.76,0,111663,0,25.52884,1
72488,111763610,0,20.23751,100846.5,34.76,0,111763,0,25.52884,1
72578,111863570,0,20.23751,100846.5,34.76,0,111863,0,25.52884,1
72667,111963530,0,20.23751,100846.5,34.76,0,111963,0,25.52884,1
72758,112063490,0,20.23751,100846.5,34.76,0,112063,0,25.52884,1
72848,112163450,0,20.23751,100846.5,34.76,0,112163,0,25.52884,1
72938,112263410,0,20.23751,100846.5,34.76,0,112263,0,25.52884,1
73033,112363370,0,20.23751,100846.5,34.76,0,112363,0,25.52884,1
73122,112463330,0,20.23751,100846.5,34.76,0,112463,0,25.52884,1
73214,112563290,0,20.23751,100846.5,34.77,0,112563,0,25.52884,1
73303,112664083,0,20.23751,100846.5,34.77,0,112664,0,25.52884,1
73392,112764043,0,20.23751,100846.5,34.77,0,112764,0,25.52884,1
73482,112864003,0,20.23751,100846.5,34.77,0,112864,0,25.52884,1
73571,112963963,0,20.23751,100846.5,34.77,0,112963,0,25.52884,1
73662,113063923,0,20.23751,100846.5,34.77,0,113063,0,25.52884,1
73751,113163883,0,20.23751,100846.5,34.77,0,113163,0,25.52884,1
73840,113263843,0,20.23751,100846.5,34.77,0,113263,0,25.52884,1
73933,113363803,0,20.23751,100846.5,34.77,0,113363,0,25.52884,1
74022,113463763,0,20.25394,100846.3,34.77,0.00514411,113463,0,25.52884,1
74114,113563723,0,20.25394,100846.3,34.77,0.02567768,113563,0,25.52884,1
74202,113663683,0,20.25394,100846.3,34.77,0.05135536,113663,0,25.52884,1
74290,113763643,0,20.25394,100846.3,34.77,0.05135536,113763,0,25.52884,1
74379,113863603,0,20.25394,100846.3,34.78,0.02567768,113863,0,25.52884,1
74467,113963563,0,20.25394,100846.3,34.78,0.00513554,113963,0,25.52884,1
74557,114063523,0,20.25394,100846.3,34.78,0,114063,0,25.52884,1
74645,114163483,0,20.25394,100846.3,34.78,0,114163,0,25.52884,1
74733,114263443,0,20.25394,100846.3,34.78,0,114263,0,25.52884,1
74824,114363403,0,20.25394,100846.3,34.78,0,114363,0,25.52884,1
74912,114463363,0,20.25394,100846.3,34.78,0,114463,0,25.52884,1
75003,114563323,0,20.25394,100846.3,34.78,0,114563,0,25.52884,1
75091,114663283,0,20.23751,100846.5,34.78,-0.00513554,114663,0,25.52884,1
75179,114764076,0,20.23751,100846.5,34.78,-0.02566914,114764,0,25.52884,1
75268,114864036,0,20.23751,100846.5,34.78,-0.05129559,114864,0,25.52884,1
75356,114963996,0,20.23751,100846.5,34.78,-0.05117639,114963,0,25.52884,1
75446,115063956,0,20.23751,100846.5,34.78,-0.02567768,115063,0,25.52884,1
75534,115163916,0,20.23751,100846.5,34.78,-0.00513554,115163,0,25.52884,1
75622,115263876,0,20.23751,100846.5,34.79,0,115263,0,25.52884,1
75713,115363836,0,20.23751,100846.5,34.79,0,115363,0,25.52884,1
75801,115463796,0,20.23751,100846.5,34.79,0,115463,0,25.52884,1
75892,115563756,0,20.23751,100846.5,34.79,0,115563,0,25.52884,1
75980,115663716,0,20.23751,100846.5,34.79,0,115663,0,25.52884,1
76068,115763676,0,20.23751,100846.5,34.79,0,115763,0,25.52884,1
76157,115863636,0,20.23751,100846.5,34.79,0,115863,0,25.52884,1
76245,115963596,0,20.25394,100846.3,34.79,0.00513554,115963,0,25.52884,1
76335,116063556,0,20.25394,100846.3,34.79,0.02567768,116063,0,25.52884,1
76423,116163516,0,20.25394,100846.3,34.79,0.05135536,116163,0,25.52884,1
76511,116263476,0,20.25394,100846.3,34.79,0.05135536,116263,0,25.52884,1
76602,116363436,0,20.25394,100846.3,34.79,0.02567768,116363,0,25.52884,1
76690,116463396,0,20.25394,100846.3,34.79,0.00513554,116463,0,25.52884,1
76781,116563356,0,20.25394,100846.3,34.79,0,116563,0,25.52884,1
76869,116663316,0,20.25394,100846.3,34.8,0,116663,0,25.52884,1
76957,116763276,0,20.25394,100846.3,34.8,0,116763,0,25.52884,1
77046,116864069,0,20.25394,100846.3,34.8,0,116864,0,25.52884,1
77134,116964029,0,20.25394,100846.3,34.8,0,116964,0,25.52884,1
77224,117063989,0,20.26216,100846.2,34.8,0.00256777,117063,0,25.52884,1
77313,117163949,0,20.26216,100846.2,34.8,0.01283884,117163,0,25.52884,1
77401,117263909,0,20.26216,100846.2,34.8,0.0257422,117263,0,25.52884,1
77493,117363869,0,20.26216,100846.2,34.8,0.02576794,117363,0,25.52884,1
77581,117463829,0,20.26216,100846.2,34.8,0.01286887,117463,0,25.52884,1
77672,117563789,0,20.26216,100846.2,34.8,0.00257206,117563,0,25.52884,1
77760,117663749,0,20.27311,100846.1,34.8,0.0034231,117663,0,25.52884,1
77848,117763709,0,20.27311,100846.1,34.8,0.01711547,117763,0,25.52884,1
77937,117863669,0,20.27311,100846.1,34.8,0.03423095,117863,0,25.52884,1
78025,117963629,0,20.27311,100846.1,34.8,0.03423095,117963,0,25.52884,1
78115,118063589,0,20.28133,100846,34.8,0.01968324,118063,0,25.52884,1
78203,118163549,0,20.28133,100846,34.81,0.01626194,118163,0,25.52884,1
78291,118263509,0,20.28133,100846,34.81,0.02567768,118263,0,25.52884,1
78382,118363469,0,20.28133,100846,34.81,0.02567768,118363,0,25.52884,1
78470,118463429,0,20.28133,100846,34.81,0.01283884,118463,0,25.52884,1
78561,118563389,0,20.29228,100845.9,34.81,0.00599146,118563,0,25.52884,1
78649,118663349,0,20.29228,100845.9,34.81,0.01711845,118663,0,25.52884,1
78737,118763309,0,20.29228,100845.9,34.81,0.03423691,118763,0,25.52884,1
78826,118863269,0,20.29228,100845.9,34.81,0.03423691,118863,0,25.52884,1
78914,118964062,0,20.29228,100845.9,34.81,0.01711276,118964,0,25.52884,1
79004,119064022,0,20.29228,100845.9,34.81,0.00341799,119064,0,25.52884,1
79092,119163982,0,20.29228,100845.9,34.81,0,119163,0,25.52884,1
79180,119263942,0,20.29228,100845.9,34.81,0,119263,0,25.52884,1
79270,119363902,0,20.29228,100845.9,34.81,0,119363,0,25.52884,1
79359,119463862,0,20.29228,100845.9,34.81,0,119463,0,25.52884,1
79450,119563822,0,20.29228,100845.9,34.81,0,119563,0,25.52884,1
79538,119663782,0,20.29228,100845.9,34.81,0,119663,0,25.52884,1
79626,119763742,0,20.29228,100845.9,34.82,0,119763,0,25.52884,1
79714,119863702,0,20.29228,100845.9,34.82,0,119863,0,25.52884,1
79803,119963662,0,20.29228,100845.9,34.82,0,119963,0,25.52884,1
79893,120063622,0,20.28133,100846,34.82,-0.00342369,120063,0,25.52884,1
79981,120163582,0,20.28133,100846,34.82,-0.01711845,120163,0,25.52884,1
80069,120263542,0,20.28133,100846,34.82,-0.03423691,120263,0,25.52884,1
80159,120363502,0,20.28133,100846,34.82,-0.03423691,120363,0,25.52884,1
80248,120463462,0,20.29228,100845.9,34.82,-0.01369476,120463,0,25.52884,1
80339,120563422,0,20.29228,100845.9,34.82,0.01369476,120563,0,25.52884,1
80427,120663382,0,20.29228,100845.9,34.82,0.03423691,120663,0,25.52884,1
80515,120763342,0,20.29228,100845.9,34.82,0.03423691,120763,0,25.52884,1
80603,120863302,0,20.29228,100845.9,34.82,0.01711845,120863,0,25.52884,1
80692,120963262,0,20.29228,100845.9,34.82,0.00342369,120963,0,25.52884,1
80782,121064055,0,20.29228,100845.9,34.82,0,121064,0,25.52884,1
80870,121164015,0,20.29228,100845.9,34.82,0,121164,0,25.52884,1
80958,121263975,0,20.29228,100845.9,34.82,0,121263,0,25.52884,1
81048,121363935,0,20.29228,100845.9,34.82,0,121363,0,25.52884,1
81137,121463895,0,20.29228,100845.9,34.83,0,121463,0,25.52884,1
81230,121563855,0,20.29228,100845.9,34.83,0,121563,0,25.52884,1
81318,121663815,0,20.29228,100845.9,34.83,0,121663,0,25.52884,1
81406,121763775,0,20.29228,100845.9,34.83,0,121763,0,25.52884,1
81494,121863735,0,20.29228,100845.9,34.83,0,121863,0,25.52884,1
81583,121963695,0,20.29228,100845.9,34.83,0,121963,0,25.52884,1
81674,122063655,0,20.3005,100845.8,34.83,0.00256777,122063,0,25.52884,1
81762,122163615,0,20.3005,100845.8,34.83,0.01283884,122163,0,25.52884,1
81850,122263575,0,20.3005,100845.8,34.83,0.02567768,122263,0,25.52884,1
81941,122363535,0,20.31146,100845.7,34.83,0.02910137,122363,0,25.52884,1
82031,122463495,0,20.33611,100845.4,34.83,0.03766,122463,0,25.52884,1
82122,122563455,0,20.34432,100845.3,34.83,0.07788599,122563,0,25.52884,1
82210,122663415,0,20.36349,100845.1,34.83,0.1300943,122663,0,25.52884,1
82298,122763375,0,20.39362,100844.7,34.83,0.1591956,122763,0,25.52884,1
82386,122863335,0,20.41827,100844.4,34.83,0.182308,122863,0,25.52884,1
82475,122963295,0,20.43744,100844.2,34.83,0.2191126,122963,0,25.52884,1
