LineNo,TimeUS,DesRoll,Roll,DesPitch,Pitch,DesYaw,Yaw,ErrRP,ErrYaw,AEKF,lables
1714,15363852,0,0.02,0,0,3.51,3.51,0,0,3,0
1796,15463812,0,0.02,0,0,3.54,3.54,0,0,3,0
1875,15563772,0,0.02,0,0,3.56,3.56,0,0,3,0
1954,15663732,0,0.02,0,0,3.58,3.58,0,0,3,0
2033,15763692,0,0.02,0,0,3.6,3.6,0,0,3,0
2114,15863652,0,0.02,0,0,3.61,3.61,0,0,3,0
2194,15963612,0,0.02,0,0,3.63,3.63,0,0,3,0
2274,16063572,0,0.02,0,0,3.64,3.64,0,0,3,0
2353,16163532,0,0.02,0,0,3.65,3.65,0,0,3,0
2434,16263492,0,0.02,0,0.01,3.66,3.66,0,0,3,0
2516,16363452,0,0.02,0,0.01,3.67,3.67,0,0,3,0
2596,16463412,0,0.02,0,0.01,3.68,3.68,0,0,3,0
2675,16563372,0,0.02,0,0.01,3.69,3.69,0,0,3,0
2754,16663332,0,0.02,0,0.01,3.69,3.69,0,0,3,0
2833,16763292,0,0.02,0,0.01,3.7,3.7,0,0,3,0
2914,16864085,0,0.02,0,0.01,3.71,3.71,0,0,3,0
2994,16964045,0,0.02,0,0.01,3.71,3.71,0,0,3,0
3074,17064005,0,0.02,0,0.01,3.72,3.72,0,0,3,0
3153,17163965,0,0.02,0,0.01,3.72,3.72,0,0,3,0
3235,17263925,0,0.02,0,0.01,3.72,3.72,0,0,3,0
3317,17363885,0,0.02,0,0.01,3.72,3.72,0,0,3,0
3397,17463845,0,0.02,0,0.01,3.71,3.71,0,0,3,0
3476,17563805,0,0.02,0,0.01,3.71,3.71,0,0,3,0
3555,17663765,0,0.02,0,0.01,3.71,3.71,0,0,3,0
3634,17763725,0,0.02,0,0.01,3.7,3.7,0,0,3,0
3715,17863685,0,0.02,0,0.01,3.7,3.7,0,0,3,0
3795,17963645,0,0.02,0,0.01,3.69,3.69,0,0,3,0
3875,18063605,0,0.02,0,0.01,3.69,3.69,0,0,3,0
3954,18163565,0,0.02,0,0.01,3.68,3.68,0,0,3,0
4035,18263525,0,0.02,0,0.01,3.68,3.68,0,0,3,0
4117,18363485,0,0.02,0,0.01,3.67,3.67,0,0,3,0
4197,18463445,0,0.02,0,0.01,3.66,3.66,0,0,3,0
4276,18563405,0,0.02,0,0.01,3.65,3.65,0,0,3,0
4361,18663365,0,0.02,0,0.01,3.65,3.65,0,0,3,0
4440,18763325,0,0.02,0,0.01,3.64,3.64,0,0,3,0
4521,18863285,0,0.02,0,0.01,3.63,3.63,0,0,3,0
4601,18964078,0,0.02,0,0.01,3.62,3.62,0,0,3,0
4681,19064038,0,0.03,0,0.01,3.61,3.61,0,0,3,0
4760,19163998,0,0.03,0,0.01,3.6,3.6,0,0,3,0
4841,19263958,0,0.03,0,0.01,3.6,3.6,0,0,3,0
4923,19363918,0,0.03,0,0.01,3.58,3.58,0,0,3,0
5003,19463878,0,0.03,0,0.01,3.57,3.57,0,0,3,0
5082,19563838,0,0.03,0,0.01,3.56,3.56,0,0,3,0
5161,19663798,0,0.03,0,0.01,3.55,3.55,0,0,3,0
5240,19763758,0,0.03,0,0.01,3.54,3.54,0,0,3,0
5321,19863718,0,0.03,0,0.01,3.53,3.53,0,0,3,0
5402,19963678,0,0.03,0,0.01,3.52,3.52,0,0,3,0
5482,20063638,0,0.03,0,0.01,3.51,3.51,0,0,3,0
5561,20163598,0,0.03,0,0.01,3.5,3.5,0,0,3,0
5642,20263558,0,0.03,0,0.01,3.49,3.49,0,0,3,0
5724,20363518,0,0.03,0,0.01,3.48,3.48,0,0,3,0
5804,20463478,0,0.03,0,0.01,3.47,3.47,0,0,3,0
5883,20563438,0,0.03,0,0.01,3.45,3.45,0,0,3,0
5962,20663398,0,0.03,0,0.01,3.44,3.44,0,0,3,0
6041,20763358,0,0.03,0,0.02,3.43,3.43,0,0,3,0
6122,20863318,0,0.03,0,0.02,3.42,3.42,0,0,3,0
6202,20963278,0,0.03,0,0.02,3.41,3.41,0,0,3,0
6282,21064071,0,0.03,0,0.02,3.4,3.4,0,0,3,0
6361,21164031,0,0.03,0,0.02,3.38,3.38,0,0,3,0
6442,21263991,0,0.03,0,0.02,3.37,3.37,0,0,3,0
6524,21363951,0,0.03,0,0.02,3.36,3.36,0,0,3,0
6604,21463911,0,0.03,0,0.02,3.35,3.35,0,0,3,0
6683,21563871,0,0.03,0,0.02,3.34,3.34,0,0,3,0
6762,21663831,0,0.03,0,0.02,3.32,3.32,0,0,3,0
6841,21763791,0,0.03,0,0.02,3.31,3.31,0,0,3,0
6922,21863751,0,0.03,0,0.02,3.3,3.3,0,0,3,0
7002,21963711,0,0.03,0,0.02,3.29,3.29,0,0,3,0
7081,22063671,0,0.04,0,0.02,3.28,3.28,0,0,3,0
7161,22163631,0,0.04,0,0.02,3.26,3.26,0,0,3,0
7242,22263591,0,0.04,0,0.02,3.25,3.25,0,0,3,0
7325,22363551,0,0.04,0,0.02,3.24,3.24,0,0,3,0
7405,22463511,0,0.04,0,0.02,3.23,3.23,0,0,3,0
7484,22563471,0,0.04,0,0.02,3.21,3.21,0,0,3,0
7563,22663431,0,0.04,0,0.02,3.2,3.2,0,0,3,0
7642,22763391,0,0.04,0,0.02,3.19,3.19,0,0,3,0
7723,22863351,0,0.04,0,0.02,3.18,3.18,0,0,3,0
7802,22963311,0,0.04,0,0.02,3.16,3.16,0,0,3,0
7882,23063271,0,0.04,0,0.02,3.15,3.15,0,0,3,0
7962,23164064,0,0.04,0,0.02,3.14,3.14,0,0,3,0
8043,23264024,0,0.04,0,0.02,3.13,3.13,0,0,3,0
8125,23363984,0,0.04,0,0.02,3.12,3.12,0,0,3,0
8204,23463944,0,0.04,0,0.02,3.11,3.11,0,0,3,0
8284,23563904,0,0.04,0,0.02,3.09,3.09,0,0,3,0
8363,23663864,0,0.04,0,0.02,3.08,3.08,0,0,3,0
8442,23763824,0,0.04,0,0.02,3.07,3.07,0,0,3,0
8523,23863784,0,0.04,0,0.02,3.06,3.06,0,0,3,0
8602,23963744,0,0.04,0,0.02,3.05,3.05,0,0,3,0
8682,24063704,0,0.04,0,0.02,3.03,3.03,0,0,3,0
8762,24163664,0,0.04,0,0.02,3.02,3.02,0,0,3,0
8843,24263624,0,0.04,0,0.02,3.01,3.01,0,0,3,0
8925,24363584,0,0.04,0,0.03,3,3,0,0,3,0
9004,24463544,0,0.04,0,0.03,2.99,2.99,0,0,3,0
9084,24563504,0,0.04,0,0.03,2.98,2.98,0,0,3,0
9163,24663464,0,0.04,0,0.03,2.96,2.96,0,0,3,0
9242,24763424,0,0.04,0,0.03,2.95,2.95,0,0,3,0
9323,24863384,0,0.04,0,0.03,2.94,2.94,0,0,3,0
9402,24963344,0,0.04,0,0.03,2.93,2.93,0,0,3,0
9483,25063304,0,0.04,0,0.03,2.92,2.92,0,0,3,0
9563,25163264,0,0.04,0,0.03,2.91,2.91,0,0,3,0
9644,25264057,0,0.04,0,0.03,2.9,2.9,0,0,3,0
9726,25364017,0,0.04,0,0.03,2.88,2.88,0,0,3,0
9805,25463977,0,0.04,0,0.03,2.87,2.87,0,0,3,0
9885,25563937,0,0.04,0,0.03,2.86,2.86,0,0,3,0
9964,25663897,0,0.04,0,0.03,2.85,2.85,0,0,3,0
10043,25763857,0,0.04,0,0.03,2.84,2.84,0,0,3,0
10124,25863817,0,0.04,0,0.03,2.83,2.83,0,0,3,0
10203,25963777,0,0.05,0,0.03,2.82,2.82,0,0,3,0
10283,26063737,0,0.05,0,0.03,2.81,2.81,0,0,3,0
10363,26163697,0,0.05,0,0.03,2.8,2.8,0,0,3,0
10444,26263657,0,0.05,0,0.03,2.79,2.79,0,0,3,0
10526,26363617,0,0.05,0,0.03,2.78,2.78,0,0,3,0
10605,26463577,0,0.05,0,0.03,2.76,2.76,0,0,3,0
10685,26563537,0,0.05,0,0.03,2.75,2.75,0,0,3,0
10764,26663497,0,0.05,0,0.03,2.74,2.74,0,0,3,0
10843,26763457,0,0.05,0,0.03,2.73,2.73,0,0,3,0
10924,26863417,0,0.05,0,0.03,2.72,2.72,0,0,3,0
11003,26963377,0,0.05,0,0.03,2.71,2.71,0,0,3,0
11083,27063337,0,0.05,0,0.03,2.7,2.7,0,0,3,0
11163,27163297,0,0.05,0,0.03,2.69,2.69,0,0,3,0
11244,27264090,0,0.05,0,0.03,2.68,2.68,0,0,3,0
11326,27364050,0,0.05,0,0.03,2.67,2.67,0,0,3,0
11405,27464010,0,0.05,0,0.03,2.66,2.66,0,0,3,0
11485,27563970,0,0.05,0,0.03,2.65,2.65,0,0,3,0
11564,27663930,0,0.05,0,0.03,2.64,2.64,0,0,3,0
11643,27763890,0,0.05,0,0.03,2.63,2.63,0,0,3,0
11724,27863850,0,0.05,0,0.03,2.62,2.62,0,0,3,0
11803,27963810,0,0.05,0,0.03,2.61,2.61,0,0,3,0
11883,28063770,0,0.05,0,0.03,2.6,2.6,0,0,3,0
11963,28163730,0,0.05,0,0.03,2.59,2.59,0,0,3,0
12044,28263690,0,0.05,0,0.04,2.58,2.58,0,0,3,0
12126,28363650,0,0.05,0,0.04,2.57,2.57,0,0,3,0
12205,28463610,0,0.05,0,0.04,2.57,2.57,0,0,3,0
12285,28563570,0,0.05,0,0.04,2.56,2.56,0,0,3,0
12364,28663530,0,0.05,0,0.04,2.55,2.55,0,0,3,0
12443,28763490,0,0.05,0,0.04,2.54,2.54,0,0,3,0
12524,28863450,0,0.05,0,0.04,2.53,2.53,0,0,3,0
12603,28963410,0,0.05,0,0.04,2.52,2.52,0,0,3,0
12683,29063370,0,0.05,0,0.04,2.51,2.51,0,0,3,0
12763,29163330,0,0.05,0,0.04,2.5,2.5,0,0,3,0
12844,29263290,0,0.05,0,0.04,2.49,2.49,0,0,3,0
12926,29364083,0,0.05,0,0.04,2.48,2.48,0,0,3,0
13005,29464043,0,0.05,0,0.04,2.47,2.47,0,0,3,0
13085,29564003,0,0.05,0,0.04,2.46,2.46,0,0,3,0
13164,29663963,0,0.05,0,0.04,2.46,2.46,0,0,3,0
13286,45963274,0,0.08,0,0.07,1.5,1.5,0,0,3,0
13368,46064067,0,0.08,0,0.07,1.5,1.5,0,0,3,0
13448,46164027,0,0.08,0,0.06,1.49,1.49,0,0,3,0
13534,46263987,0,0.07,0,0.06,1.49,1.49,0,0,3,0
13617,46363947,0,0.07,0,0.06,1.49,1.49,0,0,3,0
13701,46463907,0,0.07,0,0.06,1.48,1.48,0,0,3,0
13788,46563867,0,0.07,0,0.06,1.48,1.48,0,0,3,0
13873,46663827,0,0.07,0,0.06,1.48,1.48,0,0,3,0
13959,46763787,0,0.07,0,0.06,1.47,1.47,0,0,3,0
14044,46863747,0,0.07,0,0.06,1.47,1.47,0,0,3,0
14129,46963707,0,0.07,0,0.06,1.47,1.47,0,0,3,0
14216,47063667,0,0.07,0,0.06,1.46,1.46,0,0,3,0
14302,47163627,0,0.07,0,0.06,1.46,1.46,0,0,3,0
14390,47263587,0,0.07,0,0.06,1.46,1.46,0,0,3,0
14475,47363547,0,0.07,0,0.06,1.45,1.45,0,0,3,0
14561,47463507,0,0.08,0,0.06,1.45,1.45,0,0,3,0
14648,47563467,0,0.08,0,0.07,1.45,1.45,0,0,3,0
14733,47663427,0,0.08,0,0.07,1.44,1.44,0,0,3,0
14819,47763387,0,0.08,0,0.07,1.44,1.44,0,0,3,0
14904,47863347,0,0.08,0,0.07,1.44,1.44,0,0,3,0
14990,47963307,0,0.08,0,0.07,1.43,1.43,0,0,3,0
15081,48063267,0,0.08,0,0.07,1.43,1.43,0,0,3,0
15171,48164060,0,0.08,0,0.07,1.43,1.43,0,0,3,0
15263,48264020,0,0.09,0,0.08,1.42,1.42,0,0,3,0
15352,48363980,0,0.09,0,0.08,1.42,1.42,0,0,3,0
15443,48463940,0,0.09,0,0.08,1.42,1.42,0,0,3,0
15534,48563900,0.01,0.09,0.01,0.08,1.42,1.41,0,0,3,0
15623,48663860,0.02,0.09,0.02,0.08,1.42,1.41,0,0,3,0
15713,48763820,0.02,0.09,0.02,0.08,1.42,1.41,0,0,3,0
15802,48863780,0.02,0.1,0.02,0.08,1.42,1.4,0,0,3,0
15891,48963740,0.02,0.1,0.02,0.09,1.42,1.4,0,0,3,0
15982,49063700,0.02,0.1,0.02,0.09,1.42,1.4,0,0,3,0
16072,49163660,0.02,0.1,0.02,0.09,1.42,1.39,0,0,3,0
16164,49263620,0.01,0.1,0.01,0.09,1.42,1.39,0,0,3,0
16253,49363580,0,0.1,0,0.09,1.42,1.39,0,0,3,0
16343,49463540,0,0.11,0,0.09,1.42,1.38,0,0,3,0
16434,49563500,0.01,0.11,0,0.1,1.42,1.38,0,0,3,0
16523,49663460,0.01,0.11,0,0.1,1.42,1.38,0,0,3,0
16613,49763420,0.01,0.11,0,0.1,1.42,1.37,0,0,3,0
16702,49863380,-0.02,0.11,-0.03,0.1,1.42,1.37,0,0,3,0
16791,49963340,-0.06,0.11,-0.05,0.1,1.42,1.37,0,0,3,0
16882,50063300,-0.07,0.12,-0.04,0.1,1.42,1.36,0,0,3,0
16972,50163260,-0.09,0.12,-0.06,0.11,1.42,1.36,0,0,3,0
17064,50264053,-0.08,0.12,-0.09,0.11,1.42,1.35,0,0,3,0
17153,50364013,-0.07,0.09,-0.13,0.03,1.42,1.35,0,0,3,0
17243,50463973,-0.11,-0.04,-0.15,-0.06,1.42,1.35,0,0,3,0
17334,50563933,-0.07,-0.48,-0.09,-0.02,1.42,1.35,0,0,3,0
17423,50663893,0,0.48,-0.02,-1.77,1.42,1.28,0,0,3,0
17513,50763853,0.05,-1.29,0.11,1.05,1.42,1.08,0,0,3,0
17602,50863813,0.23,0.46,0.23,-1.55,1.42,0.9,0,0,3,0
17691,50963773,0.34,-0.6,0.3,1.71,1.42,0.7,0,0,3,0
17782,51063733,0.42,0.85,0.3,-1.56,1.42,0.55,0,0.01,3,0
17873,51163693,0.3,0.26,0.31,1.82,1.42,0.47,0,0.01,3,0
17965,51263653,0.25,0.2,0.31,-1.37,1.42,0.4,0,0.01,3,0
18054,51363613,0.24,-0.25,0.32,1.88,1.42,0.37,0,0.02,3,0
18144,51463573,0.34,0.15,0.3,-1.56,1.42,0.39,0,0.02,3,0
18235,51563533,0.38,-0.07,0.33,1.92,1.42,0.44,0,0.02,3,0
18324,51663493,0.38,0.78,0.33,-1.44,1.42,0.5,0,0.02,3,0
18414,51763453,0.3,-0.17,0.36,1.94,1.42,0.6,0,0.02,3,0
18503,51863413,0.26,0.57,0.32,-1.39,1.42,0.68,0,0.02,3,0
18592,51963373,0.25,-0.24,0.3,2.04,1.42,0.78,0,0.02,3,0
18683,52063333,0.28,0.55,0.27,-1.39,1.42,0.84,0,0.03,3,0
18774,52163293,0.27,-0.17,0.23,1.89,1.42,0.9,0,0.03,3,0
18866,52264086,0.29,0.35,0.22,-1.66,1.42,0.92,0,0.03,3,0
18957,52364046,0.26,-0.21,0.28,2.21,1.42,0.9,0,0.03,3,0
19049,52464006,0.87,0.78,0.26,-1.39,3.81,3.24,0,0.03,3,0
19140,52563966,0.56,-0.4,0.12,1.91,3.8,2.88,0,0.03,3,0
19229,52663926,0.46,0.58,0.08,-1.76,3.8,2.01,0,0.03,3,0
19319,52763886,0.39,-0.29,0.11,1.83,3.8,1.46,0,0.03,3,0
19408,52863846,0.33,0.59,0.12,-1.71,3.8,1.02,0,0.03,3,0
19497,52963806,0.27,-0.26,0.16,1.91,3.8,0.98,0,0.03,3,0
19588,53063766,0.32,0.39,0.17,-1.59,3.8,1.15,0,0.03,3,0
19678,53163726,0.35,0.37,0.2,1.83,3.8,1.64,0,0.03,3,0
19770,53263686,0.33,0.24,0.16,-1.46,3.8,2.18,0,0.03,3,0
19859,53363646,0.3,0.59,0.14,1.86,3.8,2.85,0,0.03,3,0
19949,53463606,0.37,-0.1,0.13,-1.65,3.8,3.42,0,0.04,3,0
20041,53563566,0.38,0.6,0.13,1.86,3.8,3.98,0,0.04,3,0
20130,53663526,0.35,0.44,0.16,-1.74,3.8,4.34,0,0.04,3,0
20220,53763486,0.3,0.13,0.2,1.99,3.8,4.62,0,0.04,3,0
20309,53863446,0.35,0.4,0.17,-1.41,3.8,4.7,0,0.04,3,0
20398,53963406,0.33,0.07,0.12,2.1,3.8,4.68,0,0.03,3,0
20489,54063366,0.4,0.42,0.01,-1.53,3.8,4.49,0,0.03,3,0
20579,54163326,0.39,0.33,-0.06,1.89,3.8,4.27,0,0.03,3,0
20671,54263286,0.4,0.43,-0.08,-1.79,3.8,3.92,0,0.03,3,0
20760,54364079,0.37,0.66,-0.01,1.94,3.8,3.6,0,0.03,3,0
20850,54464039,0.31,0.63,-0.03,-1.5,3.8,3.19,0,0.04,3,0
20942,54563999,0.19,0.23,-0.09,1.82,3.8,2.9,0,0.04,3,0
21031,54663959,0.15,0.31,-0.1,-1.9,3.8,2.62,0,0.04,3,0
21120,54763919,0.11,0.05,-0.04,1.58,3.8,2.47,0,0.04,3,0
21210,54863879,0.1,0.08,0.04,-1.78,3.8,2.39,0,0.04,3,0
21299,54963839,0.16,0.16,0.1,1.78,3.8,2.42,0,0.04,3,0
21390,55063799,0.19,0.22,0.14,-1.56,3.8,2.48,0,0.04,3,0
21480,55163759,0.11,0.33,0.14,1.72,3.8,2.63,0,0.04,3,0
21571,55263719,0.1,-0.2,0.18,-1.67,3.8,2.8,0,0.04,3,0
21661,55363679,0.1,0.81,0.22,1.89,3.8,3.01,0,0.04,3,0
21752,55463639,0.11,-0.72,0.14,-1.26,3.8,3.18,0,0.04,3,0
21843,55563599,0.15,0.81,0.09,1.85,3.8,3.32,0,0.05,3,0
21932,55663559,0.17,-0.46,0.03,-1.63,3.8,3.4,0,0.05,3,0
22021,55763519,0.18,0.43,0.05,1.74,3.8,3.48,0,0.05,3,0
22111,55863479,0.19,-0.28,0.09,-1.76,3.8,3.5,0,0.05,3,0
22200,55963439,0.2,0.54,0.15,1.91,3.8,3.52,0,0.05,3,0
22291,56063399,0.18,-0.07,0.11,-1.58,3.8,3.47,0,0.05,3,0
22381,56163359,0.14,0.57,0.12,1.91,3.8,3.44,0,0.05,3,0
22473,56263319,0.1,-0.16,0.07,-1.61,3.8,3.35,0,0.05,3,0
22563,56363279,0.04,0.68,0.08,1.69,3.8,3.29,0,0.05,3,0
22654,56464072,0.02,0.09,0.09,-1.74,3.8,3.17,0,0.05,3,0
22745,56564032,-0.09,0.67,0.14,1.69,3.8,3.12,0,0.05,3,0
22834,56663992,-0.16,-0.03,0.2,-1.85,3.8,3.03,0,0.05,3,0
22923,56763952,-0.19,0.17,0.26,1.86,3.8,2.98,0,0.05,3,0
23013,56863912,-0.1,-0.23,0.24,-1.51,3.8,2.96,0,0.05,3,0
23102,56963872,-0.1,0.27,0.2,1.96,3.8,2.95,0,0.05,3,0
23193,57063832,-0.04,-0.33,0.15,-1.64,3.8,2.96,0,0.05,3,0
23283,57163792,0,0.34,0.15,1.89,3.8,2.98,0,0.05,3,0
23374,57263752,0.05,-0.62,0.16,-1.49,3.8,3.03,0,0.05,3,0
23464,57363712,0.07,0.96,0.17,1.71,3.8,3.09,0,0.05,3,0
23555,57463672,0.05,-0.79,0.13,-1.22,3.8,3.12,0,0.05,3,0
23646,57563632,0.03,1.07,0.09,1.52,3.8,3.17,0,0.05,3,0
23735,57663592,0.07,-1.21,0.08,-1.72,3.8,3.18,0,0.06,3,0
23824,57763552,0.16,0.74,0.18,1.59,3.8,3.18,0,0.06,3,0
23914,57863512,0.24,-0.56,0.22,-1.63,3.8,3.18,0,0.06,3,0
24003,57963472,0.21,0.82,0.28,1.83,3.8,3.2,0,0.06,3,0
24094,58063432,0.19,-0.33,0.25,-1.42,3.8,3.19,0,0.06,3,0
24184,58163392,0.17,0.81,0.22,1.8,3.8,3.21,0,0.06,3,0
24275,58263352,0.18,-0.44,0.23,-1.43,3.8,3.19,0,0.06,3,0
24365,58363312,0.18,0.84,0.25,1.86,3.8,3.22,0,0.06,3,0
24456,58463272,0.22,-0.57,0.24,-1.33,3.8,3.22,0,0.06,3,0
24547,58564065,0.21,0.86,0.26,1.67,3.8,3.26,0,0.06,3,0
24636,58664025,0.23,-0.44,0.26,-1.45,3.8,3.27,0,0.06,3,0
24725,58763985,0.23,0.7,0.31,1.97,3.8,3.32,0,0.06,3,0
24815,58863945,0.25,-0.28,0.24,-1.2,3.8,3.34,0,0.06,3,0
24904,58963905,0.22,0.85,0.19,1.86,3.8,3.41,0,0.05,3,0
24995,59063865,0.24,-0.34,0.13,-1.26,3.8,3.42,0,0.05,3,0
25085,59163825,0.25,0.9,0.14,1.67,3.8,3.47,0,0.05,3,0
25176,59263785,0.21,-0.4,0.13,-1.19,3.8,3.47,0,0.05,3,0
25266,59363745,0.23,1.1,0.15,1.4,3.8,3.51,0,0.05,3,0
25357,59463705,0.22,-0.53,0.15,-1.03,3.8,3.49,0,0.05,3,0
25448,59563665,0.16,1.24,0.15,1.33,3.8,3.5,0,0.05,3,0
25537,59663625,0.19,-1.2,0.11,-0.93,3.8,3.47,0,0.05,3,0
25626,59763585,0.28,1.04,0.14,1.21,3.8,3.44,0,0.06,3,0
25716,59863545,0.37,-0.78,0.14,-1.07,3.8,3.39,0,0.06,3,0
25805,59963505,0.39,1.23,0.17,1.44,3.8,3.37,0,0.05,3,0
25896,60063465,0.37,-0.54,0.15,-1.1,3.8,3.32,0,0.05,3,0
25986,60163425,0.33,1.07,0.15,1.48,3.8,3.31,0,0.05,3,0
26077,60263385,0.31,-0.71,0.13,-1.05,3.8,3.29,0,0.05,3,0
26167,60363345,0.33,1.16,0.14,1.37,3.8,3.3,0,0.05,3,0
26259,60463305,0.34,-0.74,0.17,-0.99,3.8,3.3,0,0.05,3,0
26350,60563265,0.29,1.22,0.93,1.64,3.8,3.34,0,0.05,3,0
26439,60664058,0.25,-1.06,1.91,0.5,3.81,3.32,0,0.05,3,0
26528,60764018,0.27,1.32,2.17,3.46,3.81,3.31,0,0.06,3,0
26618,60863978,0.23,-0.48,1.92,0.64,3.81,3.28,0,0.06,3,0
26707,60963938,0.14,1.32,1.6,2.89,3.8,3.3,0,0.06,3,0
26798,61063898,0.11,-0.83,1.28,0.01,3.8,3.3,0,0.06,3,0
26888,61163858,0.09,1.08,1.05,2.17,3.8,3.33,0,0.06,3,0
26979,61263818,0.11,-1.07,0.85,-0.45,3.8,3.35,0,0.06,3,0
27072,61363778,0.11,1.28,0.71,1.59,3.8,3.38,0,0.06,3,0
27162,61463738,0.09,-1.41,0.59,-0.37,3.8,3.4,0,0.06,3,0
27253,61563698,0.13,1.24,0.48,1.04,3.8,3.42,0,0.06,3,0
27342,61663658,0.16,-1.27,0.37,-0.34,3.8,3.43,0,0.06,3,0
27431,61763618,0.12,1.92,0.29,0.99,3.8,3.43,0,0.06,3,0
27521,61863578,0.02,-1.04,0.16,-0.31,3.8,3.4,0,0.06,3,0
27610,61963538,-0.11,1.67,0.07,0.96,3.8,3.39,0,0.06,3,0
27701,62063498,-0.15,-1.51,-0.02,-0.8,3.8,3.37,0,0.06,3,0
27791,62163458,-0.12,1.16,-0.06,0.97,3.8,3.35,0,0.06,3,0
27882,62263418,-0.06,-1.5,-0.1,-0.88,3.8,3.34,0,0.06,3,0
27973,62363378,-0.01,1.36,-0.15,0.77,3.8,3.33,0,0.06,3,0
28063,62463338,0.02,-1.52,-0.19,-0.98,3.8,3.31,0,0.06,3,0
28154,62563298,0.04,1.5,-0.16,0.58,3.8,3.3,0,0.06,3,0
28243,62664091,0.03,-1.49,-0.16,-0.67,3.8,3.3,0,0.06,3,0
28332,62764051,0.01,1.68,-0.17,0.62,3.8,3.28,0,0.06,3,0
28422,62864011,0.01,-1.17,-0.18,-1.07,3.8,3.23,0,0.06,3,0
28511,62963971,0,1.54,-0.13,0.72,3.8,3.22,0,0.06,3,0
28602,63063931,0,-1.33,-0.1,-0.88,3.8,3.21,0,0.06,3,0
28691,63163891,0,1.43,-0.07,0.62,3.8,3.21,0,0.06,3,0
28783,63263851,0.01,-1.4,-0.07,-0.77,3.8,3.22,0,0.06,3,0
28873,63363811,0.06,1.48,-0.03,0.65,3.8,3.23,0,0.06,3,0
28963,63463771,0.13,-1.42,-0.04,-0.67,3.8,3.25,0,0.06,3,0
29054,63563731,0.18,1.78,-0.01,0.31,3.8,3.27,0,0.06,3,0
29143,63663691,0.17,-1.49,-0.01,-0.07,3.8,3.29,0,0.06,3,0
29232,63763651,0.21,1.59,0,-0.08,3.8,3.3,0,0.06,3,0
29322,63863611,0.27,-1.32,0,-0.24,3.8,3.31,0,0.05,3,0
29411,63963571,0.26,2.05,0.06,-0.06,3.8,3.32,0,0.05,3,0
29502,64063531,0.21,-1.33,0.12,-0.22,3.8,3.31,0,0.05,3,0
29591,64163491,0.21,1.77,0.13,0.46,3.8,3.3,0,0.05,3,0
29683,64263451,0.24,-1.32,0.15,-0.25,3.8,3.29,0,0.05,3,0
29773,64363411,0.28,1.77,0.16,0.44,3.8,3.28,0,0.05,3,0
29863,64463371,0.29,-1.28,0.15,-0.25,3.8,3.26,0,0.05,3,0
29954,64563331,0.34,1.85,0.2,0.45,3.8,3.25,0,0.05,3,0
30043,64663291,0.33,-1.21,0.23,-0.06,3.8,3.24,0,0.05,3,0
30132,64764084,0.35,2.06,0.26,0.33,3.8,3.24,0,0.05,3,0
30222,64864044,0.34,-1.27,0.23,-0.07,3.8,3.25,0,0.05,3,0
30311,64964004,0.33,1.95,0.28,0.46,3.8,3.26,0,0.05,3,0
30402,65063964,0.31,-1.25,0.34,-0.04,3.8,3.26,0,0.05,3,0
30491,65163924,0.3,1.91,0.36,0.61,3.8,3.28,0,0.05,3,0
30583,65263884,0.32,-1.29,0.28,0.19,3.8,3.28,0,0.05,3,0
30673,65363844,0.33,1.95,0.25,0.37,3.8,3.29,0,0.05,3,0
30763,65463804,0.31,-1.28,0.27,0.17,3.8,3.29,0,0.05,3,0
30854,65563764,0.29,1.81,0.26,0.22,3.8,3.29,0,0.05,3,0
30943,65663724,0.25,-1.21,0.24,0.39,3.8,3.29,0,0.05,3,0
31032,65763684,0.2,1.86,0.24,-0.1,3.8,3.28,0,0.05,3,0
31122,65863644,0.15,-1.37,0.2,0.93,3.8,3.29,0,0.05,3,0
31211,65963604,0.2,1.34,0.18,-0.39,3.8,3.27,0,0.04,3,0
31302,66063564,0.28,-1.62,0.18,0.53,3.8,3.26,0,0.04,3,0
31391,66163524,0.33,1.77,0.2,-0.14,3.8,3.23,0,0.04,3,0
31483,66263484,0.29,-1.46,0.18,0.42,3.8,3.22,0,0.04,3,0
31572,66363444,0.27,1.77,0.18,-0.02,3.8,3.2,0,0.04,3,0
31664,66463404,0.26,-1.43,0.17,0.43,3.8,3.2,0,0.04,3,0
31755,66563364,0.28,1.85,0.18,-0.12,3.8,3.19,0,0.04,3,0
31844,66663324,0.26,-1.35,0.18,0.45,3.8,3.2,0,0.04,3,0
31933,66763284,0.23,1.7,0.2,-0.23,3.8,3.21,0,0.04,3,0
32022,66864077,0.2,-1.42,0.21,0.59,3.8,3.23,0,0.04,3,0
32112,66964037,0.19,1.76,0.19,-0.07,3.8,3.22,0,0.04,3,0
32203,67063997,0.19,-1.49,0.16,0.29,3.8,3.22,0,0.04,3,0
32292,67163957,0.19,1.77,0.18,-0.17,3.8,3.21,0,0.04,3,0
32384,67263917,0.17,-1.43,0.22,0.31,3.8,3.22,0,0.04,3,0
32473,67363877,0.15,1.77,0.27,-0.18,3.8,3.23,0,0.04,3,0
32564,67463837,0.17,-1.5,0.26,0.52,3.8,3.24,0,0.04,3,0
32655,67563797,0.2,1.69,0.26,-0.16,3.8,3.26,0,0.04,3,0
32744,67663757,0.17,-1.44,0.23,0.83,3.8,3.29,0,0.04,3,0
32833,67763717,0.19,1.44,0.21,-0.66,3.8,3.3,0,0.04,3,0
32922,67863677,0.18,-1.05,0.21,1,3.8,3.32,0,0.04,3,0
33012,67963637,0.15,1.51,0.19,-0.81,3.8,3.31,0,0.03,3,0
33103,68063597,0.08,-1.2,0.13,1.56,3.8,3.31,0,0.03,3,0
33192,68163557,0.04,1.55,0,-0.66,3.8,3.29,0,0.03,3,0
33284,68263517,0.02,-1.37,-0.04,0.86,3.8,3.27,0,0.03,3,0
33373,68363477,0.05,1.64,-0.01,-0.59,3.8,3.25,0,0.03,3,0
33464,68463437,0.06,-1.37,0,0.75,3.8,3.24,0,0.03,3,0
33555,68563397,0.02,1.6,0,-0.65,3.8,3.22,0,0.03,3,0
33644,68663357,-0.01,-1.48,0,0.75,3.8,3.21,0,0.03,3,0
33733,68763317,0.01,1.47,0.02,-0.69,3.8,3.21,0,0.03,3,0
33822,68863277,0.01,-1.31,0,0.98,3.8,3.22,0,0.03,3,0
33912,68964070,0.01,1.42,0.02,-0.75,3.8,3.24,0,0.02,3,0
34003,69064030,-0.01,-1.37,0,0.93,3.8,3.28,0,0.02,3,0
34092,69163990,0,1.48,-0.04,-0.69,3.8,3.31,0,0.02,3,0
34184,69263950,0.02,-1.37,-0.05,0.69,3.8,3.34,0,0.02,3,0
34273,69363910,0.02,1.44,-0.04,-0.91,3.8,3.36,0,0.02,3,0
34364,69463870,0.02,-1.32,-0.01,0.67,3.8,3.37,0,0.02,3,0
34455,69563830,0.04,1.32,0.06,-0.91,3.8,3.38,0,0.02,3,0
34544,69663790,0.07,-1.29,0.08,0.93,3.8,3.37,0,0.02,3,0
34633,69763750,0.1,1.32,0.06,-0.84,3.8,3.36,0,0.02,3,0
34722,69863710,0.12,-1.08,0.01,1.37,3.8,3.35,0,0.02,3,0
34812,69963670,0.15,0.9,0.02,-1.31,3.8,3.33,0,0.02,3,0
34903,70063630,0.18,-0.6,0.08,1.46,3.8,3.31,0,0.01,3,0
34992,70163590,0.18,1.36,0.11,-1.32,3.8,3.25,0,0.01,3,0
35084,70263550,0.1,-0.84,0.15,1.27,3.8,3.22,0,0.01,3,0
35173,70363510,0.09,1.28,0.17,-1.13,3.8,3.17,0,0.01,3,0
35264,70463470,0.08,-0.96,0.17,1.35,3.8,3.15,0,0.01,3,0
35355,70563430,0.08,1.35,0.11,-0.91,3.8,3.13,0,0.01,3,0
35444,70663390,0.03,-1.01,0.06,1.22,3.8,3.13,0,0.01,3,0
35533,70763350,0.05,1.11,0.07,-1.15,3.8,3.14,0,0.01,3,0
35622,70863310,0.08,-1.07,0.08,1.22,3.8,3.16,0,0.01,3,0
35712,70963270,0.1,0.97,0.1,-1.2,3.8,3.19,0,0,3,0
35803,71064063,0.1,-0.95,0.14,1.35,3.8,3.2,0,0,3,0
35892,71164023,0.09,1.19,0.16,-1.09,3.8,3.2,0,0,3,0
35984,71263983,0.05,-1.25,0.12,1.35,3.8,3.2,0,0,3,0
36073,71363943,0.08,1.1,0.08,-1.15,3.8,3.21,0,0,3,0
36164,71463903,0.1,-1.12,0.05,1.31,3.8,3.21,0,0,3,0
36256,71563863,0.14,1.07,0.04,-1.27,3.8,3.23,0,0,3,0
36345,71663823,0.15,-1,0.07,1.36,3.8,3.24,0,0,3,0
36434,71763783,0.22,1.06,0.07,-1.23,3.8,3.25,0,0,3,0
36523,71863743,0.21,-0.43,0.05,1.42,3.8,3.27,0,0,3,0
36613,71963703,0.16,0.87,0.06,-1.31,3.8,3.27,0,0,3,0
36704,72063663,0.09,-0.37,0.04,1.65,3.8,3.28,0,0,3,0
36793,72163623,0.17,0.4,0.04,-1.75,3.8,3.27,0,0.01,3,0
36885,72263583,0.21,-0.49,0.13,1.43,3.8,3.26,0,0.01,3,0
36975,72363543,0.31,0.54,0.17,-1.55,3.8,3.24,0,0.01,3,0
37067,72463503,0.01,-0.67,-0.3,1.21,3.8,3.24,0,0.01,3,0
37158,72563463,-1.28,0.2,-2.13,-3.34,3.83,3.27,0,0.01,3,0
37247,72663423,-3.22,-3,-4.71,-3.19,3.94,3.3,0,0.01,3,0
37336,72763383,-5.35,-3.63,-7.55,-8.94,4.16,3.65,0,0.01,3,0
37425,72863343,-7.46,-7.27,-10.4,-8.66,4.33,3.67,0,0.02,3,0
37515,72963303,-8.65,-8.05,-13.11,-14.1,2.39,4.37,0,0.02,3,0
37606,73063263,-8.09,-10.08,-15.06,-12.06,357.54,3.54,0,0.03,3,0
37695,73164056,-6.53,-8.79,-16.39,-16.12,351.43,2.6,0,0.02,3,0
37787,73264016,-4.74,-9.3,-17.35,-13.79,345.23,359.07,0,0.02,3,0
37876,73363976,-2.87,-5.89,-18.08,-17.89,339,354.89,0,0.01,3,0
37967,73463936,-1.58,-6.25,-18.58,-15.88,334.53,348.48,0,0.01,3,0
38058,73563896,-0.89,-2.17,-19.02,-19.74,332.22,341.71,0,0.01,3,0
38147,73663856,-0.58,-1.81,-19.49,-17.55,331.04,334.34,0,0.02,3,0
38236,73763816,-0.4,2.22,-19.97,-20.51,330.44,327.4,0,0.01,3,0
38325,73863776,-0.38,2.68,-20.57,-18.2,330.15,321.57,0,0.02,3,0
38415,73963736,-0.37,5.84,-21.11,-21.49,330,316.74,0,0.02,3,0
38506,74063696,-0.42,5.19,-20.72,-18.17,329.93,314.12,0,0.03,3,0
38596,74163656,-0.37,5.98,-18.98,-19.71,329.88,312.57,0,0.04,3,0
38688,74263616,-0.31,4.14,-16.5,-14.67,329.84,313,0,0.04,3,0
38777,74363576,-0.2,4.1,-13.72,-15.17,329.81,314.08,0,0.05,3,0
38868,74463536,-0.15,1.62,-10.82,-9.38,329.79,316.35,0,0.04,3,0
38959,74563496,-0.17,2.15,-7.86,-9.41,329.79,319.01,0,0.05,3,0
39048,74663456,-0.25,-0.7,-4.8,-3.61,329.79,322.09,0,0.04,3,0
39138,74763416,-0.26,0.74,-2.21,-3.46,329.78,325.31,0,0.06,3,0
39227,74863376,-0.31,-0.97,-0.69,1.22,329.78,328.42,0,0.05,3,0
39317,74963336,-0.32,0.72,0.21,-0.86,329.77,331.24,0,0.06,3,0
39408,75063296,-0.38,-0.85,0.92,2.66,329.77,333.5,0,0.05,3,0
39497,75164089,-0.37,0.48,1.56,-0.11,329.77,335.09,0,0.05,3,0
39589,75264049,-0.38,-1.07,2.22,3.71,329.77,335.89,0,0.04,3,0
39678,75364009,-0.27,0.68,2.71,1.11,329.77,336.01,0,0.05,3,0
39770,75463969,-0.21,-1.03,3.19,4.29,329.77,335.47,0,0.04,3,0
39861,75563929,-0.15,0.65,3.61,1.87,329.77,334.46,0,0.04,3,0
39950,75663889,-0.1,-0.87,3.9,5,329.77,333.09,0,0.04,3,0
40039,75763849,-0.05,0.6,4.09,2.37,329.77,331.56,0,0.03,3,0
40128,75863809,-0.02,-0.93,4.25,5.4,329.77,330.01,0,0.04,3,0
40218,75963769,0,0.27,4.36,2.57,329.77,328.63,0,0.03,3,0
40309,76063729,0.03,-0.9,4.47,5.79,329.78,327.48,0,0.04,3,0
40398,76163689,0.13,-0.35,4.46,2.69,329.78,326.7,0,0.04,3,0
40490,76263649,0.18,-0.22,4.44,5.79,329.78,326.25,0,0.04,3,0
40579,76363609,0.16,0,4.39,2.72,329.78,326.14,0,0.04,3,0
40671,76463569,0.11,-0.33,4.34,5.99,329.78,326.32,0,0.05,3,0
40762,76563529,0.1,0.13,4.22,2.7,329.78,326.76,0,0.05,3,0
40852,76663489,0.08,-0.53,4.1,5.68,329.78,327.36,0,0.05,3,0
40941,76763449,0.12,0.3,3.99,2.31,329.78,328.08,0,0.05,3,0
41030,76863409,0.12,-0.44,3.89,5.3,329.78,328.81,0,0.05,3,0
41120,76963369,0.18,0.37,3.76,2.04,329.78,329.49,0,0.05,3,0
41211,77063329,0.22,-0.33,3.65,5.02,329.78,330.07,0,0.05,3,0
41300,77163289,0.27,0.34,3.51,1.83,329.78,330.51,0,0.05,3,0
41392,77264082,0.31,0.04,3.35,5.04,329.78,330.79,0,0.05,3,0
41482,77364042,0.3,0.6,3.1,1.54,329.78,330.86,0,0.05,3,0
41572,77464002,0.15,0.21,1.78,3.86,329.7,330.81,0,0.05,3,0
41664,77563962,-0.04,1.01,-0.92,-1.95,329.53,330.52,0,0.05,3,0
41753,77663922,-0.3,-0.08,-4.17,-2.02,329.3,330.2,0,0.06,3,0
41842,77763882,-0.47,0.17,-7.62,-8.79,329.08,329.73,0,0.04,3,0
41931,77863842,-0.56,-0.37,-11.01,-8.88,328.88,329.22,0,0.05,3,0
42020,77963802,-0.63,-0.03,-14.4,-15.51,328.73,328.65,0,0.04,3,0
42112,78063762,-0.71,-0.13,-16.97,-15,328.62,328.12,0,0.05,3,0
42201,78163722,-0.69,-0.32,-18.2,-19.41,328.52,327.59,0,0.05,3,0
42293,78263682,-0.7,0.37,-18.83,-16.67,328.44,327.16,0,0.05,3,0
42382,78363642,-0.69,-0.45,-19.34,-20.37,328.38,326.82,0,0.06,3,0
42473,78463602,-0.76,1.16,-19.82,-17.77,328.34,326.64,0,0.06,3,0
42565,78563562,-0.87,0.28,-20.28,-21.38,328.32,326.51,0,0.06,3,0
42654,78663522,-1.05,0.93,-20.82,-18.39,328.31,326.58,0,0.06,3,0
42743,78763482,-1.18,0.17,-21.38,-22.35,328.3,326.66,0,0.06,3,0
42832,78863442,-1.27,0.33,-21.17,-19.04,328.28,326.86,0,0.06,3,0
42921,78963402,-1.23,-0.57,-19.59,-21.29,328.23,327.1,0,0.06,3,0
43013,79063362,-1.1,-0.29,-17.18,-15.7,328.16,327.3,0,0.06,3,0
43102,79163322,-0.94,-0.91,-14.5,-16.36,328.1,327.56,0,0.07,3,0
43194,79263282,-0.77,-0.19,-11.69,-10.4,328.05,327.7,0,0.06,3,0
43283,79364075,-0.66,-0.77,-8.72,-10.71,328.01,327.89,0,0.07,3,0
43374,79464035,-0.58,-0.39,-5.64,-4.36,327.98,327.94,0,0.06,3,0
43466,79563995,-0.41,-0.57,-2.89,-4.66,327.95,328.02,0,0.07,3,0
43555,79663955,-0.28,0.05,-1.16,0.58,327.94,327.99,0,0.06,3,0
43644,79763915,-0.22,-0.1,-0.15,-1.47,327.93,327.95,0,0.07,3,0
43733,79863875,-0.24,0.24,0.52,2.3,327.93,327.86,0,0.06,3,0
43822,79963835,-0.21,-0.35,1.11,-0.46,327.92,327.75,0,0.06,3,0
43914,80063795,-0.14,0.19,1.67,3.26,327.92,327.61,0,0.06,3,0
44004,80163755,-0.07,-0.67,2.12,0.49,327.92,327.51,0,0.06,3,0
44096,80263715,0,0.72,2.55,3.79,327.92,327.4,0,0.06,3,0
44185,80363675,0.02,-0.97,2.91,1.48,327.92,327.32,0,0.06,3,0
44275,80463635,0.05,0.79,3.19,4.28,327.92,327.26,0,0.06,3,0
44367,80563595,0.14,-1.37,3.4,1.62,327.92,327.22,0,0.06,3,0
44456,80663555,0.26,0.62,3.66,4.76,327.92,327.17,0,0.06,3,0
44545,80763515,0.39,-0.75,3.82,2.07,327.92,327.19,0,0.06,3,0
44634,80863475,0.4,0.7,3.94,5.35,327.92,327.21,0,0.06,3,0
44723,80963435,0.39,-0.54,3.97,2.29,327.92,327.26,0,0.06,3,0
44815,81063395,0.4,0.74,4.01,5.34,327.92,327.32,0,0.06,3,0
44905,81163355,0.43,-0.56,4,2.31,327.92,327.38,0,0.06,3,0
44997,81263315,0.45,0.94,4,5.38,327.92,327.46,0,0.06,3,0
45086,81363275,0.44,-0.59,3.91,2.36,327.92,327.51,0,0.06,3,0
45176,81464068,0.39,0.92,3.88,5.04,327.91,327.56,0,0.06,3,0
45268,81564028,0.39,-0.72,3.82,2.17,327.91,327.56,0,0.06,3,0
45358,81663988,0.43,0.69,3.78,5.09,327.91,327.55,0,0.06,3,0
45447,81763948,0.45,-0.57,3.73,2.07,327.91,327.54,0,0.06,3,0
45536,81863908,0.41,0.99,3.66,4.93,327.91,327.53,0,0.06,3,0
45625,81963868,0.37,-0.54,3.5,2.05,327.91,327.5,0,0.06,3,0
45717,82063828,0.33,1,3.38,4.63,327.9,327.48,0,0.06,3,0
45806,82163788,0.3,-0.65,3.21,1.81,327.9,327.45,0,0.06,3,0
45898,82263748,0.26,1.1,3.1,4.2,327.9,327.44,0,0.06,3,0
45989,82363708,0.23,-1.14,2.72,1.53,327.9,327.43,0,0.06,3,0
46079,82463668,0.19,1.89,0.94,2.14,327.89,327.41,0,0.06,3,0
46171,82563628,0.01,-0.89,-2,-2.29,327.89,327.34,0,0.05,3,0
46260,82663588,-0.14,1.69,-5.38,-3.59,327.9,327.32,0,0.06,3,0
46349,82763548,-0.26,-1.01,-8.88,-9.5,327.91,327.28,0,0.05,3,0
46438,82863508,-0.36,1.43,-12.27,-10.65,327.93,327.3,0,0.06,3,0
46527,82963468,-0.46,-0.92,-15.47,-16.25,327.96,327.29,0,0.05,3,0
46620,83063428,-0.54,1.16,-17.29,-15.88,327.98,327.34,0,0.06,3,0
46709,83163388,-0.56,-1.33,-18.13,-19.08,327.98,327.37,0,0.06,3,0
46801,83263348,-0.56,1.19,-18.61,-17.06,327.99,327.41,0,0.06,3,0
46890,83363308,-0.6,-1.08,-19.07,-19.71,327.99,327.45,0,0.06,3,0
46980,83463268,-0.68,1.53,-19.59,-18,328.01,327.5,0,0.06,3,0
47072,83564061,-0.81,-1.07,-20.1,-20.59,328.04,327.54,0,0.06,3,0
47161,83664021,-0.94,1.47,-20.71,-18.73,328.07,327.61,0,0.06,3,0
47250,83763981,-1.06,-1.12,-21.26,-21.94,328.09,327.63,0,0.06,3,0
47339,83863941,-1.12,1.06,-20.67,-19.15,328.1,327.66,0,0.06,3,0
47428,83963901,-1.1,-1.74,-18.81,-20.13,328.08,327.68,0,0.06,3,0
47521,84063861,-0.98,0.69,-16.32,-15.35,328.04,327.64,0,0.06,3,0
47610,84163821,-0.87,-1.91,-13.59,-15,328,327.64,0,0.07,3,0
47702,84263781,-0.74,0.67,-10.72,-9.93,327.96,327.57,0,0.06,3,0
47791,84363741,-0.62,-1.99,-7.77,-8.78,327.94,327.57,0,0.07,3,0
47881,84463701,-0.46,0.8,-4.77,-4.27,327.91,327.49,0,0.05,3,0
47973,84563661,-0.33,-1.67,-2.37,-2.89,327.9,327.48,0,0.06,3,0
48062,84663621,-0.25,1.95,-0.91,0,327.9,327.44,0,0.05,3,0
48152,84763581,-0.36,-1.03,-0.08,-0.3,327.89,327.42,0,0.05,3,0
48241,84863541,-0.46,1.61,0.59,1.45,327.89,327.4,0,0.05,3,0
48330,84963501,-0.46,-1.7,1.21,0.32,327.89,327.38,0,0.05,3,0
48422,85063461,-0.39,1.02,1.83,2.64,327.89,327.35,0,0.05,3,0
48511,85163421,-0.27,-1.71,2.3,1.25,327.89,327.36,0,0.05,3,0
48603,85263381,-0.16,1.21,2.73,3.38,327.89,327.35,0,0.05,3,0
48692,85363341,-0.1,-1.69,3.05,2.05,327.89,327.36,0,0.05,3,0
48782,85463301,-0.02,1.35,3.32,3.83,327.89,327.36,0,0.05,3,0
48875,85563261,0.01,-1.67,3.52,2.7,327.89,327.39,0,0.05,3,0
48964,85664054,0.06,1.45,3.78,4.16,327.9,327.37,0,0.04,3,0
49053,85764014,0.08,-1.45,3.96,2.78,327.9,327.37,0,0.04,3,0
49142,85863974,0.07,1.33,4.11,4.75,327.9,327.36,0,0.04,3,0
49231,85963934,0.11,-1.51,4.12,3.17,327.9,327.37,0,0.04,3,0
49323,86063894,0.17,1.34,4.17,4.71,327.9,327.38,0,0.04,3,0
49412,86163854,0.2,-1.45,4.14,3.28,327.9,327.39,0,0.04,3,0
49504,86263814,0.22,1.47,4.13,4.66,327.9,327.41,0,0.04,3,0
49593,86363774,0.21,-1.53,4.07,3.33,327.9,327.43,0,0.04,3,0
49683,86463734,0.23,1.61,4.09,4.28,327.9,327.44,0,0.04,3,0
49776,86563694,0.24,-1.67,4.01,3.88,327.9,327.47,0,0.03,3,0
49865,86663654,0.32,1.46,3.86,3.72,327.91,327.48,0,0.03,3,0
49955,86763614,0.37,-1.55,3.7,3.31,327.91,327.49,0,0.03,3,0
50044,86863574,0.37,1.77,3.71,3.34,327.91,327.48,0,0.03,3,0
50133,86963534,0.34,-1.55,3.66,3.15,327.91,327.47,0,0.02,3,0
50224,87063494,0.35,1.65,3.58,3.61,327.91,327.46,0,0.02,3,0
50314,87163454,0.34,-1.48,3.42,2.79,327.9,327.45,0,0.02,3,0
50406,87263414,0.32,1.57,3.29,3.37,327.9,327.45,0,0.02,3,0
50496,87363374,0.37,-1.4,2.51,2.27,328.07,327.43,0,0.02,3,0
50585,87463334,0.52,2.25,0.22,0.95,328.66,327.44,0,0.02,3,0
50677,87563294,0.63,-0.52,-3.01,-2.62,329.55,327.54,0,0.02,3,0
50767,87664087,0.65,2.94,-6.43,-5.94,330.51,327.84,0,0.03,3,0
50856,87764047,0.59,-0.35,-9.83,-9.65,331.38,328.4,0,0.03,3,0
50945,87864007,0.54,3.13,-13.14,-12.45,332.1,329.24,0,0.03,3,0
51034,87963967,0.42,-0.32,-16.04,-15.75,332.66,330.27,0,0.03,3,0
51125,88063927,0.32,2.7,-17.54,-17.08,333.07,331.46,0,0.03,3,0
51215,88163887,0.23,-0.93,-18.27,-17.95,333.39,332.66,0,0.03,3,0
51307,88263847,0.16,2.23,-18.74,-18.14,333.64,333.78,0,0.03,3,0
51396,88363807,0.04,-1.27,-19.27,-18.67,333.87,334.72,0,0.03,3,0
51486,88463767,-0.09,1.89,-19.85,-19.35,334.06,335.44,0,0.03,3,0
51578,88563727,-0.28,-1.61,-20.38,-19.58,334.25,335.93,0,0.03,3,0
51668,88663687,-0.37,1.56,-20.92,-20.65,334.4,336.17,0,0.03,3,0
51757,88763647,-0.47,-1.67,-21.38,-19.96,334.55,336.2,0,0.03,3,0
51846,88863607,-0.53,1.1,-20.53,-20.88,334.66,336.04,0,0.02,3,0
51935,88963567,-0.53,-2.06,-18.49,-18.07,334.73,335.7,0,0.02,3,0
52026,89063527,-0.48,1.35,-15.89,-16.4,334.77,335.32,0,0.02,3,0
52116,89163487,-0.44,-1.96,-13.11,-13.05,334.81,334.89,0,0.02,3,0
52208,89263447,-0.36,1.36,-10.26,-10.51,334.83,334.48,0,0.02,3,0
52297,89363407,-0.3,-1.89,-7.33,-7.23,334.84,334.11,0,0.03,3,0
52387,89463367,-0.19,1.45,-4.35,-4.65,334.85,333.81,0,0.02,3,0
52479,89563327,-0.15,-1.57,-2.17,-1.7,334.87,333.6,0,0.03,3,0
52569,89663287,-0.13,1.72,-0.85,-0.84,334.88,333.5,0,0.03,3,0
52658,89764080,-0.17,-1.46,0.01,0.7,334.89,333.48,0,0.03,3,0
52747,89864040,-0.19,1.67,0.7,0.69,334.9,333.52,0,0.02,3,0
52836,89964000,-0.18,-1.79,1.24,1.42,334.91,333.63,0,0.02,3,0
52928,90063960,-0.06,1.46,1.8,1.56,334.92,333.8,0,0.02,3,0
53018,90163920,0,-1.68,2.25,2.3,334.93,334.02,0,0.02,3,0
53110,90263880,0.04,1.49,2.69,2.24,334.94,334.24,0,0.02,3,0
53199,90363840,0.08,-1.79,3.03,3.16,334.95,334.46,0,0.02,3,0
53288,90463800,0.16,1.54,3.31,2.77,334.96,334.65,0,0.01,3,0
53380,90563760,0.19,-1.58,3.52,3.83,334.97,334.81,0,0.01,3,0
53470,90663720,0.28,1.41,3.74,2.61,334.98,334.91,0,0.01,3,0
53559,90763680,0.31,-1.09,3.91,4.46,334.98,334.97,0,0.01,3,0
53648,90863640,0.34,1.49,4.06,2.9,334.99,334.97,0,0.01,3,0
53737,90963600,0.29,-1.12,4.05,5.22,334.99,334.95,0,0.01,3,0
53829,91063560,0.29,1.69,3.99,3.03,335,334.86,0,0.01,3,0
53919,91163520,0.26,-1.26,3.96,4.65,335,334.78,0,0.01,3,0
54011,91263480,0.24,1.64,3.96,3.18,335,334.66,0,0.01,3,0
54100,91363440,0.24,-1.51,3.92,4.5,335.01,334.55,0,0,3,0
54189,91463400,0.28,1.53,3.88,3.16,335.01,334.46,0,0,3,0
54281,91563360,0.27,-1.45,3.76,4.43,335.01,334.38,0,0,3,0
54371,91663320,0.26,1.48,3.71,2.8,335.02,334.33,0,0,3,0
54460,91763280,0.22,-1.38,3.64,4.3,335.02,334.3,0,0,3,0
54550,91864073,0.21,1.48,3.56,2.37,335.02,334.31,0,0,3,0
54639,91964033,0.17,-1.43,3.47,3.96,335.02,334.35,0,0,3,0
54730,92063993,0.14,1.36,3.36,2.31,335.02,334.4,0,0,3,0
54820,92163953,0.12,-1.58,3.24,3.61,335.02,334.46,0,0,3,0
54913,92263913,0.13,1.16,3.13,1.99,335.02,334.53,0,0,3,0
55005,92363873,-0.09,-1.34,1.91,2.85,334.5,334.58,0,0,3,0
55094,92463833,-0.59,1.25,-0.67,-1.07,333.3,334.52,0,0,3,0
55186,92563793,-1.19,-1.94,-3.98,-2.77,331.74,334.19,0,0.01,3,0
55276,92663753,-1.63,-0.3,-7.43,-7.99,330.19,333.53,0,0.01,3,0
55365,92763713,-1.77,-3.08,-10.93,-9.16,328.83,332.36,0,0.02,3,0
55454,92863673,-1.77,-1.1,-14.4,-15.24,327.75,330.92,0,0.02,3,0
55543,92963633,-1.73,-2.75,-16.84,-14.95,326.94,328.97,0,0.03,3,0
55635,93063593,-1.62,-0.46,-18,-19.13,326.33,326.99,0,0.03,3,0
55725,93163553,-1.53,-2.04,-18.52,-16.85,325.84,324.9,0,0.03,3,0
55817,93263513,-1.46,0.97,-18.93,-19.84,325.45,323.1,0,0.03,3,0
55906,93363473,-1.48,-1,-19.33,-17.6,325.13,321.62,0,0.03,3,0
55995,93463433,-1.47,2,-19.85,-20.22,324.86,320.51,0,0.03,3,0
56087,93563393,-1.54,-0.17,-20.44,-18.52,324.64,319.87,0,0.03,3,0
56177,93663353,-1.66,2.19,-21.05,-21.57,324.45,319.56,0,0.03,3,0
56266,93763313,-1.73,-0.35,-21.58,-19.64,324.27,319.73,0,0.03,3,0
56355,93863273,-1.71,1.48,-21.13,-22.19,324.08,320.17,0,0.03,3,0
56444,93964066,-1.59,-1.31,-19.34,-18.32,323.9,320.8,0,0.03,3,0
56536,94064026,-1.36,0.75,-16.87,-18.52,323.72,321.56,0,0.04,3,0
56626,94163986,-1.1,-2.01,-14.15,-13.3,323.57,322.26,0,0.03,3,0
56718,94263946,-0.84,0.48,-11.38,-12.62,323.45,322.99,0,0.04,3,0
56807,94363906,-0.61,-1.92,-8.49,-7.44,323.36,323.5,0,0.04,3,0
56896,94463866,-0.38,0.63,-5.51,-6.8,323.29,323.94,0,0.05,3,0
56988,94563826,-0.21,-1.37,-2.9,-1.55,323.25,324.17,0,0.04,3,0
57078,94663786,-0.09,1.19,-1.3,-2.22,323.22,324.28,0,0.05,3,0
57168,94763746,-0.07,-0.5,-0.34,1.4,323.19,324.25,0,0.04,3,0
57257,94863706,-0.08,0.93,0.37,-0.81,323.17,324.05,0,0.04,3,0
57346,94963666,-0.08,-0.58,1.04,2.42,323.16,323.76,0,0.04,3,0
57437,95063626,0,0.39,1.68,-0.35,323.14,323.41,0,0.04,3,0
57527,95163586,0.05,-0.73,2.29,3.38,323.13,323.03,0,0.05,3,0
57619,95263546,0.17,0.67,2.8,0.97,323.12,322.67,0,0.05,3,0
57709,95363506,0.23,-0.85,3.16,4.35,323.11,322.35,0,0.05,3,0
57798,95463466,0.3,0.94,3.47,1.72,323.1,322.09,0,0.04,3,0
57890,95563426,0.3,-0.9,3.71,4.76,323.09,321.92,0,0.04,3,0
57980,95663386,0.35,0.86,3.94,2.21,323.08,321.83,0,0.04,3,0
58069,95763346,0.35,-0.73,4.06,5.34,323.07,321.82,0,0.04,3,0
58158,95863306,0.38,0.92,4.15,2.48,323.07,321.86,0,0.04,3,0
58247,95963266,0.36,-0.44,4.2,5.6,323.06,321.99,0,0.04,3,0
58338,96064059,0.34,0.58,4.27,2.76,323.05,322.14,0,0.04,3,0
58428,96164019,0.37,-0.83,4.24,5.66,323.05,322.32,0,0.05,3,0
58520,96263979,0.41,1.06,4.24,2.69,323.04,322.48,0,0.05,3,0
58610,96363939,0.34,-0.56,4.19,5.44,323.03,322.66,0,0.05,3,0
58699,96463899,0.3,0.87,4.15,2.52,323.03,322.78,0,0.05,3,0
58791,96563859,0.27,-0.64,4.08,5.3,323.02,322.88,0,0.05,3,0
58880,96663819,0.25,0.71,4.02,2.38,323.01,322.93,0,0.05,3,0
58970,96763779,0.23,-0.48,3.92,5.23,323.01,322.94,0,0.05,3,0
59059,96863739,0.23,0.57,3.86,1.99,323.01,322.92,0,0.05,3,0
59149,96963699,0.16,0,3.76,5.15,323,322.86,0,0.05,3,0
59240,97063659,0.13,-0.07,3.63,1.95,322.99,322.79,0,0.05,3,0
59329,97163619,0.13,-0.29,3.51,5.11,322.99,322.66,0,0.05,3,0
59423,97263579,0.22,0.03,3.11,1.61,323.03,322.55,0,0.05,3,0
59512,97363539,0.33,0.32,1.24,3.46,323.31,322.47,0,0.05,3,0
59601,97463499,0.39,1.15,-1.76,-2.58,323.83,322.37,0,0.05,3,0
59693,97563459,0.36,0.51,-5.17,-2.96,324.46,322.5,0,0.06,3,0
59782,97663419,0.34,1.17,-8.57,-9.52,325.07,322.68,0,0.05,3,0
59872,97763379,0.28,0.68,-12.02,-9.8,325.61,323.21,0,0.06,3,0
59961,97863339,0.22,1.28,-15.35,-16.32,326.04,323.75,0,0.05,3,0
60050,97963299,0.14,0.57,-17.38,-15.34,326.38,324.6,0,0.06,3,0
60141,98064092,0.1,0.69,-18.3,-19.66,326.62,325.42,0,0.05,3,0
60230,98164052,0.01,0.54,-18.75,-16.48,326.83,326.3,0,0.05,3,0
60323,98264012,-0.1,0.9,-19.24,-20.3,327.01,327,0,0.06,3,0
60413,98363972,-0.28,0.23,-19.73,-17.29,327.18,327.68,0,0.06,3,0
60502,98463932,-0.48,0.63,-20.28,-21.38,327.34,328.15,0,0.06,3,0
60594,98563892,-0.69,-0.05,-20.81,-18.37,327.48,328.52,0,0.06,3,0
60683,98663852,-0.81,0,-21.34,-22.39,327.61,328.71,0,0.06,3,0
60773,98763812,-0.88,-0.47,-20.65,-18.63,327.7,328.73,0,0.06,3,0
60862,98863772,-0.89,-0.68,-18.76,-20.47,327.75,328.66,0,0.06,3,0
60951,98963732,-0.85,-0.62,-16.2,-14.91,327.77,328.37,0,0.06,3,0
61043,99063692,-0.69,-0.92,-13.46,-15.36,327.77,328.14,0,0.07,3,0
61132,99163652,-0.56,0.13,-10.57,-9.17,327.77,327.78,0,0.06,3,0
61225,99263612,-0.44,-0.84,-7.71,-9.3,327.77,327.5,0,0.07,3,0
61314,99363572,-0.37,0,-4.69,-3.27,327.78,327.16,0,0.06,3,0
61403,99463532,-0.3,-0.51,-2.37,-3.87,327.78,326.95,0,0.07,3,0
61495,99563492,-0.27,0.24,-0.98,1,327.79,326.78,0,0.06,3,0
61584,99663452,-0.24,0,-0.1,-1.36,327.8,326.7,0,0.07,3,0
61675,99763412,-0.29,0.16,0.62,2.36,327.8,326.69,0,0.06,3,0
61764,99863372,-0.25,-0.45,1.25,-0.37,327.81,326.73,0,0.06,3,0
61853,99963332,-0.2,0.02,1.83,3.27,327.82,326.79,0,0.06,3,0
61944,100063292,-0.12,-0.57,2.33,0.51,327.83,326.92,0,0.06,3,0
62033,100164085,-0.03,0.34,2.76,3.91,327.83,327.07,0,0.06,3,0
62126,100264045,0.04,-0.35,3.16,1,327.84,327.23,0,0.06,3,0
62216,100364005,0.07,0,3.48,4.72,327.85,327.37,0,0.06,3,0
62305,100463965,0.15,-0.34,3.69,1.68,327.86,327.52,0,0.06,3,0
62397,100563925,0.25,0.19,3.85,5.05,327.86,327.62,0,0.06,3,0
62486,100663885,0.33,-0.2,4.02,2.03,327.87,327.69,0,0.06,3,0
62576,100763845,0.34,0.39,4.12,5.44,327.88,327.74,0,0.06,3,0
62665,100863805,0.36,-0.33,4.14,2.28,327.88,327.74,0,0.06,3,0
62754,100963765,0.41,0.62,4.19,5.62,327.89,327.74,0,0.06,3,0
62845,101063725,0.45,-0.66,4.12,2.7,327.89,327.69,0,0.06,3,0
62934,101163685,0.47,1.04,4.05,5.2,327.89,327.64,0,0.06,3,0
63027,101263645,0.49,-0.74,4.02,2.58,327.9,327.57,0,0.06,3,0
63117,101363605,0.47,1.33,4.02,5.15,327.9,327.51,0,0.06,3,0
63206,101463565,0.44,-0.82,4,2.36,327.9,327.44,0,0.06,3,0
63298,101563525,0.41,0.89,3.92,5.16,327.9,327.39,0,0.06,3,0
63387,101663485,0.42,-0.46,3.79,2.09,327.9,327.34,0,0.06,3,0
63477,101763445,0.35,0.92,3.67,4.93,327.9,327.32,0,0.06,3,0
63566,101863405,0.28,-0.48,3.55,1.81,327.9,327.3,0,0.06,3,0
63655,101963365,0.23,0.78,3.41,4.76,327.9,327.31,0,0.06,3,0
63747,102063325,0.22,-0.73,3.25,1.66,327.9,327.32,0,0.06,3,0
63836,102163285,0.2,0.76,3.09,4.38,327.9,327.34,0,0.06,3,0
63930,102264078,0.2,-0.94,2.16,0.8,327.95,327.35,0,0.06,3,0
64020,102364038,0.21,1.27,-0.2,1.71,328.12,327.36,0,0.06,3,0
64109,102463998,0.19,-0.23,-3.38,-4.47,328.35,327.31,0,0.06,3,0
64201,102563958,0.1,1.34,-6.7,-4.97,328.61,327.43,0,0.06,3,0
64290,102663918,0,-0.39,-10.01,-11.25,328.85,327.53,0,0.06,3,0
64380,102763878,-0.05,1.35,-13.32,-11.65,329.04,327.81,0,0.07,3,0
64469,102863838,-0.09,-0.34,-16.07,-17.42,329.19,328.05,0,0.06,3,0
64558,102963798,-0.18,1.3,-17.42,-16.09,329.31,328.43,0,0.06,3,0
64649,103063758,-0.25,-0.66,-18.04,-19.39,329.4,328.76,0,0.06,3,0
64738,103163718,-0.36,1.55,-18.44,-17.01,329.48,329.13,0,0.06,3,0
64831,103263678,-0.49,-1.16,-18.99,-19.74,329.56,329.42,0,0.06,3,0
64921,103363638,-0.56,1.59,-19.5,-18.42,329.62,329.67,0,0.06,3,0
65010,103463598,-0.66,-1.3,-20.11,-20.79,329.68,329.81,0,0.06,3,0
65102,103563558,-0.74,1.36,-20.71,-19.03,329.73,329.88,0,0.06,3,0
65191,103663518,-0.82,-1.28,-21.38,-21.94,329.78,329.88,0,0.06,3,0
65281,103763478,-0.83,1.15,-21.18,-19.61,329.81,329.82,0,0.06,3,0
65370,103863438,-0.78,-1.35,-19.59,-20.95,329.81,329.73,0,0.06,3,0
65459,103963398,-0.74,0.81,-17.21,-16.31,329.81,329.58,0,0.06,3,0
65551,104063358,-0.66,-1.51,-14.57,-16.02,329.79,329.48,0,0.07,3,0
65640,104163318,-0.54,0.76,-11.76,-10.88,329.78,329.31,0,0.06,3,0
65733,104263278,-0.4,-1.49,-8.87,-10.05,329.76,329.23,0,0.07,3,0
65822,104364071,-0.27,0.85,-5.87,-4.66,329.75,329.12,0,0.06,3,0
65911,104464031,-0.16,-1.31,-3.21,-4.15,329.74,329.08,0,0.07,3,0
66003,104563991,-0.13,1.25,-1.48,0.11,329.75,329.06,0,0.06,3,0
66092,104663951,-0.15,-0.84,-0.42,-1.29,329.75,329.06,0,0.06,3,0
66183,104763911,-0.21,1.28,0.37,1.72,329.75,329.1,0,0.06,3,0
66272,104863871,-0.23,-1.3,1.01,-0.1,329.75,329.13,0,0.06,3,0
66361,104963831,-0.19,1.07,1.62,2.64,329.75,329.17,0,0.06,3,0
66452,105063791,-0.1,-1.43,2.16,0.94,329.76,329.22,0,0.06,3,0
66541,105163751,0,1.35,2.6,3.15,329.76,329.29,0,0.06,3,0
66633,105263711,0.05,-1.31,2.96,2.05,329.76,329.33,0,0.05,3,0
66724,105363671,0.07,1.5,3.25,3.67,329.77,329.38,0,0.05,3,0
66813,105463631,0.08,-1.72,3.47,2.87,329.77,329.4,0,0.05,3,0
66905,105563591,0.12,1.52,3.66,3.91,329.77,329.42,0,0.04,3,0
66994,105663551,0.15,-1.53,3.82,2.94,329.77,329.43,0,0.04,3,0
67084,105763511,0.17,1.42,3.95,4.53,329.78,329.42,0,0.04,3,0
67173,105863471,0.22,-1.57,4,2.93,329.78,329.42,0,0.04,3,0
67262,105963431,0.29,1.42,4.05,4.73,329.78,329.41,0,0.04,3,0
67353,106063391,0.38,-1.38,4.06,3.1,329.79,329.4,0,0.04,3,0
67442,106163351,0.4,1.66,4.08,4.67,329.79,329.38,0,0.04,3,0
67534,106263311,0.37,-1.32,4.07,3.13,329.79,329.36,0,0.04,3,0
67625,106363271,0.35,1.77,4.04,4.41,329.79,329.34,0,0.04,3,0
67716,106464064,0.29,-0.8,3.98,3.34,329.79,329.31,0,0.04,3,0
67808,106564024,0.08,2.01,3.85,4.49,329.78,329.3,0,0.04,3,0
67897,106663984,-0.04,-1.22,3.74,2.59,329.78,329.27,0.02,0.04,3,0
67987,106763944,-0.09,1.39,3.68,4.1,329.78,329.25,0.02,0.04,3,0
68076,106863904,-0.11,-1.61,3.52,2.54,329.78,329.25,0.03,0.04,3,0
68165,106963864,-0.05,1.18,3.36,3.91,329.78,329.25,0.03,0.04,3,0
68256,107063824,0,-1.61,3.13,2.34,329.78,329.26,0.04,0.04,3,0
68347,107163784,0,1.32,2.9,3.36,329.78,329.26,0.04,0.04,3,0
68439,107263744,-0.03,-1.54,1.57,1.43,329.7,329.28,0.04,0.03,3,0
68529,107363704,-0.14,1.81,-1.05,-0.36,329.53,329.28,0.04,0.04,3,1
68618,107463664,-0.38,-1.27,-4.37,-3.75,329.3,329.22,0.03,0.04,3,1
68710,107563624,-0.56,1.51,-7.8,-7.31,329.08,329.12,0.03,0.05,3,1
68799,107663584,-0.63,-2.03,-11.26,-10.62,328.88,328.94,0.05,0.05,3,1
68888,107763544,-0.62,1.46,-14.61,-13.68,328.72,328.71,0.05,0.06,3,1
68978,107863504,-0.68,-1.9,-17.15,-16.74,328.6,328.43,0.08,0.05,3,1
69067,107963464,-0.68,1.22,-18.28,-17.47,328.51,328.12,0.08,0.06,3,1
69158,108063424,-0.65,-1.91,-18.74,-18.55,328.43,327.83,0.11,0.05,3,1
69247,108163384,-0.63,1.63,-18.98,-18.06,328.36,327.55,0.11,0.04,3,1
69338,108263344,-0.69,-1.45,-19.29,-18.87,328.32,327.34,0.14,0.06,3,1
69430,108363304,-0.8,1.93,-19.62,-18.75,328.29,327.19,0.14,0.06,3,1
69519,108463264,-0.91,-1.47,-20,-19.47,328.27,327.11,0.14,0.08,3,1
69611,108564057,-0.98,1.86,-20.3,-19.98,328.25,327.09,0.14,0.09,3,1
69700,108664017,-1.03,-1.79,-19.89,-20.16,328.22,327.13,0.14,0.11,3,1
69789,108763977,-1,1.44,-18.11,-18.13,328.17,327.2,0.14,0.13,3,1
69879,108863937,-0.94,-2.17,-15.57,-16.31,328.12,327.28,0.13,0.16,3,1
69968,108963897,-0.81,1.09,-12.73,-12.98,328.07,327.36,0.13,0.18,3,1
70060,109063857,-0.69,-2.14,-9.91,-10.35,328.02,327.45,0.11,0.21,3,1
70149,109163817,-0.6,1.09,-7.01,-7.17,327.99,327.52,0.11,0.23,3,1
70240,109263777,-0.5,-2,-4.04,-4.19,327.96,327.6,0.12,0.25,3,1
70331,109363737,-0.43,1.09,-1.39,-1.47,327.95,327.66,0.12,0.26,3,1
70420,109463697,-0.34,-1.74,0.12,0.65,327.94,327.7,0.14,0.26,3,1
70512,109563657,-0.3,1.57,1,0.6,327.93,327.71,0.14,0.25,3,1
70602,109663617,-0.36,-1.6,1.51,2.17,327.92,327.7,0.16,0.23,3,1
70691,109763577,-0.37,1.21,1.92,1.45,327.92,327.68,0.16,0.21,3,1
70781,109863537,-0.29,-2,2.18,2.46,327.92,327.63,0.17,0.19,3,1
70870,109963497,-0.17,1.39,2.42,2,327.92,327.58,0.17,0.16,3,1
70961,110063457,-0.1,-1.68,2.54,2.53,327.91,327.51,0.18,0.13,3,1
71050,110163417,-0.09,1.52,2.68,2.18,327.91,327.45,0.18,0.11,3,1
71141,110263377,-0.07,-1.75,2.72,2.8,327.91,327.4,0.17,0.09,3,1
71232,110363337,-0.03,1.43,2.8,2.34,327.91,327.35,0.17,0.08,3,1
71321,110463297,0,-1.76,2.82,3.02,327.91,327.32,0.16,0.07,3,1
71413,110564090,0.07,1.18,2.84,2.16,327.91,327.3,0.16,0.07,3,1
71503,110664050,0.23,-2.15,2.8,2.95,327.91,327.28,0.15,0.07,3,1
71592,110764010,0.38,1.43,2.78,2.53,327.91,327.29,0.15,0.07,3,1
71682,110863970,0.48,-1.58,2.67,2.71,327.91,327.3,0.13,0.07,3,1
71771,110963930,0.51,1.76,2.68,2.38,327.91,327.32,0.13,0.08,3,1
71862,111063890,0.53,-1.33,2.62,2.8,327.91,327.36,0.12,0.08,3,1
71951,111163850,0.46,1.89,2.64,2.15,327.91,327.39,0.12,0.09,3,1
72042,111263810,0.4,-1.44,2.57,2.8,327.91,327.42,0.1,0.09,3,1
72133,111363770,0.38,1.78,2.63,1.99,327.91,327.45,0.1,0.09,3,1
72222,111463730,0.35,-1.17,2.57,3.29,327.91,327.48,0.09,0.09,3,1
72314,111563690,0.32,1.42,2.55,1.62,327.9,327.49,0.09,0.1,3,1
72403,111663650,0.32,-1.1,2.49,3.31,327.9,327.51,0.09,0.1,3,1
72492,111763610,0.28,1.53,2.52,1.42,327.9,327.48,0.07,0.1,3,1
72582,111863570,0.21,-1.27,2.44,3.47,327.9,327.44,0.07,0.1,3,1
72671,111963530,0.17,1.49,2.4,1.52,327.9,327.39,0.06,0.1,3,1
72762,112063490,0.17,-1.42,2.27,2.91,327.9,327.36,0.06,0.1,3,1
72852,112163450,0.11,1.59,2.04,1.37,327.85,327.32,0.05,0.1,3,1
72944,112263410,-0.07,-1.3,0.27,1.33,327.53,327.29,0.05,0.1,3,1
73037,112363370,-0.37,1.67,-2.52,-2.82,326.97,327.19,0.04,0.11,3,1
73126,112463330,-0.68,-1.62,-5.82,-4.67,326.33,327,0.04,0.11,3,1
73218,112563290,-0.91,0.84,-9.07,-9.55,325.73,326.65,0.05,0.11,3,1
73307,112664083,-1,-2.1,-12.41,-10.68,325.23,326.15,0.05,0.12,3,1
73396,112764043,-1.09,0.95,-15.49,-15.46,324.86,325.52,0.08,0.11,3,1
73486,112864003,-1.15,-2.06,-17.37,-16.02,324.58,324.78,0.08,0.11,3,1
73575,112963963,-1.25,0.8,-17.98,-18.38,324.38,324.03,0.11,0.1,3,1
73666,113063923,-1.21,-1.87,-18.2,-16.98,324.19,323.29,0.11,0.08,3,1
73755,113163883,-1.26,1.2,-18.3,-18.74,324.06,322.67,0.14,0.07,3,1
73846,113263843,-1.24,-1.34,-18.57,-17.15,323.93,322.17,0.14,0.06,3,1
73937,113363803,-1.32,1.58,-18.82,-19.2,323.85,321.83,0.15,0.07,3,1
74026,113463763,-1.43,-1.2,-19.23,-17.73,323.77,321.69,0.15,0.07,3,1
74118,113563723,-1.54,1.32,-19.58,-20.31,323.71,321.67,0.16,0.08,3,1
74206,113663683,-1.64,-1.22,-19.83,-18,323.65,321.79,0.16,0.09,3,1
74294,113763643,-1.65,0.16,-18.62,-20.01,323.57,322.02,0.15,0.11,3,1
74383,113863603,-1.49,-1.8,-16.45,-15.27,323.47,322.22,0.15,0.12,3,1
74471,113963563,-1.33,0.32,-13.67,-15.28,323.37,322.54,0.14,0.16,3,1
74561,114063523,-1.2,-2.02,-10.88,-9.9,323.29,322.74,0.14,0.17,3,1
74649,114163483,-0.99,0.35,-7.97,-9.17,323.22,322.99,0.12,0.2,3,1
74738,114263443,-0.82,-2.02,-5.17,-4.12,323.17,323.1,0.12,0.2,3,1
74828,114363403,-0.67,0.51,-2.29,-3.46,323.13,323.22,0.12,0.22,3,1
74916,114463363,-0.49,-1.47,-0.38,0.95,323.11,323.23,0.12,0.22,3,1
75007,114563323,-0.33,1.1,0.73,-0.1,323.1,323.23,0.14,0.23,3,1
75095,114663283,-0.32,-0.98,1.32,2.68,323.09,323.17,0.14,0.2,3,1
75183,114764076,-0.24,1.33,1.74,0.56,323.08,323.05,0.16,0.2,3,1
75272,114864036,-0.3,-1.1,2.01,3.1,323.07,322.91,0.16,0.16,3,1
75360,114963996,-0.22,1.14,2.3,0.9,323.06,322.75,0.17,0.15,3,1
75450,115063956,-0.26,-1.52,2.48,3.32,323.06,322.58,0.17,0.12,3,1
75538,115163916,-0.11,0.86,2.64,1.23,323.05,322.46,0.17,0.1,3,1
75627,115263876,-0.06,-1.42,2.6,3.69,323.05,322.34,0.17,0.09,3,1
75717,115363836,0.07,0.94,2.68,1.25,323.05,322.27,0.16,0.08,3,1
75805,115463796,0.08,-1.22,2.63,3.77,323.05,322.23,0.16,0.08,3,1
75896,115563756,0.21,0.77,2.6,1.09,323.05,322.23,0.15,0.07,3,1
75984,115663716,0.2,-0.64,2.54,3.7,323.04,322.27,0.15,0.08,3,1
76072,115763676,0.28,0.75,2.59,1.02,323.04,322.31,0.13,0.07,3,1
76161,115863636,0.2,-0.35,2.5,4.05,323.04,322.41,0.13,0.09,3,1
76249,115963596,0.35,0.48,2.44,0.64,323.04,322.45,0.12,0.08,3,1
76339,116063556,0.31,-0.55,2.47,3.65,323.03,322.49,0.12,0.09,3,1
76427,116163516,0.44,0.94,2.52,0.74,323.03,322.52,0.1,0.09,3,1
76516,116263476,0.33,-0.72,2.52,3.81,323.03,322.55,0.1,0.1,3,1
76606,116363436,0.43,1.06,2.46,0.89,323.03,322.56,0.09,0.09,3,1
76694,116463396,0.31,-0.57,2.42,3.75,323.02,322.59,0.09,0.1,3,1
76785,116563356,0.38,1.01,2.4,0.76,323.02,322.58,0.07,0.1,3,1
76873,116663316,0.32,-0.51,2.32,3.67,323.02,322.6,0.07,0.11,3,1
76961,116763276,0.43,0.83,2.32,0.61,323.02,322.58,0.06,0.1,3,1
77050,116864069,0.29,-0.55,2.28,3.3,323.02,322.57,0.06,0.11,3,1
77138,116964029,0.38,0.71,2.38,0.44,323.02,322.54,0.05,0.1,3,1
77228,117063989,0.33,-0.83,2.43,3.42,323.01,322.52,0.05,0.11,3,1
77317,117163949,0.6,1.15,1.79,0.46,323.25,322.48,0.04,0.1,3,1
77406,117263909,0.82,0.41,-0.46,1.55,324.06,322.55,0.04,0.1,3,1
77497,117363869,1.12,2.38,-3.54,-4.32,325.26,322.59,0.04,0.1,3,1
77585,117463829,1.07,1.3,-6.91,-4.8,326.6,323.11,0.04,0.11,3,1
77676,117563789,1.14,2.76,-10.18,-11.04,327.83,323.77,0.05,0.1,3,1
77764,117663749,0.87,1.81,-13.44,-11.21,328.88,325.08,0.05,0.11,3,1
77852,117763709,0.81,1.79,-16.15,-17.31,329.7,326.43,0.09,0.1,3,1
77941,117863669,0.58,1.32,-17.42,-15.62,330.34,328.25,0.09,0.11,3,1
78029,117963629,0.6,0.71,-17.76,-19.3,330.8,329.92,0.12,0.09,3,1
78119,118063589,0.33,0.82,-17.83,-15.73,331.23,331.56,0.12,0.08,3,1
78207,118163549,0.23,0.65,-17.95,-19.32,331.56,332.88,0.15,0.08,3,1
78296,118263509,-0.22,-0.08,-18.03,-15.98,331.91,333.97,0.15,0.07,3,1
78386,118363469,-0.32,-0.11,-18.19,-19.47,332.17,334.72,0.16,0.08,3,1
78474,118463429,-0.51,-1,-18.32,-16.22,332.42,335.1,0.16,0.06,3,1
78565,118563389,-0.46,-0.67,-17.35,-18.91,332.59,335.21,0.15,0.08,3,1
78653,118663349,-0.64,-1.13,-15.23,-13.79,332.75,334.91,0.15,0.08,3,1
78741,118763309,-0.66,-0.76,-12.35,-14.39,332.84,334.54,0.14,0.11,3,1
78830,118863269,-0.79,-0.92,-9.45,-8.05,332.93,333.91,0.14,0.11,3,1
78918,118964062,-0.63,-0.85,-6.52,-8.01,332.97,333.34,0.12,0.14,3,1
79008,119064022,-0.66,-0.92,-3.75,-1.96,333.01,332.65,0.12,0.13,3,1
79096,119163982,-0.42,-0.27,-0.98,-2.56,333.03,332.17,0.13,0.16,3,1
79185,119263942,-0.46,-0.45,0.91,2.65,333.05,331.72,0.13,0.15,3,1
79274,119363902,-0.31,0,1.89,0.55,333.08,331.46,0.14,0.16,3,1
79363,119463862,-0.37,-0.18,2.23,4.02,333.1,331.32,0.14,0.14,3,1
79454,119563822,-0.17,-0.11,2.43,0.87,333.12,331.35,0.16,0.14,3,1
79542,119663782,-0.18,-0.07,2.5,3.92,333.14,331.49,0.16,0.11,3,1
79630,119763742,0.05,-0.21,2.57,0.96,333.16,331.72,0.16,0.11,3,1
79718,119863702,0.01,0.35,2.52,4.03,333.18,332.03,0.16,0.09,3,1
79807,119963662,0.27,-0.64,2.43,0.79,333.2,332.34,0.15,0.09,3,1
79897,120063622,0.25,0.86,2.36,3.63,333.21,332.67,0.15,0.08,3,1
79985,120163582,0.48,-0.16,2.21,0.41,333.23,332.94,0.14,0.07,3,1
80074,120263542,0.28,0.83,2.24,3.44,333.23,333.18,0.14,0.08,3,1
80163,120363502,0.47,0.16,2.07,0.29,333.25,333.31,0.13,0.06,3,1
80252,120463462,0.29,0.62,2.03,3.46,333.25,333.43,0.13,0.07,3,1
80343,120563422,0.47,-0.01,1.88,0.21,333.26,333.44,0.13,0.06,3,1
80431,120663382,0.3,0.6,1.85,3.25,333.27,333.42,0.12,0.07,3,1
80519,120763342,0.49,-0.07,1.79,0.17,333.28,333.32,0.12,0.06,3,1
80607,120863302,0.34,0.65,1.82,3.16,333.28,333.21,0.1,0.07,3,1
80696,120963262,0.59,-0.21,1.76,0.26,333.29,333.06,0.1,0.06,3,1
80786,121064055,0.37,1.06,1.79,3.33,333.3,332.93,0.09,0.07,3,1
80874,121164015,0.5,0,1.71,0.11,333.3,332.77,0.09,0.06,3,1
80963,121263975,0.29,0.49,1.79,3.26,333.31,332.68,0.07,0.07,3,1
81052,121363935,0.53,-0.04,1.71,0,333.31,332.58,0.07,0.06,3,1
81141,121463895,0.31,0.7,1.79,3.21,333.32,332.55,0.06,0.07,3,1
81234,121563855,1.53,1.14,-1.46,-1.29,333.37,332.42,0.06,0.06,3,1
81322,121663815,1.6,3.71,-10.69,-7.27,333.21,332.14,0.05,0.07,3,1
81410,121763775,0.68,0.75,-11.91,-14.51,333.27,331.92,0.05,0.07,3,1
81498,121863735,0.4,0.19,-10.9,-10.22,333.3,332.2,0.07,0.09,3,1
81587,121963695,0.59,-0.81,-10.03,-11.72,333.28,332.49,0.07,0.08,3,1
81678,122063655,0.71,1.38,-9.58,-8.2,333.27,332.79,0.1,0.08,3,1
81766,122163615,0.56,0.25,-10.46,-11.44,333.11,332.94,0.1,0.07,3,1
81855,122263575,0.2,1.93,-12.59,-10.16,332.75,333.07,0.1,0.07,3,1
81945,122363535,-0.13,0.05,-15.32,-15.99,332.3,332.93,0.1,0.07,3,1
82035,122463495,-0.36,1.06,-18.29,-15.58,331.85,332.78,0.11,0.07,3,1
82126,122563455,-0.46,-0.24,-21.44,-22.06,331.47,332.38,0.11,0.07,3,1
82214,122663415,-0.53,0.84,-24.6,-21.9,331.17,331.92,0.14,0.07,3,1
82302,122763375,-0.56,-0.35,-26.93,-27.71,330.95,331.28,0.14,0.07,3,1
82390,122863335,-0.58,1.08,-28.27,-25.65,330.79,330.66,0.16,0.06,3,1
82479,122963295,-0.6,0.19,-29.07,-29.85,330.67,329.97,0.16,0.09,3,1
82569,123064088,-0.69,1.94,-29.5,-27.01,330.6,329.47,0.19,0.08,3,1
82657,123164048,-0.82,0.65,-29.72,-30.8,330.55,328.9,0.19,0.12,3,1
82746,123264008,-0.97,1.96,-29.84,-27.24,330.53,328.66,0.2,0.13,3,1
82837,123363968,-1.08,1,-29.89,-30.85,330.5,328.36,0.2,0.18,3,1
82926,123463928,-1.2,1.92,-29.92,-27.36,330.49,328.43,0.19,0.19,3,1
83017,123563888,-1.27,0.77,-29.93,-30.98,330.47,328.44,0.19,0.25,3,1
83105,123663848,-1.4,1.73,-29.94,-27.53,330.48,328.73,0.17,0.26,3,1
83193,123763808,-1.44,0.31,-29.94,-31.06,330.46,328.94,0.17,0.31,3,1
83281,123863768,-1.51,1.59,-29.95,-27.61,330.45,329.32,0.14,0.31,3,1
83370,123963728,-1.56,-0.34,-29.95,-30.82,330.44,329.62,0.14,0.35,3,1
83460,124063688,-1.61,1.25,-29.94,-27.95,330.43,329.95,0.12,0.35,3,1
83548,124163648,-1.58,-0.98,-29.94,-30.82,330.4,330.21,0.12,0.38,3,1
83637,124263608,-1.59,1.34,-29.93,-27.96,330.39,330.4,0.1,0.37,3,1
83726,124363568,-1.6,-0.93,-29.92,-31.14,330.38,330.48,0.1,0.39,3,1
83815,124463528,-1.66,1.02,-29.91,-27.93,330.38,330.5,0.09,0.37,3,1
83906,124563488,-1.72,-0.56,-29.87,-31.29,330.38,330.43,0.09,0.39,3,1
83994,124663448,-1.83,0.87,-29.82,-27.82,330.4,330.35,0.09,0.37,3,1
84082,124763408,-1.86,-0.49,-29.76,-31.2,330.39,330.22,0.09,0.38,3,1
84170,124863368,-1.95,0.79,-29.73,-27.73,330.4,330.09,0.08,0.35,3,1
84259,124963328,-1.97,-0.68,-29.69,-31.17,330.4,329.93,0.08,0.36,3,1
84349,125063288,-2.01,0.83,-29.67,-27.79,330.39,329.78,0.09,0.33,3,1
84437,125164081,-1.99,-1.04,-29.63,-31.22,330.38,329.65,0.09,0.33,3,1
84526,125264041,-1.96,0.62,-29.52,-27.78,330.36,329.51,0.09,0.3,3,1
84615,125364001,-1.88,-0.5,-29.51,-31.2,330.33,329.41,0.09,0.3,3,1
84704,125463961,-1.94,0.99,-29.65,-27.72,330.34,329.36,0.09,0.27,3,1
84795,125563921,-2.03,-0.38,-29.73,-31.3,330.36,329.32,0.09,0.27,3,1
84883,125663881,-2.12,0.94,-29.75,-27.94,330.38,329.34,0.09,0.23,3,1
84971,125763841,-2.13,-0.51,-29.81,-31.49,330.38,329.35,0.09,0.23,3,1
85059,125863801,-2.16,0.92,-29.86,-28.09,330.38,329.41,0.09,0.19,3,1
85148,125963761,-2.15,-0.79,-29.89,-31.36,330.38,329.48,0.09,0.19,3,1
85238,126063721,-2.13,0.86,-29.91,-28.41,330.37,329.54,0.09,0.15,3,1
85326,126163681,-2.03,-1.06,-29.92,-31.35,330.34,329.6,0.09,0.16,3,1
85415,126263641,-2.01,1.34,-29.93,-28.51,330.33,329.65,0.09,0.13,3,1
85504,126363601,-1.95,-1.29,-29.93,-30.89,330.31,329.66,0.09,0.12,3,1
85593,126463561,-1.93,1.04,-29.94,-27.91,330.31,329.64,0.08,0.11,3,1
85683,126563521,-1.88,-0.95,-29.94,-31.17,330.29,329.6,0.08,0.11,3,1
85772,126663481,-1.89,0.89,-29.94,-28,330.29,329.53,0.08,0.1,3,1
85860,126763441,-1.88,-0.58,-29.94,-31.52,330.29,329.44,0.08,0.1,3,1
85948,126863401,-1.93,1.01,-29.94,-28.1,330.3,329.36,0.08,0.09,3,1
86037,126963361,-1.95,-0.49,-29.94,-31.59,330.31,329.26,0.08,0.09,3,1
86128,127063321,-2.01,1.06,-29.93,-28.19,330.32,329.22,0.07,0.09,3,1
86216,127163281,-2,-0.65,-29.93,-31.47,330.28,329.16,0.07,0.08,3,1
86305,127264074,-2.03,1.06,-29.93,-27.86,330.24,329.11,0.07,0.09,3,1
86394,127364034,-1.99,-0.39,-29.93,-31,330.18,329.03,0.07,0.08,3,1
86484,127463994,-1.99,1.08,-29.93,-27.67,330.13,329,0.06,0.09,3,1
86574,127563954,-1.99,-0.2,-29.93,-31.36,330.07,328.92,0.06,0.08,3,1
86663,127663914,-2.04,1.22,-29.93,-28.01,330.05,328.91,0.06,0.09,3,1
86751,127763874,-2.1,-0.23,-29.93,-31.56,330.05,328.84,0.06,0.08,3,1
86839,127863834,-2.18,1.17,-29.92,-28.02,330.06,328.86,0.05,0.1,3,1
86928,127963794,-2.23,-0.39,-29.92,-31.52,330.07,328.84,0.05,0.08,3,1
87018,128063754,-2.31,1.2,-29.91,-28.27,330.09,328.91,0.04,0.1,3,1
87106,128163714,-2.36,-0.75,-29.91,-31.35,330.1,328.94,0.04,0.08,3,1
87195,128263674,-2.43,1.23,-29.9,-28.33,330.12,329.01,0.04,0.1,3,1
87284,128363634,-2.46,-1.4,-29.9,-31.25,330.13,329.08,0.04,0.09,3,1
87373,128463594,-2.51,1.43,-29.9,-28.51,330.14,329.14,0.03,0.11,3,1
87463,128563554,-2.57,-1.01,-29.89,-31.76,330.16,329.17,0.03,0.09,3,1
87554,128663514,-2.68,1.1,-29.89,-28.37,330.18,329.19,0.02,0.11,3,1
87642,128763474,-2.75,-0.78,-29.88,-31.83,330.2,329.21,0.02,0.09,3,1
87730,128863434,-2.83,0.75,-29.87,-28.11,330.22,329.25,0.02,0.11,3,1
87819,128963394,-2.88,-0.94,-29.87,-31.79,330.24,329.28,0.02,0.09,3,1
87909,129063354,-2.93,0.57,-29.86,-28.15,330.25,329.29,0.02,0.11,3,1
87997,129163314,-2.96,-1.08,-29.86,-31.92,330.26,329.31,0.02,0.09,3,1
88086,129263274,-3.02,0.66,-29.86,-28.28,330.27,329.3,0.02,0.11,3,1
88175,129364067,-3.05,-1.07,-29.85,-31.76,330.28,329.3,0.02,0.09,3,1
88264,129464027,-3.12,0.6,-29.85,-28.16,330.3,329.24,0.02,0.11,3,1
88354,129563987,-3.16,-0.82,-29.84,-32.14,330.31,329.2,0.02,0.09,3,1
88443,129663947,-3.23,0.44,-29.84,-28.34,330.33,329.14,0.02,0.11,3,1
88531,129763907,-3.27,-0.97,-29.83,-32.19,330.34,329.14,0.01,0.09,3,1
88619,129863867,-3.32,0.37,-29.83,-28.17,330.35,329.1,0.01,0.11,3,1
88708,129963827,-3.35,-1.06,-29.82,-32.06,330.36,329.14,0.01,0.09,3,1
88798,130063787,-3.39,0.3,-29.82,-28.26,330.37,329.13,0.01,0.11,3,1
88886,130163747,-3.42,-1.61,-29.82,-31.89,330.38,329.21,0.01,0.09,3,1
88975,130263707,-3.43,0.42,-29.82,-28.48,330.38,329.22,0.01,0.11,3,1
89064,130363667,-3.43,-1.7,-29.82,-31.82,330.38,329.3,0.01,0.09,3,1
89153,130463627,-3.47,0.72,-29.81,-28.36,330.39,329.31,0.01,0.1,3,1
89243,130563587,-3.49,-1.85,-29.81,-32.04,330.4,329.34,0.01,0.09,3,1
89332,130663547,-3.52,0.36,-29.81,-28.3,330.41,329.27,0.01,0.1,3,1
89420,130763507,-3.53,-1.25,-29.8,-32.37,330.41,329.3,0.01,0.09,3,1
89508,130863467,-3.58,0.19,-29.8,-28.34,330.42,329.24,0.01,0.1,3,1
89596,130963427,-3.61,-0.87,-29.8,-32.39,330.43,329.28,0.01,0.09,3,1
89687,131063387,-3.66,0.16,-29.79,-28.37,330.44,329.28,0.01,0.1,3,1
89775,131163347,-3.67,-0.94,-29.79,-32.46,330.45,329.33,0.01,0.09,3,1
89864,131263307,-3.7,0.14,-29.79,-28.43,330.45,329.33,0.01,0.1,3,1
89953,131363267,-3.72,-1.14,-29.78,-32.48,330.46,329.42,0.01,0.09,3,1
90041,131464060,-3.75,0.03,-29.78,-28.42,330.47,329.37,0.01,0.1,3,1
90132,131564020,-3.76,-0.8,-29.78,-32.7,330.47,329.41,0.01,0.09,3,1
90221,131663980,-3.78,-0.49,-29.78,-28.29,330.48,329.39,0.01,0.1,3,1
90309,131763940,-3.79,-0.91,-29.78,-32.5,330.48,329.5,0.01,0.09,3,1
90397,131863900,-3.79,-0.82,-29.78,-28.35,330.48,329.46,0.01,0.1,3,1
90485,131963860,-3.77,-1.08,-29.78,-32.67,330.47,329.59,0.01,0.09,3,1
90577,132063820,-3.75,-1.15,-29.78,-28.5,330.47,329.52,0.01,0.1,3,1
90665,132163780,-3.71,-1.98,-29.79,-32.69,330.45,329.66,0.01,0.08,3,1
90754,132263740,-3.66,-2.04,-29.79,-28.17,330.44,329.46,0.01,0.1,3,1
90844,132363700,-3.55,-3.09,-29.8,-32.4,330.41,329.66,0.01,0.08,3,1
90932,132463660,-3.47,-1.85,-29.81,-28.01,330.39,329.4,0.01,0.1,3,1
91024,132563620,-3.38,-3.46,-29.82,-32.47,330.36,329.58,0.02,0.09,3,1
91113,132663580,-3.29,-2.34,-29.83,-28.25,330.34,329.25,0.02,0.1,3,1
91201,132763540,-3.19,-3.16,-29.84,-32.67,330.31,329.42,0.02,0.09,3,1
91289,132863500,-3.11,-2.69,-29.85,-28.08,330.29,329.09,0.02,0.1,3,1
91377,132963460,-3.03,-2.35,-29.86,-32.64,330.27,329.27,0.02,0.09,3,1
91468,133063420,-2.97,-2.62,-29.86,-28.21,330.26,329.02,0.02,0.09,3,1
91556,133163380,-2.9,-2.13,-29.87,-32.56,330.24,329.22,0.02,0.08,3,1
91645,133263340,-2.86,-2.47,-29.87,-28.17,330.23,329.01,0.02,0.09,3,1
