LineNo,TimeUS,IMU,VibeX,VibeY,VibeZ,Clip,labels
424709,503763414,0,0.1200089,0.1083981,0.1482388,0,4
426871,506163287,0,0.00320994,0.00327002,0.00299224,0,4
435120,516463332,0,0.00299813,0.0033165,0.0028645,0,4
145047,192963617,0,0.163687,0.1167748,0.2472649,0,0
430951,511263746,0,0.00295177,0.00276598,0.00277678,0,4
227087,284163789,0,6.00E-07,6.00E-07,6.00E-07,0,2
6546,21363951,0,0.00265489,0.00283638,0.00288881,0,0
136590,183564045,0,0.1617634,0.1347747,0.2620354,0,0
25476,59563665,0,0.1023683,0.101971,0.1176389,0,0
290548,354663911,0,5.877801,3.383392,2.928133,0,3
145589,193563377,0,0.1602307,0.1240772,0.2823876,0,0
348551,419163934,0,0.1153352,0.1140877,0.1702586,0,0
56383,93863273,0,0.1213837,0.1325438,0.1889675,0,0
279108,341963993,0,0.1130733,0.120748,0.2059186,0,0
387259,462163394,0,0.1430491,0.153651,0.2425984,0,4
73156,112463330,0,0.122407,0.1345359,0.1716364,0,1
301813,367263869,0,0.0742076,0.09626222,0.00278231,0,3
259928,320663350,0,0.1118981,0.1234789,0.1478437,0,0
116488,161163842,0,0.1597752,0.1476487,0.2615084,0,1
61253,99263612,0,0.1166507,0.1176758,0.1489969,0,0
281627,344763706,0,0.1063277,0.1186307,0.1662092,0,0
253445,313463731,0,0.129316,0.1131159,0.142335,0,0
438645,520763278,0,0.00284672,0.00280243,0.00288984,0,4
104035,147163611,0,0.1682474,0.1375829,0.2566459,0,1
259749,320463430,0,0.1157696,0.1123311,0.165556,0,0
35112,70263550,0,0.1155607,0.1126314,0.1865724,0,0
98430,140863632,0,0.2046956,0.1486126,0.3434985,0,1
244798,303863406,0,6.00E-07,6.00E-07,6.00E-07,0,0
415976,494063962,0,0.1089991,0.1091343,0.1700903,0,4
344950,415163868,0,0.1211953,0.1068185,0.1748135,0,0
201376,255563567,0,6.00E-07,6.00E-07,6.00E-07,0,2
28719,63163891,0,0.1138671,0.1111133,0.1805949,0,0
108126,151763437,0,0.1502335,0.128544,0.2454483,0,1
258215,318763277,0,0.1104432,0.1213969,0.1375241,0,0
97097,139363399,0,0.2013613,0.1365575,0.3362833,0,1
246062,305263679,0,0.1131329,0.1098887,0.2286739,0,0
435691,517163885,0,0.00284154,0.00301599,0.00290425,0,4
406160,483163324,0,0.1169487,0.1301216,0.1830852,0,4
283700,347063619,0,0.1338828,0.1341358,0.1906881,0,0
158186,207563608,0,0.1511948,0.1208398,0.2640678,0,0
178533,230163731,0,0.00341037,0.00132641,0.01369636,0,0
148379,196663803,0,0.1624292,0.1321507,0.2748104,0,0
210634,265863612,0,6.00E-07,6.00E-07,6.00E-07,0,2
49894,86663654,0,0.1039567,0.1219017,0.1391213,0,0
209020,264063499,0,6.00E-07,6.00E-07,6.00E-07,0,2
203709,258163360,0,6.00E-07,6.00E-07,6.00E-07,0,2
255425,315663684,0,0.1120309,0.1126113,0.1481087,0,0
9505,25063304,0,0.00304903,0.00299119,0.00292323,0,0
229337,286663622,0,6.00E-07,6.00E-07,6.00E-07,0,2
395815,471663759,0,0.1172891,0.1110795,0.174552,0,4
80281,120463462,0,0.1008957,0.1138239,0.1659091,0,1
347923,418463381,0,0.1134617,0.1063218,0.1719452,0,0
29711,64263451,0,0.1169932,0.116323,0.164252,0,0
131097,177463986,0,0.1444175,0.1319319,0.2954356,0,0
85177,125963761,0,0.1408079,0.1381137,0.2206592,0,1
350624,421463847,0,0.1101943,0.1174059,0.1767609,0,0
414984,492963569,0,0.105378,0.1246354,0.1752109,0,4
156115,205263695,0,0.1642579,0.1227068,0.2308585,0,0
208570,263563699,0,6.00E-07,6.00E-07,6.00E-07,0,2
237155,295363474,0,6.00E-07,6.00E-07,6.00E-07,0,2
189689,242563769,0,6.00E-07,6.00E-07,6.00E-07,0,2
288023,351863365,0,0.2393905,0.3075178,0.1648594,0,3
21148,54763919,0,0.1352946,0.1373719,0.1955558,0,0
131998,178463586,0,0.1571949,0.1329847,0.2706038,0,0
437825,519763678,0,0.00297361,0.00259253,0.00277615,0,4
31872,66663324,0,0.1139025,0.1111386,0.1738719,0,0
322254,389963952,0,0.1150263,0.1032103,0.0028027,0,3
263801,324963296,0,0.1210964,0.1217246,0.1844274,0,0
174478,225663865,0,0.1209297,0.1195846,0.1931235,0,0
382496,456863848,0,0.1278057,0.1506591,0.223615,0,4
226548,283564029,0,6.00E-07,6.00E-07,6.00E-07,0,2
74855,114363403,0,0.1075437,0.1150881,0.1674833,0,1
78234,118163549,0,0.1167865,0.1103256,0.1990416,0,1
337118,406464016,0,0.1849944,0.1372141,0.30586,0,0
45025,81263315,0,0.1093283,0.1153525,0.1994074,0,0
71979,111163850,0,0.1183413,0.1060092,0.179184,0,1
134336,181063379,0,0.1560699,0.1325036,0.2697759,0,0
330990,399663404,0,0.09299776,0.1142542,0.2451867,0,0
361063,433063372,0,0.1170234,0.1131815,0.1581494,0,0
250021,309663585,0,0.1261406,0.1161404,0.1841015,0,0
373404,446763723,0,0.1322913,0.1103047,0.1529569,0,4
94073,135963926,0,0.2641486,0.1675286,0.3614276,0,1
289559,353563518,0,1.981013,4.946922,27.605,0,3
406523,483563997,0,0.122731,0.1243657,0.2269318,0,4
343689,413763595,0,0.1219946,0.12435,0.16855,0,0
168715,219263926,0,0.1062225,0.1209762,0.1743895,0,0
324508,392463785,0,0.1181815,0.1084655,0.00268682,0,3
163041,212963947,0,0.1215754,0.1302717,0.2075076,0,0
319461,386863526,0,0.1078695,0.1060948,0.00286802,0,3
41058,76863409,0,0.107659,0.1159713,0.1766848,0,0
384741,459363681,0,0.1353648,0.1721506,0.2407781,0,4
240752,299363540,0,6.00E-07,6.00E-07,6.00E-07,0,2
365655,438163831,0,0.1157351,0.1268221,0.1562559,0,0
327298,395563378,0,0.09964416,0.1083918,0.0027402,0,3
63326,101563525,0,0.104662,0.1162508,0.1700665,0,0
37097,72463503,0,0.1250897,0.1154986,0.1710945,0,0
22230,55963439,0,0.1105973,0.1302947,0.193873,0,0
394826,470563366,0,0.1257314,0.1034085,0.1686267,0,4
266050,327463962,0,0.1232431,0.1296605,0.193906,0,0
38898,74463536,0,0.1291677,0.1154496,0.1910126,0,0
186536,239063503,0,6.00E-07,6.00E-07,6.00E-07,0,0
398868,475064065,0,0.1119733,0.1181766,0.1603217,0,4
421918,500663821,0,0.1122377,0.1115477,0.1461344,0,4
66391,104963831,0,0.1207251,0.11764,0.1849781,0,0
112576,156763936,0,0.154953,0.1275673,0.2507022,0,1
103056,146064051,0,0.1747141,0.1292777,0.2836305,0,1
361425,433464045,0,0.1083747,0.1204547,0.1902077,0,0
115156,159663609,0,0.1498322,0.1287582,0.2544947,0,1
61792,99863372,0,0.1197727,0.1141066,0.1744757,0,0
129653,175863793,0,0.1462006,0.1301188,0.2728947,0,0
337745,407163736,0,0.1905864,0.1549516,0.3012678,0,0
372055,445263490,0,0.1123216,0.1251665,0.1833729,0,0
386269,461063834,0,0.1369649,0.1420807,0.2433431,0,4
138571,185763998,0,0.1716183,0.1255578,0.2795473,0,0
308477,374663408,0,0.0863885,0.08092275,0.00284458,0,3
183397,235564070,0,6.00E-07,6.00E-07,6.00E-07,0,0
87045,128063754,0,0.1876578,0.133299,0.2376999,0,1
162599,212463314,0,0.1251528,0.1284653,0.2027091,0,0
434217,515363772,0,0.00296611,0.00302202,0.00265709,0,4
165831,216063540,0,0.1118086,0.1112937,0.1885235,0,0
357099,428663466,0,0.1148209,0.1248544,0.1645836,0,0
411835,489463303,0,0.1188713,0.1092803,0.1443869,0,4
140095,187463318,0,0.1624613,0.1273955,0.2600532,0,0
40248,75963769,0,0.1231266,0.1097919,0.1435039,0,0
168354,218864086,0,0.1145458,0.1195857,0.1584833,0,0
237597,295863274,0,6.00E-07,6.00E-07,6.00E-07,0,2
116312,160963922,0,0.1420825,0.1332174,0.2619295,0,1
142886,190563744,0,0.1607717,0.1291929,0.2595248,0,0
44843,81063395,0,0.1152596,0.1177851,0.1760374,0,0
340898,410664002,0,0.1388595,0.1189629,0.2300403,0,0
330539,399163604,0,0.1566399,0.162768,0.4646921,0,0
154314,203263662,0,0.1640103,0.1322,0.2237791,0,0
69458,108363304,0,0.120676,0.1273541,0.2123471,0,1
216653,272563431,0,6.00E-07,6.00E-07,6.00E-07,0,2
438972,521163951,0,0.00262228,0.00286126,0.00273863,0,4
282350,345563386,0,0.1083343,0.1313048,0.1597201,0,0
137128,184163805,0,0.1453072,0.1284741,0.2814659,0,0
125962,171763767,0,0.1263378,0.1284129,0.1762606,0,0
364394,436763558,0,0.1272802,0.09840064,0.1711416,0,0
361782,433863885,0,0.1235469,0.1052086,0.1765727,0,0
340358,410063409,0,0.1341562,0.1262534,0.2390207,0,0
295546,360263337,0,0.1972038,0.4220083,0.4160017,0,3
348102,418663301,0,0.1320444,0.1247222,0.149569,0,0
31241,65963604,0,0.1135715,0.1104796,0.1634025,0,0
275322,337764007,0,0.1146014,0.1246156,0.2234606,0,0
285590,349163612,0,0.1275309,0.1079266,0.1832559,0,0
345579,415863588,0,0.1163666,0.1242004,0.2138236,0,0
145497,193463417,0,0.1756372,0.1203845,0.3006205,0,0
385640,460363281,0,0.1338941,0.1443266,0.2259581,0,4
142795,190463784,0,0.1653177,0.1457653,0.2496589,0,0
143876,191663304,0,0.154044,0.1377652,0.2536573,0,0
175739,227063305,0,0.1205126,0.1175675,0.2124828,0,0
392844,468363413,0,0.1158551,0.1176194,0.183281,0,4
91495,133063420,0,0.2666694,0.1635661,0.369397,0,1
194360,247763355,0,6.00E-07,6.00E-07,6.00E-07,0,2
114710,159163809,0,0.1477771,0.1245441,0.2513115,0,1
253894,313963531,0,0.1133057,0.1203661,0.1593244,0,0
314601,381464020,0,0.07875077,0.08182842,0.0030302,0,3
358721,430463579,0,0.1238652,0.1195181,0.2005497,0,0
6865,21763791,0,0.00276793,0.00304901,0.00281669,0,0
274064,336363734,0,0.1158963,0.1144853,0.2226378,0,0
319554,386963486,0,0.10598,0.09804471,0.00277422,0,3
422908,501763381,0,0.1171916,0.1102907,0.1538297,0,4
364754,437163398,0,0.1397876,0.1201667,0.1829076,0,0
47819,84363741,0,0.1228417,0.1118897,0.1414294,0,0
119693,164764068,0,0.149606,0.1232892,0.252944,0,1
179162,230863451,0,4.33E-05,1.69E-05,0.00017395,0,0
215760,271563831,0,6.00E-07,6.00E-07,6.00E-07,0,2
111775,155863463,0,0.1445302,0.1231582,0.2747348,0,1
296258,361063850,0,0.07931083,0.08195398,0.00812321,0,3
56294,93763313,0,0.1193974,0.1261012,0.2224108,0,0
64859,103263678,0,0.1295467,0.1227942,0.1769606,0,0
53947,91163520,0,0.1265689,0.1258398,0.1677252,0,0
238140,296463867,0,6.00E-07,6.00E-07,6.00E-07,0,2
59631,97463499,0,0.113942,0.1165417,0.1784053,0,0
397248,473263952,0,0.1132496,0.1212783,0.159185,0,4
428659,508364073,0,0.00291224,0.00300671,0.00288398,0,4
425880,505063727,0,0.00949225,0.01120962,0.1379179,0,4
414083,491963969,0,0.1277876,0.1274754,0.1614783,0,4
382139,456464008,0,0.1356345,0.1581843,0.2304104,0,4
343960,414063475,0,0.1201416,0.1146905,0.1842093,0,0
130196,176463553,0,0.1895861,0.1233698,0.2802047,0,0
22501,56263319,0,0.1316416,0.1160609,0.200095,0,0
126412,172263567,0,0.1463488,0.1427295,0.2377208,0,0
291716,355963391,0,0.2796489,0.4402626,0.9730779,0,3
86957,127963794,0,0.1744379,0.1432268,0.2524471,0,1
342970,412963915,0,0.1436693,0.114252,0.1836934,0,0
433721,514764012,0,0.00269499,0.00259107,0.00274128,0,4
241201,299863340,0,6.00E-07,6.00E-07,6.00E-07,0,2
2697,16563372,0,0.00278614,0.00287125,0.00290265,0,0
138210,185363325,0,0.1549186,0.1255403,0.2481599,0,0
359980,431863852,0,0.1071347,0.1126771,0.1524587,0,0
13311,45963274,0,0.00259845,0.00282601,0.00310877,0,0
90604,132063820,0,0.2293885,0.1508549,0.3635528,0,1
136049,182963452,0,0.1642637,0.1228031,0.2713071,0,0
166103,216363420,0,0.1104239,0.1243446,0.1938455,0,0
418587,496963635,0,0.1105517,0.1124709,0.1446718,0,4
119336,164363395,0,0.1473983,0.1224469,0.250282,0,1
174208,225363985,0,0.1342914,0.1253587,0.1786006,0,0
73874,113263843,0,0.1420605,0.1250736,0.2051905,0,1
19798,53263686,0,0.1268627,0.1341921,0.1418088,0,0
392214,467663693,0,0.1124548,0.1273827,0.1582227,0,4
152331,201063709,0,0.1585709,0.1184639,0.228235,0,0
198043,251863381,0,6.00E-07,6.00E-07,6.00E-07,0,2
227448,284563629,0,6.00E-07,6.00E-07,6.00E-07,0,2
237959,296263947,0,6.00E-07,6.00E-07,6.00E-07,0,2
94339,136263806,0,0.2536893,0.1497939,0.3878663,0,1
306766,372763335,0,0.07652628,0.07840855,0.00286453,0,3
123261,168763301,0,0.1632643,0.1458054,0.3652676,0,0
310728,377164074,0,0.07854915,0.07763098,0.00261412,0,3
398778,474963272,0,0.1250857,0.1164743,0.1561936,0,4
197143,250863781,0,6.00E-07,6.00E-07,6.00E-07,0,2
273072,335263341,0,0.1172601,0.1087483,0.1591277,0,0
6466,21263991,0,0.00276038,0.00281468,0.00274636,0,0
260471,321263943,0,0.1172164,0.1130602,0.1782089,0,0
343330,413363755,0,0.124221,0.1007523,0.1454286,0,0
306855,372863295,0,0.07029137,0.07737328,0.00284797,0,3
278478,341263440,0,0.1294486,0.1242937,0.2078779,0,0
245519,304663919,0,6.00E-07,6.00E-07,6.00E-07,0,0
155665,204763895,0,0.1610629,0.1321268,0.2713571,0,0
231759,289363375,0,6.00E-07,6.00E-07,6.00E-07,0,2
358900,430663499,0,0.1347299,0.1319332,0.2283331,0,0
155215,204263262,0,0.1528405,0.1210228,0.2398719,0,0
344322,414463315,0,0.1225854,0.1192643,0.1906169,0,0
436430,518063525,0,0.00258449,0.00306606,0.00298761,0,4
401031,477463938,0,0.1033176,0.09290022,0.1314904,0,4
309108,375363961,0,0.07803743,0.07946029,0.00300078,0,3
342878,412863955,0,0.1211584,0.1093905,0.1764145,0,0
350714,421563807,0,0.1108445,0.1149259,0.1706468,0,0
20069,53563566,0,0.1174903,0.120718,0.1859334,0,0
87222,128263674,0,0.1632214,0.1340504,0.2263348,0,1
366555,439163431,0,0.1285156,0.1191832,0.183137,0,0
375294,448863716,0,0.1268549,0.1211757,0.2003716,0,4
182585,234663597,0,6.00E-07,6.00E-07,6.00E-07,0,0
51516,88463767,0,0.1336201,0.1290867,0.1997705,0,0
251013,310763978,0,0.1097511,0.1165592,0.2017097,0,0
262091,323064056,0,0.1209526,0.1076102,0.1667461,0,0
363405,435663998,0,0.1244689,0.1253465,0.19952,0,0
47367,83863941,0,0.1265496,0.1284523,0.1890746,0,0
20788,54364079,0,0.1240892,0.1288467,0.1644137,0,0
272711,334863501,0,0.1254313,0.1132802,0.1949525,0,0
345401,415663668,0,0.1141106,0.1165317,0.1585212,0,0
31961,66763284,0,0.1090855,0.1215841,0.1473705,0,0
383754,458263288,0,0.1321834,0.1453112,0.2408502,0,4
76011,115663716,0,0.1105041,0.1098517,0.1285581,0,1
381239,455463575,0,0.1359629,0.1435359,0.2903695,0,4
132447,178963386,0,0.1593724,0.124269,0.254574,0,0
255696,315963564,0,0.1219816,0.1172318,0.1807306,0,0
143787,191563344,0,0.1812659,0.1301249,0.28648,0,0
27100,61363778,0,0.1027581,0.1119814,0.1424594,0,0
152070,200763829,0,0.1596168,0.1279437,0.2659005,0,0
15199,48164060,0,0.00261697,0.00282913,0.00300716,0,0
415073,493063529,0,0.1002919,0.1166589,0.1560026,0,4
28093,62463338,0,0.1225061,0.1073333,0.164334,0,0
352426,423463880,0,0.114312,0.1269441,0.165574,0,0
274604,336963494,0,0.1422997,0.128778,0.2083129,0,0
258847,319463830,0,0.1102868,0.1252385,0.166216,0,0
397157,473163992,0,0.1179171,0.1167878,0.1927219,0,4
349814,420563374,0,0.1287839,0.1216003,0.2006492,0,0
409853,487263350,0,0.1216988,0.1347489,0.1385323,0,4
273432,335664014,0,0.1176641,0.1146516,0.1994378,0,0
371063,444163930,0,0.1147424,0.1134802,0.1742737,0,0
99587,142163945,0,0.1871358,0.1371253,0.3406109,0,1
211446,266764085,0,6.00E-07,6.00E-07,6.00E-07,0,2
216473,272363511,0,6.00E-07,6.00E-07,6.00E-07,0,2
186625,239163463,0,6.00E-07,6.00E-07,6.00E-07,0,0
187893,240563736,0,6.00E-07,6.00E-07,6.00E-07,0,0
397968,474063632,0,0.1048961,0.1186032,0.1400932,0,4
105547,148863764,0,0.1543941,0.1336834,0.2477157,0,1
97631,139963992,0,0.221194,0.1310812,0.3492559,0,1
175109,226363585,0,0.11646,0.1112903,0.1717535,0,0
420207,498763748,0,0.1169983,0.109998,0.1482864,0,4
435037,516363372,0,0.00290462,0.00306236,0.00286345,0,4
163400,213363787,0,0.1040237,0.1245461,0.1738487,0,0
210726,265963572,0,6.00E-07,6.00E-07,6.00E-07,0,2
145137,193063577,0,0.1712611,0.1408109,0.2809635,0,0
2136,15863652,0,0.00300009,0.00281038,0.00293165,0,0
70900,109963497,0,0.119815,0.1198247,0.1758415,0,1
340539,410263329,0,0.1325195,0.1099822,0.2274142,0,0
98697,141163512,0,0.2044308,0.1418164,0.3321325,0,1
173489,224563472,0,0.1163391,0.1126781,0.1931898,0,0
267939,329563955,0,0.1208958,0.1127783,0.183385,0,0
103501,146563851,0,0.1407093,0.1319854,0.2612501,0,1
174749,225963745,0,0.1090574,0.114591,0.1287446,0,0
356468,427963746,0,0.1234022,0.117158,0.1483374,0,0
313427,380163707,0,0.07384875,0.08341067,0.00294578,0,3
82773,123264008,0,0.1422336,0.1307149,0.248781,0,1
306407,372363495,0,0.07983963,0.08264789,0.00286374,0,3
432295,512963899,0,0.00291182,0.00257008,0.00272285,0,4
232930,290663688,0,6.00E-07,6.00E-07,6.00E-07,0,2
10548,26363617,0,0.00280527,0.00262684,0.00271349,0,0
150089,198563876,0,0.1717995,0.1413539,0.2664606,0,0
139013,186263798,0,0.1427502,0.1214873,0.2665738,0,0
54578,91864073,0,0.1212585,0.1123805,0.1608454,0,0
278926,341764073,0,0.12148,0.1167684,0.2168994,0,0
299748,364963956,0,0.08083394,0.07520202,0.0030879,0,3
262181,323164016,0,0.1242517,0.1041184,0.1937305,0,0
425700,504863807,0,0.02531802,0.03213334,0.3231317,0,4
310099,376463521,0,0.08369551,0.07772118,0.00305914,0,3
430792,511063826,0,0.00276534,0.00304493,0.00302929,0,4
366195,438763591,0,0.1173124,0.1157768,0.1690752,0,0
294299,358863897,0,4.269823,1.755507,1.564766,0,3
135957,182863492,0,0.1769937,0.132575,0.2945865,0,0
436022,517563725,0,0.00282414,0.00283187,0.00282456,0,4
286219,349863332,0,0.1174625,0.1117788,0.1537861,0,0
43583,79663955,0,0.116306,0.1126075,0.1736705,0,0
39436,75063296,0,0.1218931,0.1128527,0.1794353,0,0
267850,329463995,0,0.1151209,0.1140931,0.2038461,0,0
407242,484363677,0,0.1143291,0.1185324,0.1556356,0,4
258126,318663317,0,0.1093455,0.1127527,0.1572922,0,0
191751,244863682,0,6.00E-07,6.00E-07,6.00E-07,0,2
224751,281563996,0,6.00E-07,6.00E-07,6.00E-07,0,2
409671,487063430,0,0.1204897,0.1127482,0.1676512,0,4
300109,365363796,0,0.08131669,0.08212158,0.00321106,0,3
309378,375663841,0,0.0799251,0.08280161,0.00278597,0,3
296528,361363730,0,0.07323496,0.07879499,0.00336525,0,3
418139,496463835,0,0.1238973,0.1260461,0.1526457,0,4
3498,17563805,0,0.00287375,0.00287799,0.00262256,0,0
426963,506264080,0,0.00324349,0.00299422,0.00298439,0,4
211086,266363412,0,6.00E-07,6.00E-07,6.00E-07,0,2
113466,157763536,0,0.1326776,0.1292607,0.2607633,0,1
201641,255863447,0,6.00E-07,6.00E-07,6.00E-07,0,2
124701,170363494,0,0.1350283,0.1188031,0.2205283,0,0
257136,317563757,0,0.1204173,0.1110447,0.1681571,0,0
64318,102663918,0,0.1206772,0.1169764,0.1935973,0,0
58998,96763779,0,0.1108891,0.1182355,0.1570776,0,0
11105,27063337,0,0.00279158,0.00263189,0.00274081,0,0
419217,497663355,0,0.1227282,0.1162792,0.1666442,0,4
240572,299163620,0,6.00E-07,6.00E-07,6.00E-07,0,2
116578,161263802,0,0.1583871,0.1426163,0.2737189,0,1
61523,99563492,0,0.1102533,0.1055201,0.1740942,0,0
39525,75164089,0,0.1185448,0.1062371,0.1648758,0,0
410753,488263783,0,0.1088891,0.1189446,0.1474496,0,4
24212,58163392,0,0.1289148,0.1256682,0.2036474,0,0
11427,27464010,0,0.00265049,0.0028205,0.00267499,0,0
122541,167963621,0,0.1939307,0.130923,0.2615983,0,1
248673,308163352,0,0.1195975,0.123046,0.1821969,0,0
359169,430963379,0,0.1152985,0.1198659,0.2018225,0,0
145406,193363457,0,0.1608807,0.1462197,0.2934764,0,0
291892,356163311,0,10.90132,2.97731,3.266761,0,3
297424,362363330,0,0.08712297,0.08303511,0.00280767,0,3
42321,78263682,0,0.1267273,0.1161148,0.1933861,0,0
262630,323663816,0,0.1142364,0.1202194,0.1748024,0,0
125782,171563847,0,0.1314975,0.1312675,0.2015124,0,0
283251,346563819,0,0.1152213,0.1351843,0.2031507,0,0
389063,464163427,0,0.1282997,0.165981,0.2429575,0,4
349363,420063574,0,0.1392661,0.1064756,0.2105344,0,0
149728,198164036,0,0.1636406,0.1384073,0.2676202,0,0
102434,145363498,0,0.1793629,0.1413079,0.2990283,0,1
136408,183363292,0,0.1567596,0.1278684,0.2431585,0,0
327118,395363458,0,0.09983073,0.1061157,0.00280198,0,3
407961,485163357,0,0.1226898,0.1224561,0.1599593,0,4
365115,437564071,0,0.1095259,0.1183393,0.1805017,0,0
111865,155963423,0,0.149724,0.1233929,0.2518302,0,1
210276,265463772,0,6.00E-07,6.00E-07,6.00E-07,0,2
307666,373763768,0,0.07492236,0.07343155,0.0027544,0,3
63415,101663485,0,0.1108683,0.1166012,0.1791085,0,0
221068,277463970,0,6.00E-07,6.00E-07,6.00E-07,0,2
85265,126063721,0,0.1669304,0.1312969,0.2061096,0,1
279918,342863633,0,0.1183794,0.1130463,0.1662871,0,0
370525,443563337,0,0.1107666,0.1128515,0.1895068,0,0
368356,441163464,0,0.1235469,0.1121776,0.1505151,0,0
150359,198863756,0,0.169887,0.1309733,0.2368905,0,0
369438,442363817,0,0.1165688,0.128023,0.1878438,0,0
44305,80463635,0,0.1135081,0.1167091,0.1442221,0,0
104303,147463491,0,0.1538783,0.1272355,0.2878884,0,1
79392,119463862,0,0.1054994,0.12719,0.1958883,0,1
282618,345863266,0,0.1275351,0.1179694,0.1613537,0,0
170965,221763759,0,0.109149,0.1117263,0.1636018,0,0
365294,437763991,0,0.1185516,0.120941,0.1579948,0,0
261820,322763343,0,0.1138761,0.1151282,0.1575809,0,0
402111,478663458,0,0.1134958,0.1159899,0.1987702,0,4
234546,292463801,0,6.00E-07,6.00E-07,6.00E-07,0,2
118359,163263835,0,0.1527266,0.1339253,0.270964,0,1
235354,293363441,0,6.00E-07,6.00E-07,6.00E-07,0,2
8226,23463944,0,0.00274246,0.00304726,0.00245643,0,0
68738,107563624,0,0.1092254,0.1062175,0.1435173,0,1
143515,191263464,0,0.1579594,0.1371659,0.2822038,0,0
282260,345463426,0,0.1247216,0.1152854,0.146704,0,0
401569,478063698,0,0.115892,0.1157697,0.1410085,0,4
361693,433763925,0,0.113782,0.1078496,0.1693396,0,0
342789,412763995,0,0.1227931,0.1174444,0.215129,0,0
58366,96064059,0,0.1230114,0.1111534,0.1652955,0,0
75122,114663283,0,0.1110672,0.1017235,0.1696609,0,1
329731,398263964,0,0.220798,0.2220762,1.396817,0,3
312438,379063314,0,0.08521659,0.08299141,0.00282146,0,3
418407,496763715,0,0.1078921,0.1106893,0.1360895,0,4
202538,256863880,0,6.00E-07,6.00E-07,6.00E-07,0,2
59900,97763379,0,0.1246026,0.1126908,0.200796,0,0
49983,86763614,0,0.1097229,0.1240373,0.1584046,0,0
437004,518764078,0,0.0027776,0.00263623,0.00273438,0,4
90514,131963860,0,0.2281117,0.1548776,0.3893887,0,1
290459,354563951,0,8.14411,4.270887,5.090238,0,3
169435,220063606,0,0.13007,0.1200912,0.1414648,0,0
207850,262764019,0,6.00E-07,6.00E-07,6.00E-07,0,2
177359,228863418,0,0.1140683,0.113644,0.1890819,0,0
40067,75763849,0,0.1220118,0.1063517,0.1970231,0,0
353145,424263560,0,0.1350902,0.1048173,0.1830342,0,0
117112,161863562,0,0.1450232,0.1428091,0.2671499,0,1
162950,212863987,0,0.1199944,0.1257364,0.223634,0,0
351163,422063607,0,0.1128011,0.1250375,0.1586845,0,0
308655,374863328,0,0.06951122,0.07605363,0.00296486,0,3
379528,453563502,0,0.1385966,0.145103,0.2451875,0,4
106971,150463957,0,0.1641826,0.1342916,0.2703405,0,1
331713,400463917,0,0.1191891,0.142833,0.3165064,0,0
432615,513363739,0,0.00288612,0.00264103,0.00286479,0,4
309199,375463921,0,0.09114435,0.08185936,0.00280842,0,3
67292,105963431,0,0.1138391,0.1114105,0.1865385,0,0
49440,86163854,0,0.1208044,0.1169832,0.1816992,0,0
392484,467963573,0,0.1176887,0.1178853,0.1987482,0,4
167004,217363853,0,0.1166296,0.1089344,0.1784554,0,0
51064,87963967,0,0.1182148,0.1152924,0.2292239,0,0
212705,268163525,0,6.00E-07,6.00E-07,6.00E-07,0,2
144956,192863657,0,0.1489554,0.1253939,0.2313545,0,0
12868,29263290,0,0.00289101,0.00260683,0.00256973,0,0
217733,273763784,0,6.00E-07,6.00E-07,6.00E-07,0,2
299208,364363363,0,0.08319127,0.07904574,0.00289709,0,3
251733,311563658,0,0.1203085,0.1208773,0.1424275,0,0
134787,181564012,0,0.1656231,0.1102739,0.2623507,0,0
228978,286263782,0,6.00E-07,6.00E-07,6.00E-07,0,2
173578,224663432,0,0.1275603,0.1153367,0.1748471,0,0
23852,57763552,0,0.1340808,0.1195805,0.1980114,0,0
409042,486363710,0,0.1115467,0.1254867,0.1308144,0,4
115599,160163409,0,0.1543286,0.1384743,0.2454753,0,1
121650,166964021,0,0.1596277,0.1347103,0.2536165,0,1
339997,409663569,0,0.152555,0.1256077,0.2878623,0,0
232119,289764048,0,6.00E-07,6.00E-07,6.00E-07,0,2
9185,24663464,0,0.00280603,0.00284571,0.00306528,0,0
138028,185163405,0,0.1597189,0.1220537,0.2768459,0,0
27910,62263418,0,0.1257462,0.1156895,0.1758189,0,0
168624,219163966,0,0.1196882,0.1177843,0.1722581,0,0
300375,365663676,0,0.08424678,0.07448193,0.00271305,0,3
287303,351063685,0,0.1907627,0.3446518,0.2566397,0,3
428974,508763913,0,0.00270089,0.00257307,0.00274091,0,4
203260,257663560,0,6.00E-07,6.00E-07,6.00E-07,0,2
416696,494863642,0,0.1100519,0.1042397,0.1560551,0,4
387535,462463274,0,0.143519,0.1611882,0.2474377,0,4
313701,380463587,0,0.08146194,0.07351287,0.00289498,0,3
211627,266964005,0,6.00E-07,6.00E-07,6.00E-07,0,2
413543,491363376,0,0.1176801,0.1111412,0.1427071,0,4
4219,18463445,0,0.00275502,0.00277178,0.00310211,0,0
212256,267663725,0,6.00E-07,6.00E-07,6.00E-07,0,2
299567,364764036,0,0.07523792,0.07338866,0.00283964,0,3
358540,430263659,0,0.1249453,0.1226982,0.1955182,0,0
236435,294563794,0,6.00E-07,6.00E-07,6.00E-07,0,2
33494,68463437,0,0.1214373,0.1167103,0.1892806,0,0
194991,248463908,0,6.00E-07,6.00E-07,6.00E-07,0,2
231670,289263415,0,6.00E-07,6.00E-07,6.00E-07,0,2
127044,172963287,0,0.1435131,0.1312417,0.2041308,0,0
67381,106063391,0,0.1177791,0.1127656,0.1671491,0,0
96564,138763639,0,0.2255696,0.1474565,0.3334252,0,1
414354,492263849,0,0.1072559,0.1101478,0.1468089,0,4
303793,369463822,0,0.07843369,0.08314887,0.00312402,0,3
372955,446263923,0,0.116443,0.1170616,0.1748532,0,4
385280,459963441,0,0.1423496,0.1591145,0.2510889,0,4
198407,252264054,0,6.00E-07,6.00E-07,6.00E-07,0,2
106880,150363997,0,0.162873,0.1255074,0.2336109,0,1
92295,133963893,0,0.2668345,0.1702472,0.3624179,0,1
289377,353363598,0,0.08583239,0.1014199,0.1280022,0,3
230859,288363775,0,6.00E-07,6.00E-07,6.00E-07,0,2
157916,207263728,0,0.162077,0.123123,0.2731582,0,0
330721,399363524,0,0.1468738,0.1635669,0.8191366,0,0
113288,157563616,0,0.1532206,0.1264094,0.2436096,0,1
342339,412263362,0,0.1205873,0.1168411,0.1672896,0,0
381417,455663495,0,0.1280897,0.158571,0.2525037,0,4
95052,137063486,0,0.2588764,0.1470565,0.4084916,0,1
316852,383963853,0,0.1103589,0.1000916,0.00274652,0,3
90070,131464060,0,0.2119933,0.1584026,0.3426509,0,1
321714,389363359,0,0.1150305,0.1117415,0.0036729,0,3
192382,245563402,0,6.00E-07,6.00E-07,6.00E-07,0,2
157015,206263295,0,0.1534966,0.1385296,0.2676035,0,0
177000,228463578,0,0.1249727,0.113312,0.1899577,0,0
129564,175763833,0,0.156863,0.1342112,0.2777556,0,0
335765,404963783,0,0.181707,0.1474356,0.287294,0,0
85353,126163681,0,0.1592999,0.1250396,0.2296994,0,1
163760,213763627,0,0.1143392,0.1102577,0.1506954,0,0
101901,144763738,0,0.1707197,0.13345,0.2677829,0,1
407691,484863477,0,0.1204711,0.1110749,0.172967,0,4
111421,155463623,0,0.1639797,0.1381941,0.2410652,0,1
44032,80163755,0,0.1222754,0.115708,0.1447434,0,0
411203,488763583,0,0.1227956,0.1136622,0.219561,0,4
329550,398064044,0,0.1915024,0.1819846,1.634353,0,3
108751,152463990,0,0.1615389,0.127088,0.2836936,0,1
344861,415063908,0,0.1094576,0.1181663,0.1839191,0,0
18352,51663493,0,0.1223204,0.1222231,0.1989729,0,0
306587,372563415,0,0.07786373,0.08216492,0.00275323,0,3
50973,87864007,0,0.1185259,0.1153285,0.1929003,0,0
131004,177364026,0,0.1533435,0.1222915,0.2714202,0,0
184384,236663630,0,6.00E-07,6.00E-07,6.00E-07,0,0
35201,70363510,0,0.1151465,0.1179617,0.1778348,0,0
75389,114963996,0,0.1215817,0.1148107,0.1786571,0,1
187354,239963976,0,6.00E-07,6.00E-07,6.00E-07,0,0
380339,454463975,0,0.1353246,0.1419735,0.2638189,0,4
130014,176263633,0,0.1583208,0.1297448,0.2486322,0,0
40156,75863809,0,0.1195114,0.1133675,0.1751968,0,0
141624,189163471,0,0.1543009,0.1327644,0.2682877,0,0
33583,68563397,0,0.1144431,0.1143117,0.184197,0,0
181055,232963444,0,6.00E-07,6.00E-07,6.00E-07,0,0
390684,465963540,0,0.1262249,0.1310179,0.2060211,0,4
371873,445063570,0,0.1104779,0.1233854,0.1942471,0,0
248946,308464065,0,0.1211579,0.1291355,0.1665993,0,0
239759,298263980,0,6.00E-07,6.00E-07,6.00E-07,0,2
97720,140063952,0,0.2245504,0.1610306,0.3783312,0,1
415438,493463369,0,0.125753,0.1250888,0.1497338,0,4
294924,359563617,0,0.1627846,0.3006558,0.3974063,0,3
33761,68763317,0,0.1212802,0.1128026,0.1735813,0,0
375837,449463476,0,0.1370967,0.1490286,0.2637762,0,4
251553,311363738,0,0.113294,0.1188956,0.1391787,0,0
81349,121663815,0,0.1086795,0.1223246,0.1786158,0,1
399858,476163625,0,0.1110651,0.1290134,0.1431886,0,4
16730,49863380,0,0.1149447,0.1153574,0.217601,0,0
86066,126963361,0,0.1477633,0.1229169,0.2393681,0,1
305954,371863695,0,0.07473677,0.079492,0.002602,0,3
226096,283063396,0,6.00E-07,6.00E-07,6.00E-07,0,2
286490,350164045,0,0.1134927,0.1155883,0.1805168,0,0
19168,52563966,0,0.1306043,0.1352833,0.1994884,0,0
204791,259363713,0,6.00E-07,6.00E-07,6.00E-07,0,2
259838,320563390,0,0.1149308,0.1218011,0.1503199,0,0
283970,347363499,0,0.1109637,0.1272213,0.1938233,0,0
196697,250363981,0,6.00E-07,6.00E-07,6.00E-07,0,2
90159,131564020,0,0.2437705,0.1499382,0.3844122,0,1
107769,151363597,0,0.1700674,0.1304087,0.2394543,0,1
45926,82263748,0,0.1201939,0.1181848,0.146567,0,0
213869,269463838,0,6.00E-07,6.00E-07,6.00E-07,0,2
353417,424563440,0,0.1179161,0.1188327,0.2132197,0,0
406791,483863877,0,0.1083974,0.1152617,0.2088536,0,4
371784,444963610,0,0.1255603,0.120214,0.1850318,0,0
252364,312263378,0,0.1351118,0.133453,0.1798026,0,0
175200,226463545,0,0.1315837,0.1077132,0.1960272,0,0
70177,109163817,0,0.1046936,0.1142357,0.1707292,0,1
77703,117563789,0,0.1201707,0.1071131,0.1705606,0,1
398149,474263552,0,0.1236505,0.1089003,0.1977378,0,4
341887,411763562,0,0.1203929,0.1285555,0.2243496,0,0
1736,15363852,0,0.00309746,0.00284061,0.00283923,0,0
189868,242763689,0,6.00E-07,6.00E-07,6.00E-07,0,2
391225,466563300,0,0.1179098,0.1181091,0.2013047,0,4
114267,158664009,0,0.1466261,0.124138,0.2444656,0,1
205054,259663593,0,6.00E-07,6.00E-07,6.00E-07,0,2
82508,122963295,0,0.1416856,0.1419173,0.2541731,0,1
77077,116864069,0,0.1208937,0.1171665,0.1671912,0,1
385189,459863481,0,0.1377967,0.154666,0.2904327,0,4
110620,154563983,0,0.1344513,0.12337,0.2454641,0,1
252903,312863971,0,0.1173427,0.1122984,0.169482,0,0
230951,288463735,0,6.00E-07,6.00E-07,6.00E-07,0,2
92384,134063853,0,0.2568717,0.1576835,0.3781894,0,1
148018,196263963,0,0.1553401,0.1327112,0.281079,0,0
86601,127563954,0,0.1687668,0.1230619,0.2596682,0,1
358359,430063739,0,0.1227882,0.1276332,0.2017489,0,0
12386,28663530,0,0.00304641,0.00290171,0.00279939,0,0
419665,498163988,0,0.10529,0.1105141,0.2210898,0,4
369620,442563737,0,0.1045574,0.119469,0.1399816,0,0
154674,203663502,0,0.1523741,0.1288998,0.2491283,0,0
408053,485263317,0,0.1222208,0.1207671,0.1434826,0,4
270371,332263708,0,0.1253067,0.121092,0.1634154,0,0
157735,207063808,0,0.1718217,0.1366706,0.2950127,0,0
268118,329763875,0,0.1223146,0.09882423,0.1722849,0,0
88913,130163747,0,0.2109194,0.1347829,0.3015846,0,1
21871,55563599,0,0.1231057,0.12367,0.1580785,0,0
295635,360363297,0,0.1278394,0.245479,0.2330313,0,3
101989,144863698,0,0.1768198,0.1282378,0.275574,0,1
362954,435163365,0,0.117868,0.1086209,0.2121755,0,0
167634,218063573,0,0.1133391,0.1184031,0.1861898,0,0
182314,234363717,0,6.00E-07,6.00E-07,6.00E-07,0,0
353684,424863320,0,0.1122933,0.1131118,0.165637,0,0
187804,240463776,0,6.00E-07,6.00E-07,6.00E-07,0,0
334236,403263630,0,0.1721031,0.147121,0.3290391,0,0
204340,258863913,0,6.00E-07,6.00E-07,6.00E-07,0,2
71890,111063890,0,0.1125074,0.099498,0.1804424,0,1
437169,518963998,0,0.00310191,0.00279083,0.00259796,0,4
311268,377763834,0,0.08247387,0.08260418,0.0028848,0,3
345670,415963548,0,0.1249323,0.125607,0.2425135,0,0
59989,97863339,0,0.1185341,0.1098702,0.2182699,0,0
364483,436863518,0,0.1186641,0.1095113,0.2132957,0,0
66752,105363671,0,0.1232629,0.1279677,0.1342018,0,0
132625,179163306,0,0.1640549,0.1240791,0.2372914,0,0
366828,439463311,0,0.1195581,0.1172595,0.208598,0,0
96476,138663679,0,0.2345767,0.1490668,0.3694769,0,1
289919,353963358,0,0.2777573,0.6802492,4.596293,0,3
123531,169064014,0,0.128187,0.1376248,0.3031208,0,0
341347,411163802,0,0.1387749,0.1214199,0.2075555,0,0
325135,393163505,0,0.1145771,0.102263,0.00270239,0,3
291361,355563551,0,1.965408,2.386325,3.002242,0,3
164571,214663267,0,0.1141227,0.1085363,0.1528428,0,0
378174,452063269,0,0.1368735,0.1571132,0.2307458,0,4
231129,288663655,0,6.00E-07,6.00E-07,6.00E-07,0,2
88825,130063787,0,0.1885291,0.1264601,0.3009054,0,1
232390,290063928,0,6.00E-07,6.00E-07,6.00E-07,0,2
198314,252163261,0,6.00E-07,6.00E-07,6.00E-07,0,2
321262,388863559,0,0.110518,0.104155,0.0027992,0,3
262810,323863736,0,0.1150926,0.1059114,0.1449302,0,0
344411,414563275,0,0.1223355,0.1320212,0.1751833,0,0
255154,315363804,0,0.112821,0.1146323,0.1497048,0,0
215940,271763751,0,6.00E-07,6.00E-07,6.00E-07,0,2
27549,61863578,0,0.1281479,0.1241079,0.1519057,0,0
294121,358663977,0,10.01536,3.838118,2.116941,0,3
369165,442063937,0,0.1052495,0.1167188,0.175181,0,0
135868,182763532,0,0.1496065,0.1306854,0.2685671,0,0
388525,463563667,0,0.1367558,0.164335,0.2347634,0,4
112219,156363263,0,0.1632881,0.1424097,0.2123542,0,1
413003,490763616,0,0.1164129,0.1146014,0.1879767,0,4
174658,225863785,0,0.1120367,0.1135881,0.1397395,0,0
286129,349763372,0,0.1063421,0.1083306,0.1616699,0,0
149639,198064076,0,0.1606405,0.1404623,0.2315099,0,0
414444,492363809,0,0.1106981,0.1082387,0.1679032,0,4
106792,150264037,0,0.1590512,0.1307908,0.2549792,0,1
209290,264363379,0,6.00E-07,6.00E-07,6.00E-07,0,2
157555,206863888,0,0.1537654,0.1232227,0.2746491,0,0
39076,74663456,0,0.1204789,0.1095573,0.1706945,0,0
337296,406663936,0,0.1739923,0.1494982,0.2994046,0,0
176279,227663898,0,0.1334703,0.1151557,0.2089903,0,0
229968,287363342,0,6.00E-07,6.00E-07,6.00E-07,0,2
17273,50463973,0,0.1630891,0.1458776,0.9336708,0,0
14847,47763387,0,0.00272383,0.00305,0.00289043,0,0
323425,391263432,0,0.1074555,0.1153873,0.00270366,0,3
105903,149263604,0,0.1562554,0.1375643,0.2759195,0,1
262991,324063656,0,0.1219518,0.1095222,0.1535289,0,0
439137,521363871,0,0.00269256,0.00269629,0.00255884,0,4
311179,377663874,0,0.0868234,0.07406634,0.00291145,0,3
270642,332563588,0,0.1091397,0.118998,0.1694215,0,0
390414,465663660,0,0.122397,0.1388631,0.1868954,0,4
188254,240963576,0,6.00E-07,6.00E-07,6.00E-07,0,0
267218,328763442,0,0.1172928,0.1214607,0.1942095,0,0
150270,198763796,0,0.1885583,0.1226027,0.2729527,0,0
310909,377363994,0,0.07339914,0.08574609,0.00271329,0,3
62693,100863805,0,0.1218828,0.1209067,0.1958738,0,0
96208,138363799,0,0.2322201,0.1607956,0.358537,0,1
90692,132163780,0,0.2370161,0.1555256,0.3711523,0,1
351434,422363487,0,0.1177434,0.1196658,0.1727965,0,0
383217,457663528,0,0.1388164,0.1492461,0.2554221,0,4
402651,479264051,0,0.1115631,0.1103022,0.1678738,0,4
55573,92963633,0,0.1188558,0.1151715,0.1713151,0,0
183666,235863950,0,6.00E-07,6.00E-07,6.00E-07,0,0
253265,313263811,0,0.1158314,0.1229446,0.1689824,0,0
256956,317363837,0,0.1310811,0.1152513,0.1955099,0,0
227898,285063429,0,6.00E-07,6.00E-07,6.00E-07,0,2
267128,328663482,0,0.1263833,0.1294468,0.2021248,0,0
253624,313663651,0,0.1184172,0.1080037,0.1456129,0,0
161877,211663634,0,0.1155132,0.1185944,0.1392333,0,0
14503,47363547,0,0.00268404,0.0029753,0.00267594,0,0
403100,479763851,0,0.1026713,0.1194801,0.1561089,0,4
81793,122163615,0,0.1321056,0.1205879,0.2177737,0,1
149908,198363956,0,0.1697408,0.1386794,0.2824344,0,0
335945,405163703,0,0.1957488,0.1423849,0.2640541,0,0
19436,52863846,0,0.1223918,0.1259016,0.2053182,0,0
266950,328463562,0,0.1300446,0.1229634,0.1890202,0,0
167723,218163533,0,0.1122939,0.1167447,0.1758347,0,0
320905,388463719,0,0.1176809,0.1132248,0.0026435,0,3
106614,150063284,0,0.1756004,0.124018,0.2532614,0,1
216742,272663391,0,6.00E-07,6.00E-07,6.00E-07,0,2
357639,429264059,0,0.1221632,0.1327172,0.1635384,0,0
434709,515963532,0,0.00279504,0.00290749,0.00283235,0,4
42682,78663522,0,0.1155614,0.1093707,0.204183,0,0
333517,402463950,0,0.1529942,0.1447262,0.309265,0,0
80634,120863302,0,0.1294811,0.1199302,0.1801,0,1
402470,479063298,0,0.1183384,0.1160051,0.1708374,0,4
393026,468563333,0,0.1133765,0.1165975,0.1562092,0,4
234724,292663721,0,6.00E-07,6.00E-07,6.00E-07,0,2
388436,463463707,0,0.151061,0.1611613,0.2219359,0,4
20248,53763486,0,0.1280487,0.1211894,0.2114004,0,0
220255,276563497,0,6.00E-07,6.00E-07,6.00E-07,0,2
427949,507463600,0,0.00262161,0.00267175,0.00292911,0,4
180154,231963844,0,6.00E-07,6.00E-07,6.20E-07,0,0
360161,432063772,0,0.11379,0.1238351,0.1604249,0,0
139194,186463718,0,0.1375761,0.1200885,0.2324342,0,0
2458,16263492,0,0.00305535,0.00286733,0.0026684,0,0
418317,496663755,0,0.1132298,0.1150105,0.1296605,0,4
124161,169763734,0,0.1306556,0.1411962,0.209116,0,0
320183,387664039,0,0.1024749,0.1049581,0.00295338,0,3
203980,258464073,0,6.00E-07,6.00E-07,6.00E-07,0,2
298136,363163843,0,0.08340938,0.07167211,0.00281148,0,3
79301,119363902,0,0.1157485,0.1138003,0.1847357,0,1
135148,181963852,0,0.1603011,0.1258393,0.2646565,0,0
427473,506863840,0,0.00279588,0.00254778,0.00278306,0,4
129114,175264033,0,0.1515685,0.1330181,0.274162,0,0
311627,378163674,0,0.07987844,0.07560823,0.00295718,0,3
52956,90063960,0,0.1045242,0.1085489,0.179826,0,0
8147,23363984,0,0.00273584,0.00288144,0.00266235,0,0
149549,197963283,0,0.1453265,0.1336557,0.2421508,0,0
86422,127364034,0,0.1697571,0.1303869,0.2673795,0,1
45834,82163788,0,0.1217134,0.1176805,0.1688718,0,0
379439,453463542,0,0.1417672,0.1513789,0.2543511,0,4
105371,148663844,0,0.1544021,0.1440978,0.2777433,0,1
223850,280563563,0,6.00E-07,6.00E-07,6.00E-07,0,2
408953,486263750,0,0.1117693,0.1131365,0.1409146,0,4
9026,24463544,0,0.0029691,0.00257583,0.00294131,0,0
46288,82663588,0,0.1254261,0.1215242,0.167613,0,0
434871,516163452,0,0.00265928,0.00301891,0.0028045,0,4
389784,464963940,0,0.1232994,0.1446771,0.2281453,0,4
173938,225063272,0,0.1251209,0.110282,0.1573753,0,0
430634,510863906,0,0.00302907,0.00306935,0.00289434,0,4
156834,206063375,0,0.1612161,0.1284158,0.2691303,0,0
128304,174363560,0,0.1480503,0.1222419,0.2391325,0,0
350172,420964047,0,0.1347433,0.1090131,0.2109635,0,0
195707,249263588,0,6.00E-07,6.00E-07,6.00E-07,0,2
116757,161463722,0,0.1385515,0.1259613,0.2228763,0,1
232841,290563728,0,6.00E-07,6.00E-07,6.00E-07,0,2
53408,90563760,0,0.1191791,0.1146586,0.1496719,0,0
122098,167463821,0,0.1627275,0.1413861,0.2846276,0,1
173218,224263592,0,0.1213184,0.1152936,0.1730594,0,0
137939,185063445,0,0.1593575,0.1299407,0.2952091,0,0
438236,520263478,0,0.00286739,0.00275665,0.00281889,0,4
195796,249363548,0,6.00E-07,6.00E-07,6.00E-07,0,2
162685,212563274,0,0.1309828,0.1157406,0.1742633,0,0
239397,297863307,0,6.00E-07,6.00E-07,6.00E-07,0,2
352605,423663800,0,0.1165739,0.112182,0.1810631,0,0
75210,114764076,0,0.1196105,0.1024494,0.1580271,0,1
368806,441663264,0,0.1150529,0.1098081,0.152419,0,0
405351,482263684,0,0.1150588,0.1249257,0.1217141,0,4
410034,487463270,0,0.1265793,0.1179565,0.1458749,0,4
332972,401863357,0,0.1329341,0.1280362,0.2518424,0,0
426782,506063327,0,0.00336769,0.00321482,0.00284771,0,4
232479,290163888,0,6.00E-07,6.00E-07,6.00E-07,0,2
191661,244763722,0,6.00E-07,6.00E-07,6.00E-07,0,2
205955,260664026,0,6.00E-07,6.00E-07,6.00E-07,0,2
204611,259163793,0,6.00E-07,6.00E-07,6.00E-07,0,2
269561,331364068,0,0.1229086,0.1198839,0.2149224,0,0
160076,209663601,0,0.1318201,0.1142177,0.2008317,0,0
334055,403063710,0,0.1936766,0.1531616,0.3108886,0,0
148469,196763763,0,0.1501015,0.1302042,0.2569458,0,0
33312,68263517,0,0.1095898,0.1165469,0.1741714,0,0
280727,343763273,0,0.116217,0.1116381,0.1592926,0,0
271720,333763941,0,0.1116566,0.1220735,0.1748317,0,0
17181,50364013,0,0.1745081,0.1598893,0.9157345,0,0
109729,153563550,0,0.1674418,0.1279177,0.2532721,0,1
34661,69763750,0,0.1205441,0.1098917,0.1283786,0,0
38534,74063696,0,0.1232173,0.1413992,0.16044,0,0
34483,69563830,0,0.1082032,0.1133058,0.177108,0,0
402022,478563498,0,0.1206458,0.111288,0.2153308,0,4
155304,204364055,0,0.1755885,0.1354513,0.2611823,0,0
276222,338763607,0,0.1200118,0.1280012,0.1648582,0,0
305596,371463855,0,0.07237376,0.08259812,0.00269849,0,3
283429,346763739,0,0.1295894,0.125824,0.1952503,0,0
326035,394163938,0,0.1129558,0.11063,0.00258721,0,3
208661,263663659,0,6.00E-07,6.00E-07,6.00E-07,0,2
281268,344363866,0,0.1166873,0.1201628,0.1624995,0,0
235624,293663321,0,6.00E-07,6.00E-07,6.00E-07,0,2
110709,154663943,0,0.1362415,0.1162728,0.2650383,0,1
275955,338463727,0,0.113779,0.115098,0.139093,0,0
416607,494763682,0,0.1174183,0.1090783,0.1508282,0,4
42050,77963802,0,0.1276174,0.1110496,0.182579,0,0
151800,200463949,0,0.1683489,0.1432381,0.2903457,0,0
76633,116363436,0,0.1094445,0.1184843,0.1597066,0,1
120047,165163908,0,0.1566227,0.1183302,0.2652602,0,1
282710,345964059,0,0.1208345,0.1156612,0.1657173,0,0
12625,28963410,0,0.00289886,0.00286305,0.00312956,0,0
411562,489163423,0,0.120086,0.1104506,0.1792566,0,4
23585,57463672,0,0.1354491,0.1294283,0.1460383,0,0
338919,408464049,0,0.177386,0.1404812,0.32552,0,0
32683,67563797,0,0.1081335,0.1277198,0.1789286,0,0
276583,339163447,0,0.1247738,0.116852,0.1485367,0,0
400131,476463505,0,0.1232453,0.1198028,0.2060265,0,4
347471,417963581,0,0.120328,0.1168478,0.2011769,0,0
420297,498863708,0,0.1207515,0.112119,0.1352996,0,4
237336,295563394,0,6.00E-07,6.00E-07,6.00E-07,0,2
316403,383464053,0,0.1145815,0.1069736,0.00299585,0,3
426243,505463567,0,0.003212,0.00321768,0.01996386,0,4
83044,123563888,0,0.1406404,0.1374605,0.2403507,0,1
414262,492163889,0,0.116988,0.1109416,0.1441172,0,4
339186,408763929,0,0.1872458,0.1413508,0.3287046,0,0
290637,354763871,0,3.542807,2.36076,1.848602,0,3
202271,256564000,0,6.00E-07,6.00E-07,6.00E-07,0,2
359532,431364052,0,0.1221028,0.1083596,0.1733309,0,0
57106,94663786,0,0.1195572,0.1127219,0.1554072,0,0
257586,318063557,0,0.1279775,0.1158714,0.168905,0,0
356108,427563906,0,0.1178331,0.1187816,0.1597479,0,0
16373,49463540,0,0.04529511,0.04857024,0.00259962,0,0
124520,170163574,0,0.1324773,0.1212243,0.2220295,0,0
317212,384363693,0,0.118182,0.1038432,0.0027182,0,3
297515,362463290,0,0.08212969,0.07680503,0.00244706,0,3
88737,129963827,0,0.1895984,0.1244222,0.3171251,0,1
80458,120663382,0,0.1197373,0.1012945,0.1859766,0,1
292164,356464024,0,3.162611,1.633263,1.574281,0,3
257226,317663717,0,0.1201129,0.1192682,0.1529221,0,0
30250,64864044,0,0.1138897,0.1220805,0.1617915,0,0
195256,248763788,0,6.00E-07,6.00E-07,6.00E-07,0,2
170155,220863286,0,0.1163772,0.1047395,0.1739212,0,0
203169,257563600,0,6.00E-07,6.00E-07,6.00E-07,0,2
2375,16163532,0,0.00280133,0.00293931,0.00268907,0,0
390954,466263420,0,0.111224,0.1365319,0.210003,0,4
176909,228363618,0,0.1215143,0.1233574,0.164179,0,0
414172,492063929,0,0.1188725,0.1200785,0.1723142,0,4
133255,179863859,0,0.1527001,0.1463823,0.2792572,0,0
338286,407763496,0,0.1820211,0.1337404,0.3072936,0,0
160256,209863521,0,0.1301079,0.1131634,0.1809551,0,0
322884,390663672,0,0.1155748,0.109232,0.00270836,0,3
99319,141864065,0,0.2016981,0.1451285,0.3298137,0,1
199936,253963374,0,6.00E-07,6.00E-07,6.00E-07,0,2
330450,399063644,0,0.1528766,0.1675541,0.3482507,0,0
413814,491664089,0,0.1171139,0.1116793,0.1453967,0,4
131724,178163706,0,0.1544348,0.1251945,0.219876,0,0
167454,217863653,0,0.1082725,0.1303761,0.1277812,0,0
84733,125463961,0,0.1482323,0.1410718,0.2343205,0,1
224481,281263283,0,6.00E-07,6.00E-07,6.00E-07,0,2
213508,269063998,0,6.00E-07,6.00E-07,6.00E-07,0,2
378538,452463942,0,0.1382831,0.1521772,0.2465454,0,4
362683,434863485,0,0.1052043,0.1138227,0.2088114,0,0
198770,252663894,0,6.00E-07,6.00E-07,6.00E-07,0,2
61342,99363572,0,0.1086539,0.1182273,0.1596523,0,0
290098,354163278,0,0.2596338,0.4758506,2.145129,0,3
360524,432463612,0,0.1089,0.1094415,0.1731793,0,0
30971,65663724,0,0.1200628,0.1176886,0.120572,0,0
393837,469463806,0,0.118747,0.1162301,0.2079863,0,4
225020,281863876,0,6.00E-07,6.00E-07,6.00E-07,0,2
178622,230263691,0,0.00182776,0.00071088,0.00734045,0,0
68916,107763544,0,0.1185363,0.1157146,0.2033801,0,1
401210,477663858,0,0.1035243,0.1095148,0.1635934,0,4
203889,258363280,0,6.00E-07,6.00E-07,6.00E-07,0,2
421377,500064061,0,0.1180922,0.1162072,0.1619994,0,4
295283,359963457,0,1.153538,1.677414,1.538098,0,3
356558,428063706,0,0.1238866,0.1207332,0.1542177,0,0
310638,377063281,0,0.07169239,0.07154687,0.00288739,0,3
377456,451263589,0,0.122018,0.1587529,0.2497047,0,4
364845,437263358,0,0.1399374,0.1167388,0.1893947,0,0
333063,401963317,0,0.1339553,0.1370678,0.2587233,0,0
23942,57863512,0,0.1262178,0.1270512,0.1903821,0,0
139464,186763598,0,0.1599185,0.1281388,0.2538205,0,0
117378,162163442,0,0.144023,0.1367371,0.2487701,0,1
131275,177663906,0,0.1519197,0.1232125,0.2789075,0,0
260380,321163983,0,0.1097369,0.1141512,0.1923332,0,0
297243,362163410,0,0.08078037,0.07645349,0.00270012,0,3
331260,399963284,0,0.1076678,0.1280557,0.2262814,0,0
428499,508163320,0,0.0027126,0.00292642,0.00264214,0,4
242194,300963733,0,6.00E-07,6.00E-07,6.00E-07,0,0
303972,369663742,0,0.07794221,0.08513191,0.00291915,0,3
339008,408564009,0,0.1699849,0.1401688,0.306812,0,0
252994,312963931,0,0.1204257,0.1292077,0.187947,0,0
110886,154863863,0,0.139172,0.1231906,0.263074,0,1
109462,153263670,0,0.1609191,0.1321384,0.2263616,0,1
219719,275963737,0,6.00E-07,6.00E-07,6.00E-07,0,2
12948,29364083,0,0.0025684,0.00293531,0.00247442,0,0
272891,335063421,0,0.1173301,0.113169,0.1836286,0,0
51785,88763647,0,0.1147492,0.1396997,0.160438,0,0
356739,428263626,0,0.1114283,0.1274684,0.1752135,0,0
426333,505563527,0,0.00322396,0.00318113,0.011605,0,4
417058,495263482,0,0.1149436,0.1187668,0.2016883,0,4
398598,474763352,0,0.1173895,0.1160324,0.1802329,0,4
287755,351563485,0,0.3210009,0.23781,0.2009291,0,3
272531,334663581,0,0.1131037,0.1094294,0.2005812,0,0
324775,392763665,0,0.1100853,0.1103115,0.00275033,0,3
4865,19263958,0,0.00306111,0.00295648,0.00287949,0,0
7984,23164064,0,0.00282606,0.00279176,0.00280154,0,0
3976,18163565,0,0.00307247,0.00282563,0.00305595,0,0
104391,147563451,0,0.1690762,0.1438734,0.2826842,0,1
298764,363863563,0,0.07888231,0.07283618,0.00285061,0,3
249662,309263745,0,0.1211291,0.1217437,0.1555218,0,0
71351,110463297,0,0.1199317,0.1173787,0.1786833,0,1
421018,499663388,0,0.1099814,0.1159782,0.1561268,0,4
362594,434763525,0,0.1151204,0.1094489,0.1904842,0,0
180784,232663564,0,6.00E-07,6.00E-07,6.00E-07,0,0
172588,223563872,0,0.1176876,0.1210488,0.1742152,0,0
338019,407463616,0,0.1760216,0.1396105,0.3051904,0,0
426152,505363607,0,0.00368108,0.00368267,0.02985233,0,4
299389,364563283,0,0.08326855,0.07396296,0.00300218,0,3
324326,392263865,0,0.1178357,0.1044046,0.00305002,0,3
34212,69263950,0,0.1120115,0.1037787,0.1659834,0,0
202093,256364080,0,6.00E-07,6.00E-07,6.00E-07,0,2
117736,162563282,0,0.1553823,0.1324883,0.2387277,0,1
4139,18363485,0,0.00285428,0.00294861,0.00306227,0,0
425969,505163687,0,0.00565621,0.00647546,0.08455674,0,4
374846,448363916,0,0.1296795,0.1343378,0.2528899,0,4
304964,370763302,0,0.09211732,0.07483868,0.00279212,0,3
350263,421064007,0,0.1290386,0.1192018,0.2207462,0,0
417687,495964035,0,0.1237136,0.1311148,0.1731897,0,4
113999,158363296,0,0.1645611,0.1364211,0.2521787,0,1
192832,246064035,0,6.00E-07,6.00E-07,6.00E-07,0,2
266589,328063722,0,0.1147689,0.1173514,0.1476612,0,0
419758,498263948,0,0.1055522,0.1224021,0.1819035,0,4
375474,449063636,0,0.1167502,0.1403808,0.2151521,0,4
222326,278863410,0,6.00E-07,6.00E-07,6.00E-07,0,2
172498,223463912,0,0.1246697,0.1214814,0.1753466,0,0
294391,358963857,0,2.56619,1.086048,1.213961,0,3
215220,270964071,0,6.00E-07,6.00E-07,6.00E-07,0,2
186363,238863583,0,6.00E-07,6.00E-07,6.00E-07,0,0
8784,24163664,0,0.00280559,0.00290461,0.00315903,0,0
405890,482863444,0,0.1215047,0.1199165,0.2084631,0,4
298316,363363763,0,0.07505243,0.07947263,0.00270753,0,3
109995,153863430,0,0.1456821,0.1296275,0.2382876,0,1
272620,334763541,0,0.1243615,0.1179883,0.1886941,0,0
64139,102463998,0,0.1198696,0.1320979,0.2076217,0,0
3658,17763725,0,0.00267139,0.00292418,0.00296021,0,0
73514,112864003,0,0.1233421,0.1253305,0.2157166,0,1
286764,350463925,0,0.07106616,0.09075886,0.5933204,0,3
279017,341864033,0,0.1277442,0.1210138,0.2352918,0,0
161066,210763994,0,0.1310763,0.1125641,0.1902031,0,0
245430,304563959,0,6.00E-07,6.00E-07,6.00E-07,0,0
431189,511563626,0,0.00289582,0.00278944,0.00282007,0,4
328109,396463851,0,0.1065259,0.1151938,0.00297997,0,3
236524,294663754,0,6.00E-07,6.00E-07,6.00E-07,0,2
71260,110363337,0,0.1171967,0.1146438,0.1836905,0,1
317303,384463653,0,0.1040798,0.1030625,0.00285612,0,3
336307,405563543,0,0.1729106,0.1430379,0.3078091,0,0
70540,109563657,0,0.1089194,0.1249837,0.1320427,0,1
124342,169963654,0,0.1239414,0.1401735,0.1870218,0,0
84822,125563921,0,0.1462409,0.1374733,0.2380506,0,1
17811,51063733,0,0.1213437,0.1342361,0.1788326,0,0
30519,65163924,0,0.1178836,0.1188321,0.1613196,0,0
93094,134863533,0,0.2551835,0.1664049,0.3840624,0,1
374393,447863283,0,0.1274932,0.1273265,0.1884298,0,4
311538,378063714,0,0.07591885,0.0762444,0.00286246,0,3
433565,514564092,0,0.0027912,0.00289057,0.00279502,0,4
20607,54163326,0,0.1301972,0.1232645,0.1898122,0,0
400759,477164058,0,0.1019131,0.1114732,0.1371835,0,4
115956,160564082,0,0.1691653,0.1408091,0.2441484,0,1
289737,353763438,0,0.7531924,2.084271,13.25637,0,3
288294,352164078,0,0.2624426,0.2979294,0.1685821,0,3
270911,332863468,0,0.1144597,0.1111543,0.1877466,0,0
430320,510464066,0,0.00297401,0.00266467,0.00282974,0,4
178712,230363651,0,0.00097957,0.00038099,0.00393406,0,0
53857,91063560,0,0.1213309,0.1071179,0.181716,0,0
425250,504364007,0,0.1325675,0.1050926,0.1632373,0,4
83575,124163648,0,0.1419172,0.1421246,0.2112107,0,1
123351,168863261,0,0.1620201,0.1402374,0.2804044,0,0
82864,123363968,0,0.1452093,0.1210325,0.2503999,0,1
361244,433263292,0,0.1239586,0.1181141,0.1684653,0,0
131365,177763866,0,0.1391488,0.1282308,0.2531411,0,0
258486,319063990,0,0.1193539,0.1201534,0.1890299,0,0
203080,257463640,0,6.00E-07,6.00E-07,6.00E-07,0,2
87402,128463594,0,0.1741491,0.1202913,0.2738997,0,1
99143,141663312,0,0.2059357,0.1467062,0.3293633,0,1
3897,18063605,0,0.00315248,0.00270578,0.00283021,0,0
309737,376063681,0,0.08613992,0.07100324,0.0028202,0,3
391403,466764053,0,0.1163367,0.1218887,0.2156403,0,4
376915,450663829,0,0.1583466,0.1354822,0.2514553,0,4
233645,291463368,0,6.00E-07,6.00E-07,6.00E-07,0,2
154223,203163702,0,0.1516778,0.1329148,0.2227148,0,0
389425,464563267,0,0.1331837,0.1526276,0.2310926,0,4
171416,222263559,0,0.1162676,0.1036587,0.2351616,0,0
97008,139263439,0,0.2091571,0.1299992,0.3783529,0,1
404632,481464004,0,0.1107737,0.1197277,0.1766801,0,4
190228,243163529,0,6.00E-07,6.00E-07,6.00E-07,0,2
258396,318964030,0,0.1361009,0.1205586,0.1597686,0,0
350892,421763727,0,0.1168595,0.1083043,0.1478148,0,0
380966,455163695,0,0.1339797,0.1659907,0.2181198,0,4
139734,187063478,0,0.1606719,0.1239953,0.2876536,0,0
291802,356063351,0,0.2938876,0.3889431,0.5834603,0,3
374304,447763323,0,0.12373,0.1253207,0.1970536,0,4
14072,46863747,0,0.00267018,0.00308037,0.00251171,0,0
67925,106663984,0,0.1162829,0.115004,0.1956126,0,0
133616,180263699,0,0.1558823,0.1239731,0.226597,0,0
358989,430763459,0,0.1251535,0.1320913,0.2333303,0,0
185824,238263823,0,6.00E-07,6.00E-07,6.00E-07,0,0
138926,186163838,0,0.167392,0.1294962,0.2783914,0,0
175379,226663465,0,0.1110931,0.1246312,0.1825414,0,0
261100,321963663,0,0.1338449,0.11345,0.1735741,0,0
76812,116563356,0,0.1096761,0.1084391,0.1804533,0,1
372414,445663330,0,0.1072831,0.1148037,0.1639889,0,0
150539,199063676,0,0.1742664,0.1262001,0.2339672,0,0
386540,461363714,0,0.1370559,0.1480749,0.2204192,0,4
101278,144064018,0,0.180914,0.1373256,0.3315643,0,1
156654,205863455,0,0.1679582,0.1213028,0.2611386,0,0
149819,198263996,0,0.1615062,0.1366302,0.2687628,0,0
283519,346863699,0,0.1279986,0.1169937,0.1874812,0,0
427144,506464000,0,0.00283468,0.0030628,0.00298928,0,4
56654,94163986,0,0.116865,0.116159,0.1829775,0,0
268389,330063755,0,0.1226871,0.122091,0.1371627,0,0
91051,132563620,0,0.2321071,0.1526367,0.4098222,0,1
93539,135363333,0,0.2539062,0.1758994,0.392301,0,1
276133,338663647,0,0.1041679,0.1206841,0.1543537,0,0
262901,323963696,0,0.1164851,0.112802,0.1547589,0,0
158276,207663568,0,0.1397449,0.1240605,0.271258,0,0
200115,254163294,0,6.00E-07,6.00E-07,6.00E-07,0,2
107237,150763837,0,0.1522943,0.148532,0.2338288,0,1
52417,89463367,0,0.1151414,0.1099835,0.1871846,0,0
89980,131363267,0,0.2288892,0.1555533,0.3486857,0,1
381776,456063335,0,0.128968,0.1477821,0.2601992,0,4
327928,396263931,0,0.1042089,0.11222,0.00253429,0,3
43494,79563995,0,0.1334234,0.1152823,0.182426,0,0
357910,429563939,0,0.1146026,0.1201834,0.1956766,0,0
402289,478863378,0,0.1140165,0.1131887,0.1636861,0,4
246242,305463599,0,0.1192927,0.1317274,0.1768166,0,0
323873,391764065,0,0.1125517,0.1015752,0.00287287,0,3
340267,409963449,0,0.1505832,0.1165657,0.2211058,0,0
228526,285763982,0,6.00E-07,6.00E-07,6.00E-07,0,2
394737,470463406,0,0.1162357,0.1121807,0.1601724,0,4
18894,52264086,0,0.1241426,0.132847,0.1620247,0,0
116845,161563682,0,0.1511807,0.1325023,0.2146886,0,1
281538,344663746,0,0.1190469,0.1186097,0.1616327,0,0
215039,270763318,0,6.00E-07,6.00E-07,6.00E-07,0,2
16821,49963340,0,0.1212184,0.121912,0.2077359,0,0
432373,513063859,0,0.00293457,0.00257437,0.00285298,0,4
428106,507663520,0,0.00277428,0.00267508,0.00284317,0,4
103767,146863731,0,0.1662129,0.1350225,0.2536486,0,1
101723,144563818,0,0.1658929,0.1366032,0.2905408,0,1
3339,17363885,0,0.00299057,0.00294799,0.00272908,0,0
44484,80663555,0,0.1273872,0.1152811,0.1798443,0,0
229878,287263382,0,6.00E-07,6.00E-07,6.00E-07,0,2
270191,332063788,0,0.1380296,0.120155,0.1950089,0,0
43942,80063795,0,0.1189356,0.1159915,0.168445,0,0
186094,238563703,0,6.00E-07,6.00E-07,6.00E-07,0,0
381596,455863415,0,0.1239129,0.1569742,0.2340403,0,4
299928,365163876,0,0.08298952,0.07199954,0.00295759,0,3
27640,61963538,0,0.1099896,0.1171727,0.1705483,0,0
18263,51563533,0,0.115845,0.1335487,0.2089755,0,0
85799,126663481,0,0.1679498,0.1289316,0.2556961,0,1
419576,498064028,0,0.1023578,0.1132247,0.1927819,0,4
71710,110863970,0,0.1314706,0.1238101,0.1761116,0,1
431504,511963466,0,0.0025232,0.00275983,0.002846,0,4
259658,320363470,0,0.1141323,0.1109759,0.1849972,0,0
235895,293964034,0,6.00E-07,6.00E-07,6.00E-07,0,2
65668,104163318,0,0.1167523,0.1104757,0.1913031,0,0
356288,427763826,0,0.1222228,0.1220802,0.1746722,0,0
167364,217763693,0,0.1095471,0.1242378,0.128858,0,0
426511,505763447,0,0.00297983,0.00308361,0.00502901,0,4
51696,88663687,0,0.1282053,0.1317878,0.1719287,0,0
180694,232563604,0,6.00E-07,6.00E-07,6.00E-07,0,0
48180,84763581,0,0.1183916,0.1164434,0.176963,0,0
149008,197363523,0,0.1568286,0.1311864,0.2836531,0,0
239489,297963267,0,6.00E-07,6.00E-07,6.00E-07,0,2
19979,53463606,0,0.1307835,0.1210897,0.1595003,0,0
10707,26563537,0,0.00298724,0.00294931,0.00285543,0,0
161425,211163834,0,0.1184974,0.1160909,0.175666,0,0
288567,352463958,0,0.2253141,0.2901638,0.1589564,0,3
117024,161763602,0,0.1435831,0.1404166,0.2212799,0,1
329188,397663371,0,0.1087935,0.1024585,0.00286573,0,3
301361,366764069,0,0.07878277,0.0782249,0.00260931,0,3
226817,283863909,0,6.00E-07,6.00E-07,6.00E-07,0,2
373855,447263523,0,0.1297176,0.1238591,0.2273052,0,4
197414,251163661,0,6.00E-07,6.00E-07,6.00E-07,0,2
43222,79263282,0,0.1220726,0.1137477,0.1692026,0,0
236254,294363874,0,6.00E-07,6.00E-07,6.00E-07,0,2
248223,307663552,0,0.1215143,0.1224713,0.2223719,0,0
353955,425164033,0,0.1198473,0.1272362,0.2432795,0,0
365205,437664031,0,0.1128033,0.1228637,0.1690347,0,0
224119,280863443,0,6.00E-07,6.00E-07,6.00E-07,0,2
275774,338263807,0,0.1304454,0.1181187,0.167307,0,0
59810,97663419,0,0.1091449,0.1165856,0.1813831,0,0
406613,483663957,0,0.1158906,0.1224683,0.1846838,0,4
266139,327563922,0,0.1217954,0.126735,0.2100313,0,0
166645,216964013,0,0.1036387,0.1163713,0.1802037,0,0
288745,352663878,0,0.2311963,0.2517707,0.1666765,0,3
261731,322663383,0,0.1193078,0.1162931,0.1637683,0,0
378447,452363982,0,0.1288362,0.166276,0.2723661,0,4
118892,163863595,0,0.1669759,0.1292667,0.2602563,0,1
24753,58763985,0,0.1152526,0.1220363,0.1786031,0,0
247864,307263712,0,0.1254777,0.1164341,0.1644096,0,0
5104,19563838,0,0.00305039,0.00293812,0.00264934,0,0
339457,409063809,0,0.1765191,0.1251648,0.2870253,0,0
217642,273663824,0,6.00E-07,6.00E-07,6.00E-07,0,2
10627,26463577,0,0.0029732,0.00273946,0.00279205,0,0
349633,420363454,0,0.1226796,0.1094802,0.2109188,0,0
243630,302563926,0,6.00E-07,6.00E-07,6.00E-07,0,0
12705,29063370,0,0.00289888,0.00294289,0.00266744,0,0
243989,302963766,0,6.00E-07,6.00E-07,6.00E-07,0,0
242733,301563493,0,6.00E-07,6.00E-07,6.00E-07,0,0
177090,228563538,0,0.1179927,0.1152897,0.1924678,0,0
404811,481663924,0,0.1042712,0.1122842,0.1803172,0,4
50524,87363374,0,0.1107245,0.1100063,0.1973222,0,0
256326,316663284,0,0.1158914,0.1324264,0.1621727,0,0
257496,317963597,0,0.1158985,0.115561,0.1617685,0,0
28901,63363811,0,0.1167483,0.1146392,0.1933001,0,0
9827,25463977,0,0.00288594,0.00275759,0.00261076,0,0
292513,356863864,0,0.4376573,0.4359285,0.3525227,0,3
154765,203763462,0,0.1639234,0.1348215,0.2585,0,0
331169,399863324,0,0.09329865,0.1135366,0.2178608,0,0
214409,270063598,0,6.00E-07,6.00E-07,6.00E-07,0,2
192201,245363482,0,6.00E-07,6.00E-07,6.00E-07,0,2
11985,28163730,0,0.00280543,0.00279539,0.00287039,0,0
294567,359163777,0,0.7750804,0.559463,1.05175,0,3
178892,230563571,0,0.00028137,0.00010943,0.00112999,0,0
232660,290363808,0,6.00E-07,6.00E-07,6.00E-07,0,2
251193,310963898,0,0.1075111,0.1118815,0.1674954,0,0
396083,471963639,0,0.122637,0.1065008,0.1542842,0,4
265243,326563489,0,0.1270184,0.1242723,0.2240103,0,0
208481,263463739,0,6.00E-07,6.00E-07,6.00E-07,0,2
384380,458963841,0,0.1378136,0.1621738,0.2534888,0,4
393474,469063966,0,0.1259559,0.1195906,0.2323326,0,4
318653,385963886,0,0.1111762,0.1070165,0.0030486,0,3
292966,357363664,0,1.286129,2.097914,2.124424,0,3
337656,407063776,0,0.1789896,0.1400885,0.3003101,0,0
291450,355663511,0,1.071621,1.575448,1.987364,0,3
160525,210163401,0,0.1378898,0.1133797,0.1871615,0,0
276404,338963527,0,0.1237636,0.1226535,0.2000148,0,0
74765,114263443,0,0.1225003,0.1120556,0.163127,0,1
397787,473863712,0,0.1058828,0.1166686,0.1478145,0,4
346301,416663268,0,0.1403375,0.1185438,0.1749066,0,0
249215,308763945,0,0.1375922,0.1080944,0.1925652,0,0
218184,274263584,0,6.00E-07,6.00E-07,6.00E-07,0,2
337385,406763896,0,0.1783171,0.144239,0.3182942,0,0
260560,321363903,0,0.1289811,0.1128133,0.2235663,0,0
328737,397163571,0,0.09612632,0.1107857,0.0027146,0,3
288924,352863798,0,0.2345175,0.2294478,0.1272669,0,3
32050,66864077,0,0.1141732,0.1198461,0.1422967,0,0
276674,339263407,0,0.1233227,0.121433,0.1849122,0,0
401388,477863778,0,0.1076404,0.1041542,0.1530166,0,4
386988,461863514,0,0.1410057,0.1506625,0.2882825,0,4
397609,473663792,0,0.1192659,0.1149899,0.1502867,0,4
81170,121463895,0,0.1246767,0.1232232,0.173778,0,1
164931,215063940,0,0.1215959,0.1170283,0.1830515,0,0
404989,481863844,0,0.09789246,0.1201221,0.1425218,0,4
99410,141964025,0,0.1827976,0.1419387,0.3203839,0,1
121471,166763268,0,0.1630708,0.1345082,0.217439,0,1
344770,414963948,0,0.1242695,0.1214352,0.1827239,0,0
113109,157363696,0,0.1403174,0.1195415,0.1952498,0,1
226185,283163356,0,6.00E-07,6.00E-07,6.00E-07,0,2
404722,481563964,0,0.1117992,0.1098914,0.1875809,0,4
48720,85363341,0,0.1063221,0.1101415,0.1777499,0,0
40791,76563529,0,0.1018743,0.1253147,0.1839241,0,0
219087,275264017,0,6.00E-07,6.00E-07,6.00E-07,0,2
424440,503463534,0,0.1185725,0.1151673,0.1992403,0,4
276313,338863567,0,0.1289269,0.1156585,0.1771745,0,0
54039,91263480,0,0.1198592,0.1196071,0.1789925,0,0
187983,240663696,0,6.00E-07,6.00E-07,6.00E-07,0,0
224662,281464036,0,6.00E-07,6.00E-07,6.00E-07,0,2
192292,245463442,0,6.00E-07,6.00E-07,6.00E-07,0,2
310549,376963321,0,0.07330848,0.07553677,0.0024845,0,3
110085,153963390,0,0.1659363,0.1272479,0.251508,0,1
265870,327264042,0,0.1308026,0.1197659,0.2323908,0,0
123711,169263934,0,0.1283695,0.1495723,0.2690189,0,0
302531,368063549,0,0.08510371,0.08889426,0.00263261,0,3
245700,304863839,0,0.2639983,0.1968763,1.740574,0,0
252002,311863538,0,0.127316,0.1145313,0.2078397,0,0
130915,177264066,0,0.1558179,0.1283347,0.2948039,0,0
197234,250963741,0,6.00E-07,6.00E-07,6.00E-07,0,2
76188,115863636,0,0.1150928,0.116658,0.1276718,0,1
272081,334163781,0,0.1264082,0.1199991,0.1670497,0,0
348013,418563341,0,0.1327052,0.1016817,0.1607561,0,0
305776,371663775,0,0.08297391,0.08369421,0.00298622,0,3
410661,488163823,0,0.1199154,0.1162465,0.1556896,0,4
412554,490263816,0,0.1096806,0.1178421,0.1759358,0,4
304513,370263502,0,0.0767151,0.07258578,0.00302016,0,3
360071,431963812,0,0.1109054,0.1073537,0.1593918,0,0
227359,284463669,0,6.00E-07,6.00E-07,6.00E-07,0,2
152873,201663469,0,0.1481757,0.133118,0.264428,0,0
400399,476763385,0,0.1042965,0.1010035,0.1504128,0,4
238318,296663787,0,6.00E-07,6.00E-07,6.00E-07,0,2
321083,388663639,0,0.1061789,0.1127231,0.00279169,0,3
63864,102163285,0,0.1136318,0.1185675,0.1587904,0,0
125693,171463887,0,0.1278683,0.1224049,0.2089538,0,0
209201,264263419,0,6.00E-07,6.00E-07,6.00E-07,0,2
425791,504963767,0,0.01697546,0.01982408,0.1947723,0,4
255065,315263844,0,0.1159017,0.1208214,0.167725,0,0
368628,441463344,0,0.1123669,0.1283156,0.1666389,0,0
114534,158963889,0,0.1419494,0.1254388,0.2415475,0,1
293854,358363264,0,0.1238069,0.6579698,0.5672728,0,3
136138,183063412,0,0.1629204,0.1401677,0.2570586,0,0
433327,514263379,0,0.00304543,0.00301472,0.00303654,0,4
377094,450863749,0,0.1453259,0.1455259,0.2270682,0,4
195527,249063668,0,6.00E-07,6.00E-07,6.00E-07,0,2
296172,360963890,0,0.07835736,0.0828793,0.01356862,0,3
298675,363763603,0,0.07455616,0.07397954,0.003069,0,3
425068,504164087,0,0.1183288,0.1089933,0.145298,0,4
84910,125663881,0,0.1447422,0.1286661,0.2391372,0,1
19616,53063766,0,0.1189341,0.1301265,0.1605663,0,0
105102,148363964,0,0.150994,0.1182231,0.2752883,0,1
254524,314664084,0,0.1238573,0.1180688,0.1790348,0,0
94162,136063886,0,0.2516245,0.1784758,0.404067,0,1
