LineNO,TimeUS,RDes,R,Rout,PDes,P,POut,YDes,Y,YOut,ADes,A,AOut,labels
340420,410163369,2.452054,-37.63402,0.6671085,-4.356002,-140.6608,0.6380006,3.448024,1.897259,0.00139785,-76.75306,-25.64383,0.3503523,0
184713,237063470,10.91009,-189.017,1.072,-20.8748,-16.95706,-0.6487175,-1.558685,1.08994,-0.00316041,9274.284,-1036.64,1,0
242529,301363573,23.55373,-19.57057,0.6763374,44.37856,-112.6914,0.6129587,-48.74887,-21.1437,-0.01858246,356.0417,-1125.106,0.3580591,0
363378,435663998,-3.773822,-101.3874,0.8916198,-1.013024,-109.7689,0.2330914,-5.16707,4.2939,-0.01685318,0.8642058,-2.930355,0.3609183,0
125844,171663807,1.517852,-56.59896,-0.08798747,-15.48679,133.1258,-0.9480072,-44.23863,13.78997,-0.09675629,-4.620901,8.462715,0.4066958,0
248917,308464065,-5.891759,121.1175,-0.4252875,7.088037,-69.66405,0.8260024,2.283389,2.965049,0.00031649,305.2659,64.77928,0.3601063,0
37877,73363976,-11.18384,38.57098,0.1908946,-0.4104252,-153.2642,0.8804139,-109.3965,-47.69025,-0.1126639,14.59404,-7.8228,0.3922879,0
319887,387363326,-44.32486,-0.01232606,-0.397138,16.50512,-0.02056885,0.5389676,-134.4691,-1.195866,-0.2093774,1591.315,0.1738548,1,3
282862,346163979,-6.718688,141.0451,-0.8144038,-29.2538,-24.85453,0.4486676,2.834208,2.948931,-0.00056099,-1.313735,-5.86853,0.3501869,0
88887,130163747,-5.737834,-122.2965,1.001061,9.085702,-117.312,0.2656209,5.038497,4.131,0.00037015,33.0155,-20.68386,0.4671068,1
92892,134663613,1.709154,55.17271,-0.8999478,-6.806408,174.87,-0.7655374,3.101729,2.916094,-0.00078704,-10.57856,-7.001972,0.5142124,1
211508,266864045,16.63978,13.95775,-0.384544,-29.50235,98.68785,-0.6921206,7.560685,8.60723,0.00506603,-299.7929,-1047.743,0.2936248,2
66093,104663951,1.883388,-118.9988,0.8310718,12.58969,-50.82781,-0.05208787,3.331298,2.097174,0.00133833,-3.055755,-12.33187,0.3712557,0
233526,291363408,-26.27393,30.93056,-0.8349512,1.401271,162.2244,-0.6297678,-9.50886,-1.972797,-0.00815881,924.7263,-1034.96,0.4144383,2
413335,491163456,6.772951,-134.7741,0.7127895,3.499215,19.34731,-0.5335302,2.216828,2.517236,-2.17E-05,1.912865,1.162434,0.3374203,4
178597,230263691,15.58674,54.72657,0.1446278,55.88022,-57.46202,0.8353597,16.0421,25.61892,0.00048079,-1435.704,-1104.281,0.3366461,0
240545,299163620,-1.328287,-111.7366,0.2644958,-4.389565,75.2502,-0.7546555,131.4058,84.3565,0.09067379,-797.9921,-1011.552,0.3188304,2
256659,317063957,-6.768853,0.379742,0.3976237,8.07435,-150.7766,0.7866706,-4.62043,3.157156,-0.0138523,2.529462,-10.22997,0.3599755,0
196581,250264021,-9.997479,126.7971,-0.3945192,6.182999,-92.39788,0.9034487,5.417924,-2.766043,0.01023301,-221.6389,-1026.446,0.3853297,2
238741,297163587,15.72931,85.06868,-0.7678808,4.402475,135.6407,-0.4000962,-77.98318,28.11006,-0.1298849,-265.3172,-1136.78,0.3583428,2
412254,489963936,7.833106,-96.77821,0.2382294,-1.091623,92.63781,-0.7835526,2.256422,2.816133,7.57E-05,-1.658285,-4.693699,0.3372809,4
361036,433063372,7.957972,-106.2758,0.3228318,-0.1424811,79.8565,-0.8056544,3.693385,3.539398,0.00154637,4.857807,-6.896687,0.3433544,0
285292,348863732,-2.852331,18.39459,0.3466849,8.330886,-132.8263,0.8155892,2.663039,2.499729,0.00024381,4.870767,6.480789,0.3414729,0
110860,154863863,-0.4943374,-145.5238,0.6471236,0.09601897,39.09893,-0.6638108,0.9290377,3.445455,-0.00330462,-1.178796,-3.792667,0.4143986,1
297216,362163410,-3.967332,-0.02826036,-0.07163293,46.4517,-0.02007869,0.6094057,134.4962,-0.389039,0.2615359,1601.565,0.02880096,1,3
367069,439764024,7.98554,-137.6966,0.851239,3.281061,-18.40974,-0.3399284,2.062165,2.671635,-0.00073105,13.21557,18.05782,0.3492007,0
61315,99363572,-0.3639264,80.80801,-0.8066601,22.66525,138.0933,-0.3382679,2.821921,-0.6907153,0.00388513,-0.6180488,-5.332375,0.3747403,0
155007,204063342,-10.80359,117.3171,-1.002044,-6.726901,97.51879,-0.1522125,-0.9542415,4.721235,-0.00850505,0.6270335,20.1808,0.4215323,0
78919,118964062,1.357449,-48.70041,0.665081,34.87502,-93.53175,0.5107665,-0.6950673,-3.82548,0.00062339,-4.330088,-7.522392,0.3754241,1
56719,94263946,-3.75364,63.49482,0.03811263,33.40399,-92.38023,0.861028,0.8449782,9.552686,-0.0089885,0.7515697,5.493546,0.3809735,0
171298,222163599,9.440947,-9.961795,-0.4106138,-11.05779,132.7331,-0.828768,107.7663,26.13565,0.1218267,10.66014,1.050949,0.3853049,0
71683,110863970,9.392948,-116.3726,0.4387612,-0.1610024,61.36124,-0.7116179,2.809844,2.890177,0.000879,-1.377465,0.2382278,0.3751864,1
21572,55263719,0.8104259,-80.43813,0.8190938,8.841693,-117.025,0.3846803,4.533266,3.862286,0.00116758,12.14639,10.39362,0.4104989,0
417569,495864075,6.102367,-117.3399,0.4330102,1.611121,60.79752,-0.7067878,2.060353,2.363476,-5.82E-05,-1.899546,-4.590797,0.3369242,4
266651,328163682,5.025304,-55.07597,-0.09379251,1.878098,131.3418,-0.8186623,-1.378259,1.938785,-0.00566714,9.432376,-0.7501602,0.3427444,0
13789,46563867,-0.3423309,0.02110457,-0.00086925,-0.295975,0.01404738,-0.00073196,0.00020248,0.1301956,-0.00020534,0.07753372,0.07753372,0,0
184986,237363350,40.25436,204.0669,-1.125661,-126.388,-16.73786,0.1997745,-14.20564,-1.615346,-0.01749951,-467.6751,-1056.33,0.453758,0
327629,395964051,-46.58204,-0.00950629,-0.4191948,7.084955,-0.02882266,0.5166429,-134.4763,-1.183208,-0.2094114,1591.592,0.1125336,1,3
207734,262664059,2.465542,63.70272,-0.721714,-19.07559,107.8637,-0.5290956,50.23188,24.49198,0.05771964,193.6931,-1050.412,0.3458771,2
115130,159663609,-1.722928,-110.5812,0.2605466,-2.854815,102.3628,-0.9512036,1.529534,3.55328,-0.00236119,0.5463383,6.593704,0.4148448,1
59602,97463499,-2.575291,-27.62324,0.5939487,-29.72914,-163.6937,0.6250285,13.16806,2.288332,0.01226402,-10.43379,-8.765125,0.3722337,0
191188,244263922,-4.149217,95.63923,-0.2524911,6.447446,-78.84566,0.7579356,-8.896263,6.625829,-0.02172402,-259.3922,-1129.549,0.3112375,2
108277,151963357,-14.42682,143.5721,-0.6192733,0.4125586,-49.48205,0.7577511,11.98429,3.596051,0.00891835,11.17055,19.98291,0.4182794,1
28244,62664091,6.523367,-133.1609,0.7228317,2.761496,5.640605,-0.447047,2.313288,2.165763,0.00045791,6.918555,2.093506,0.3758269,0
156266,205463615,-14.62426,148.7968,-1.017149,-5.261829,55.09455,0.1722642,4.359152,2.878417,0.00258974,0.7654676,21.93003,0.4210078,0
197478,251263621,-1.752146,105.1675,-0.1204194,23.26361,-98.22092,0.9654738,-10.91957,-15.86387,-0.00117026,-168.6624,-1127.916,0.3730969,2
367247,439963944,5.25667,-131.9989,0.857103,2.599204,-36.22109,-0.2382855,1.785377,2.296198,-0.00093891,-7.299179,0.70858,0.3443038,0
136111,183063412,-4.324409,-24.98373,-0.3811745,-6.817697,149.6584,-0.9251487,3.873233,1.744985,0.00339193,-0.02294641,13.30185,0.4214161,0
285202,348763772,5.18315,-11.23907,-0.3813438,-2.666253,138.1622,-0.8121475,2.95459,2.348237,0.00067313,5.302813,-7.192326,0.3412327,0
103385,146463891,-0.9760897,-153.8535,0.7117023,2.341393,28.6232,-0.6260505,2.113234,2.836487,-0.00068631,-1.273966,-13.85832,0.4291569,1
132149,178663506,-4.174961,-35.12559,-0.325721,-2.647399,153.2278,-0.9630235,3.580766,3.559883,0.00090663,1.074532,16.59012,0.4228067,0
34185,69263950,6.377975,-88.5051,0.171114,-2.725146,100.047,-0.826842,2.080718,3.040778,-0.0006976,-0.8435128,0.4451752,0.37591,0
301423,366864029,-8.324765,-0.01058707,-0.148199,46.14457,-0.01506626,0.6087577,134.4855,-0.5480644,0.2617931,1600.516,0.1811028,1,3
392365,467863613,-16.12356,84.51581,-0.1851049,7.885322,-91.30247,0.8425485,2.348334,2.291309,0.0004952,14.33698,9.447289,0.3427043,4
140337,187764031,-8.291174,-6.228359,0.5097747,8.361933,-151.3567,0.7879483,1.756337,-0.1198849,0.00142116,-1.46093,-16.05911,0.4186499,0
44546,80763515,5.205192,-102.4634,0.8757205,9.591106,-84.2851,0.136951,3.388833,1.825005,0.00195038,2.594544,7.572269,0.3768061,0
274847,337263374,-1.532551,-63.18523,0.7266518,36.03743,-99.68667,0.4745142,8.419212,7.504323,0.00450597,8.621795,1.902199,0.35267,0
400194,476563465,1.978655,46.0435,-0.6315023,-5.978763,114.7148,-0.4804358,1.905243,1.82819,-0.00041465,-148.9778,-87.18452,0.300765,4
178508,230163731,0.9018121,-63.39044,-0.3987299,67.61405,205.554,-1.020903,28.14188,24.39994,0.02016498,-1226.349,-1108.325,0.4856239,0
76786,116563356,-2.700055,12.83978,0.3770452,6.388915,-134.6439,0.7803128,1.924881,2.200121,-0.00063508,-1.113452,6.152534,0.3761959,1
176792,228263658,-2.865334,-66.2735,0.7388183,29.70847,-104.5925,0.4830676,1.866259,0.7641543,0.00021062,-7.060623,-15.11221,0.3960582,0
357612,429264059,-2.106991,134.9667,-0.8296942,-5.231861,17.28415,0.3336392,3.257142,3.512969,0.00048204,-0.7571747,3.461456,0.3423387,0
383639,458163328,2.995821,-110.4168,0.2424975,-9.639157,112.0474,-0.9386014,2.668946,3.910057,-0.00033178,1.633199,16.99228,0.3829173,4
2034,15763692,-0.07983949,0.01186255,-0.0002296,-0.03453669,0.01064557,-0.0001255,2.65E-06,1.310079,-0.00207322,0.4595757,0.4595757,0,0
7963,23164064,-0.1983382,0.01586849,-0.00054518,-0.12379,0.01122363,-0.00033552,4.60E-05,0.5681159,-0.00090143,-0.03185272,-0.03185272,0,0
366619,439263391,-5.35219,133.9635,-0.7388253,-2.738801,-5.805636,0.4753512,2.999814,3.003946,0.00083571,-2.405848,3.340816,0.3423588,0
283854,347263539,1.695994,-99.96368,0.8811383,36.34072,-63.88994,0.1766243,2.407306,2.417412,-0.00108894,-6.671161,-7.787132,0.3495552,0
306918,372964088,-18.67977,-0.00912272,-0.3336337,43.55077,-0.02817865,0.6028888,134.4879,-0.9508567,0.2623966,1594.114,0.05931854,1,3
77942,117863669,0.4119051,57.79605,-0.7075965,-13.94237,114.9755,-0.497487,14.41476,19.16227,0.00069053,-4.203444,5.213928,0.3895332,1
354460,425763793,-4.914186,36.59543,-0.6664994,-17.47772,131.9486,-0.6116599,-15.30615,5.497249,-0.03539668,-20.84785,-10.73961,0.356811,0
23103,56963872,-0.9141796,72.82088,-0.7961957,-8.411769,124.1105,-0.4412706,3.860445,2.213362,0.00176956,4.527735,1.118851,0.4104914,0
387954,462963907,-13.45123,102.6117,-0.2202207,-4.507955,-106.4174,0.9191197,2.974591,3.073632,5.45E-05,-0.41923,-25.39244,0.3789099,4
406225,483263284,2.571579,-5.709878,-0.4534536,-6.813315,146.2788,-0.8563288,3.053841,2.014005,0.00109401,144.8082,104.6864,0.3678706,4
77853,117763709,1.058863,-41.70674,0.6418314,-14.01871,-155.5479,0.5944029,21.13411,18.00379,0.01273576,-2.434654,-3.568172,0.3872985,1
158698,208163368,10.56863,-104.8884,0.8731452,16.27301,-65.20403,0.05030267,-0.9090641,-13.31591,0.01586318,-5.492514,-21.06304,0.3753426,0
342851,412863955,6.989262,-129.6118,0.6417311,15.26834,24.70938,-0.4950035,4.108056,2.70139,0.00222523,-72.59941,-48.37132,0.3244798,0
235776,293864074,-6.193316,-50.044,0.7818685,0.6264308,-190.2343,0.7831078,-0.2231636,-0.9944569,-0.00158561,621.6898,-1022.789,0.4378454,2
124855,170563414,-7.623408,70.73079,0.00839916,3.384236,-125.6273,0.9370688,53.42501,57.05639,-0.00995502,15.58573,-6.281376,0.3989208,0
60324,98264012,-5.89045,-37.43044,0.6195014,-0.2989258,-143.4744,0.615032,1.870792,9.02,-0.00988026,1.509835,-14.13364,0.3930146,0
141597,189163471,-11.23468,-21.72167,0.5976038,8.53353,-152.6315,0.7762424,1.781825,2.954563,-0.00266018,-1.217881,-21.01574,0.4193549,0
42655,78663522,-7.28651,77.83541,-0.8472943,-15.74448,116.2754,-0.4153996,7.228699,2.914537,0.00725114,-4.618936,7.636833,0.39536,0
343033,413063875,6.279188,-129.8329,0.6916484,14.03574,5.358469,-0.3901003,3.339761,3.040078,0.00057797,-89.58427,-59.51281,0.3142562,0
43375,79464035,0.7798217,69.30204,-0.7378761,25.90609,145.7099,-0.3840074,0.1345576,2.865503,-0.00495109,-4.084013,-1.743889,0.3745365,0
402443,479063298,-5.983707,100.735,-0.2864322,1.851658,-82.53407,0.8052525,1.984163,2.606379,-0.00024123,20.27344,12.61683,0.3308487,4
75539,115163916,-3.195596,57.06657,0.0814756,6.385634,-120.8946,0.8445401,2.643551,1.235163,0.00215188,5.949859,10.39267,0.3774717,1
46802,83263348,-6.618451,134.8202,-0.9209808,-11.02202,47.8825,0.1421875,2.582969,2.759955,-0.00028994,-9.418812,-0.7914543,0.3916128,0
332945,401863357,-14.59125,42.82919,-0.7850856,-17.93286,141.8363,-0.6578921,-16.66375,-9.914765,-0.02110941,4.608688,25.69132,0.3896987,0
96361,138563719,-18.49664,86.68137,-0.05925117,10.28928,-140.0187,1.074561,3.442756,4.03056,0.00012372,-23.51511,-4.93679,0.4726037,1
407934,485163357,-7.095088,125.0191,-0.5543569,-0.2713394,-43.94314,0.6605961,2.236028,2.47052,0.00057675,-9.652069,-6.838989,0.3353492,4
60952,98963732,0.2115645,61.3411,-0.7212068,21.10968,148.0499,-0.4677327,-2.3903,-0.05344545,-0.00577677,-2.194348,10.44588,0.3900437,0
114774,159263769,-0.2608571,-131.8775,0.5097393,-1.524863,61.86675,-0.7629189,3.025647,3.80701,-5.40E-05,1.040131,3.535271,0.4134391,1
69431,108363304,-11.41611,133.2892,-0.6176215,-8.038354,-44.35728,0.6670309,4.626929,1.748017,0.00488644,8.359844,0.5299568,0.3938978,1
430060,510163353,-0.7699916,-0.01961421,-0.00238198,0.6714337,-0.02063827,0.00404865,-0.00081847,-0.0298962,0.00068265,0.1602173,0.4070282,0,4
6362,21164031,-0.1704916,0.01610656,-0.0004578,-0.09922436,0.00801183,-0.00025399,3.23E-05,0.7012638,-0.00110818,0.1483917,0.1483917,0,0
361487,433564005,-6.484405,127.6739,-0.5597055,-0.5038576,-48.81528,0.6906707,1.691893,3.306141,-0.00144766,-0.8889256,-3.278828,0.3427585,0
68711,107563624,-10.37956,115.831,-0.468379,-37.37013,-94.1554,0.7116085,-1.331743,1.198279,-0.00502711,-14.41208,-26.08328,0.3694134,1
379321,453363582,-11.05169,102.5256,-0.2154032,-4.196918,-115.4235,0.8942462,3.07079,3.569103,2.34E-05,2.368788,-20.17412,0.3767027,4
102141,145063618,1.446422,-132.9294,0.391958,0.257384,94.06195,-0.9466321,2.211531,3.069241,-0.00044279,-2.768493,-5.258369,0.4357414,1
106410,149863364,-0.359528,-143.3013,0.6145424,1.254808,47.42289,-0.744544,1.260743,3.817816,-0.00295162,-1.696863,-9.629631,0.4206762,1
2597,16463412,-0.1116569,0.00763247,-0.00028175,-0.05380171,0.00388671,-0.00012523,6.58E-06,1.207245,-0.00191127,0.3354073,0.3354073,0,0
138365,185564078,-10.94946,-5.610722,0.4923061,8.772898,-157.9195,0.8126215,2.702142,2.575784,-0.00064865,0.2224644,-14.46161,0.4191695,0
43734,79863875,-1.711738,64.67413,-0.7227035,-2.026134,120.1155,-0.4146824,0.2876861,0.7148048,-0.00227839,5.747324,-0.8710861,0.3756516,0
432195,512863939,-0.7699916,-0.01819339,-0.00239807,0.6714337,-0.01330776,0.00400004,-0.00081847,-0.02717421,0.00068464,0.1602173,0.358963,0,4
213039,268563365,-11.53699,-5.737947,0.5757016,32.89017,-154.0812,1.006678,22.82998,-2.309739,0.04700308,939.4656,-1102.39,0.4505903,2
238652,297063627,15.52091,-73.79844,0.8507437,18.03369,-100.1386,0.3008694,-35.18526,40.0241,-0.07812019,-257.6434,-1139.076,0.3620209,2
366079,438663631,-6.598199,125.9328,-0.5128377,-1.676883,-55.23925,0.7256403,2.968653,2.141273,0.00194789,0.7090522,9.026909,0.3442768,0
375808,449463476,-10.41398,143.902,-0.6332989,-9.480831,-58.41988,0.7742611,3.653669,3.833038,0.00076889,2.376255,-18.46714,0.3831361,4
254047,314163451,-6.344328,135.9802,-0.675554,-0.2347632,-24.75611,0.5931749,1.636201,2.96967,-0.00121046,61.42001,13.82561,0.3464231,0
355901,427363986,6.752119,-76.80386,0.0676385,1.62179,113.8557,-0.8877673,3.771636,6.529147,-0.00197095,5.388831,-11.27605,0.340481,0
419549,498064028,3.81286,-93.88776,0.8139091,6.513132,-92.11284,0.1916687,2.096221,2.120173,-0.00028195,-0.3777172,-5.176735,0.3366749,4
146551,194663770,-7.883365,57.68615,-0.7686347,-7.913507,138.4962,-0.5771878,1.111327,1.388862,-0.00132544,-0.04548666,15.67163,0.4215531,0
222930,279563963,-4.707532,-171.1065,0.5266239,34.82126,136.486,-1.010044,18.70917,-11.26761,0.04877394,807.2577,-1098.244,0.4798932,2
375447,449063636,-6.418015,130.2875,-0.442664,-7.137188,-85.39211,0.7983007,3.742616,3.425709,0.00134874,3.036493,-22.9516,0.3807705,4
60231,98164052,-1.538373,51.69948,-0.694675,-14.77023,130.2431,-0.5691912,4.149251,9.965249,-0.00640586,1.357547,9.923935,0.3919719,0
377878,451763389,-3.959737,-48.23144,0.7287029,1.096872,-143.097,0.6468443,2.959199,2.301804,8.59E-05,0.3978215,-16.42513,0.3765431,4
371036,444163930,-6.705695,130.1472,-0.563285,-1.827698,-47.53856,0.6124209,1.972759,2.485435,-0.00028608,0.2033441,2.375603,0.3424405,0
253865,313963531,-6.593868,130.5963,-0.5882201,1.338401,-40.60967,0.667317,1.852637,3.313355,-0.00110467,64.04955,13.74769,0.3458753,0
113885,158263336,0.4557477,-135.3841,0.530906,-1.048744,59.50406,-0.7928063,0.4106303,1.556188,-0.00195977,1.448095,-0.9284973,0.4127313,1
94402,136363766,-13.25038,61.10501,0.1845849,13.4996,-168.9941,1.114105,3.488462,3.928541,-0.00031088,-27.84403,-4.379368,0.4954433,1
128096,174163640,-11.82825,0.6991742,0.4384232,6.92288,-148.8373,0.8185842,-5.991712,-3.341237,-0.00900353,-1.973902,-12.012,0.4175998,0
375629,449263556,-7.508853,146.7009,-0.5989516,-8.87816,-61.88752,0.7057199,3.846291,3.468774,0.00127322,1.958577,-17.98201,0.3815096,4
327091,395363458,-46.58942,-0.00845481,-0.418371,7.512565,-0.01537089,0.5176873,-134.4238,-1.187589,-0.2092995,1591.489,0.09012222,1,3
36165,71463903,5.769773,-50.47819,-0.1177328,-5.585299,125.4458,-0.8335949,2.60444,2.743545,8.13E-05,-0.3137539,-0.1441956,0.3758842,0
298200,363263803,-4.697119,-0.02198402,-0.08375525,46.17961,-0.01640201,0.6090004,134.5042,-0.4100561,0.2616041,1602.557,0.0535965,1,3
366890,439563271,6.761113,-140.7751,0.8314789,4.496863,-16.17217,-0.3782805,2.410529,2.962379,-0.0002457,44.71788,31.67696,0.353487,0
258188,318763277,7.426256,-115.5539,0.3932467,1.073954,75.54254,-0.7913033,2.127372,4.499702,-0.00209325,35.54682,4.020405,0.3435105,0
217076,273064064,-108.9405,-196.6806,0.09702355,16.12884,121.3086,-0.824433,-3.666395,9.290599,-0.01631953,-125.2629,-1060.656,0.3261702,2
15264,48264020,-0.4102853,0.01613604,-0.00100943,-0.3623815,0.01806183,-0.00091032,0.00029074,0.121807,-0.00019412,0.0992775,0.0992775,0,0
136472,183464085,-6.027954,-0.2817234,-0.4923662,-7.08729,154.9338,-0.8459101,4.031956,3.357828,0.00175844,1.337946,21.9841,0.4225093,0
346815,417263861,-8.438953,106.2646,-0.295596,12.85588,-66.70101,0.7732931,2.917109,-0.8636653,0.00538858,-4.905484,-2.901268,0.3391113,0
151863,200563909,-7.689909,-79.92319,0.817893,8.574195,-128.1525,0.4379346,2.993562,2.985889,-0.0010592,-1.001403,-26.85814,0.4198547,0
155548,204663935,-11.15001,105.9667,-0.9353591,-7.596532,114.1436,-0.2847048,-0.3821287,-0.00587552,-0.00262748,-0.5364833,16.6357,0.4199284,0
91378,132963460,-0.2876815,-53.95549,0.891921,12.27061,-174.6365,0.7857273,4.310443,3.149886,0.00078252,10.77942,-9.784794,0.5099434,1
359051,430863419,-2.167064,43.96615,-0.7079496,9.544605,146.6819,-0.5721987,10.30355,3.190839,0.01305736,-10.85934,5.800438,0.3587683,0
41301,77163289,-0.04000997,-33.33461,0.6141706,5.911369,-128.8943,0.5994023,-3.257087,5.578873,-0.01327139,-2.37838,-2.043629,0.3759766,0
149342,197763363,-6.845693,-79.9384,0.8523281,8.824543,-131.1546,0.4690315,2.936583,-2.369665,0.00543705,-0.2176002,-26.74208,0.4186234,0
7643,22763391,-0.1842992,0.00864743,-0.0004465,-0.1132469,0.00482212,-0.0002659,4.40E-05,0.594286,-0.00093887,-0.00772476,-0.00772476,0,0
123144,168663341,23.85916,-106.8198,0.3428446,4.627792,103.2369,-0.941503,37.32995,33.33344,-0.00243301,12.85239,-14.32838,0.4190889,0
283402,346763739,-9.13847,130.7579,-0.937767,-15.10021,49.757,0.1164408,2.72007,2.286651,0.00050635,-4.089664,-2.65274,0.357458,0
345641,415963548,3.979343,-10.87663,-0.3890069,-15.30028,138.9687,-0.8081552,8.811501,14.88319,-0.00407239,2.175351,15.24382,0.3602308,0
90578,132063820,-9.200797,67.86113,-0.9244785,-6.023948,166.1451,-0.6776275,3.395633,4.032308,-0.00125354,53.00188,27.54879,0.5092629,1
136742,183763965,-13.17481,35.82981,0.2473219,6.72933,-151.6954,0.9403074,3.063024,3.872998,-0.00070421,0.6510132,-11.27396,0.4192895,0
232633,290363808,1.978439,30.28679,-0.5256379,34.65532,163.8437,-0.5986475,-1.248968,-18.97852,0.02127165,175.4412,-1119.915,0.3033461,2
229130,286463702,-8.114813,-121.6214,0.9344705,-2.745891,-107.196,0.2546065,39.48059,1.580724,0.06144048,484.9604,-1108.075,0.381894,2
4924,19363918,-0.1335242,0.00826563,-0.00032158,-0.07334592,0.00355877,-0.00017873,1.85E-05,0.8531575,-0.00134829,0.2651215,0.2651215,0,0
4682,19064038,-0.1332252,0.00901744,-0.00034563,-0.07390461,0.0047094,-0.00018561,2.23E-05,0.8813621,-0.00140029,0.1951218,0.1951218,0,0
186336,238863583,3.754618,-28.26068,0.5966031,8.603245,-124.4809,0.6435732,8.908178,6.436551,0.00823767,-695.6476,-1139.242,0.316847,0
80875,121164015,1.66044,-84.21175,0.7849292,7.197161,-106.9547,0.3078558,2.470098,0.5553376,0.00173437,-0.8207281,-1.498413,0.3756151,1
32385,67263917,6.708702,-113.7859,0.3999923,0.574287,67.93579,-0.7286494,2.647961,2.9685,0.00042067,-1.155996,2.333069,0.3759374,0
73938,113363803,-11.38315,82.14233,-0.1093032,-2.519078,-116.0074,0.8746229,7.943215,0.4312216,0.01216186,-3.817593,-13.03854,0.3911706,1
364997,437463278,-3.008204,55.17752,0.105959,7.966883,-121.357,0.8972201,2.001354,3.903288,-0.0019686,4.138595,7.710075,0.3432253,0
233616,291463368,-21.44435,-90.87247,0.8732681,16.00647,-143.114,0.6311797,-7.921665,-3.016819,-0.01048949,883.3231,-1037.724,0.4206342,2
163912,213963547,7.836127,-132.0615,0.7577481,9.390492,2.049507,-0.4331346,-5.695337,19.74308,-0.03183762,7.95115,4.236412,0.3757192,0
314752,381663940,-36.21336,-0.01421321,-0.3764163,28.55803,-0.01920921,0.5658335,65.85152,-0.9642484,0.1852445,1591.444,0.09536743,1,3
317003,384163773,-42.95606,-0.0257085,-0.3909848,19.81292,-0.02218569,0.5467581,-134.4688,-1.182507,-0.1983594,1591.376,0.05578995,1,3
149252,197663403,-9.113667,80.86515,-0.8956182,-6.404371,131.6754,-0.4668671,0.6525465,-2.85114,0.00299812,-0.2830851,17.86098,0.4208382,0
12286,28563570,-0.2467059,0.01356383,-0.00060954,-0.1824156,0.01710948,-0.00047086,6.42E-05,0.3603296,-0.00056536,0.04796982,0.04796982,0,0
382649,457063768,-8.481438,8.867084,0.4262366,-0.3853236,-152.5756,0.8074156,2.920012,3.076342,-0.00016186,3.533736,-27.98805,0.3807219,4
278630,341463360,-6.120233,134.3175,-0.9006359,-13.04744,56.36348,0.08690301,3.052736,6.315409,-0.0038045,4.805815,3.393555,0.356213,0
209529,264664092,-26.6869,7.250673,-0.7847257,2.318404,189.3201,-0.8840966,33.79152,-0.953027,0.06027703,7226.62,-1100.957,1,2
176163,227563938,-1.667028,-0.372414,-0.4449781,-15.78039,136.3545,-0.7870029,-0.9515527,3.743924,-0.00730565,-6.369952,11.03363,0.3941855,0
51397,88363807,3.450103,-133.7007,0.585291,-8.178419,40.19975,-0.6761914,-1.693956,11.03497,-0.01695058,-10.19898,11.52534,0.3932329,0
409105,486463670,5.361155,-127.4627,0.8638494,5.313676,-45.27349,-0.1598706,2.135888,1.939422,-0.00010505,-0.5773191,-4.367924,0.3368781,4
94758,136763606,-15.37019,28.67758,0.4197907,13.62763,-178.107,1.082559,3.468284,3.229512,-0.00017764,-29.44846,-15.42616,0.4890632,1
61945,100063292,2.108731,-74.74596,0.7881774,12.08784,-107.5859,0.374388,4.256388,3.08151,0.00191132,6.542161,5.82943,0.3764029,0
25987,60163425,-3.235869,103.0733,-0.8012224,-6.038465,68.81788,-0.04155357,2.291762,1.333543,0.00099651,-117.1159,-99.2815,0.3461725,0
45626,81963868,2.926278,-103.2381,0.8347993,5.243309,-87.41237,0.1498201,1.864224,1.45911,-0.00012428,-1.862357,0.8676529,0.3760538,0
291242,355463591,-46.42225,-10.81089,-0.1057901,19.11775,-107.3832,0.348032,79.34677,3.489454,0.1225875,1544.918,1005.045,0.9572161,3
282412,345663346,5.064207,-130.1812,0.6259539,-26.10965,3.212827,-0.5882077,1.747796,2.634756,1.78E-05,5.556684,3.369236,0.3431831,0
84527,125264041,-8.672283,118.259,-0.9679363,-6.844987,101.4271,-0.182652,2.922026,1.889256,0.00116706,-8.214363,3.622627,0.4189965,1
55726,93163553,3.611562,-38.67215,-0.2397819,-11.27771,134.2497,-0.9089351,-0.5022366,-15.89016,0.01683448,9.274349,19.31038,0.3929201,0
400912,477363978,1.9417,12.21415,-0.4441807,-4.909345,117.0355,-0.6269185,1.330535,0.9393544,-0.00017888,-130.5763,-110.5276,0.2880339,4
350865,421763727,-7.638387,63.30912,0.03783368,10.45104,-115.0571,0.8732177,-2.821259,5.301097,-0.01160426,5.949758,3.71933,0.3428599,0
317814,385063413,-43.28788,-0.01138893,-0.3918728,19.08652,-0.02425868,0.5450013,-134.4686,-1.184033,-0.2094111,1591.404,0.08487701,1,3
329342,397863291,-46.77897,-0.01454868,-0.4231754,5.431745,-0.01688395,0.5128154,-134.4773,-0.8112867,-0.2096622,1434.404,496.862,1,3
29503,64063531,6.293097,-132.0646,0.6057562,2.215705,38.51435,-0.6367405,2.2473,2.687299,-0.0002534,0.535169,5.978107,0.3766187,0
253507,313563691,-6.534172,117.864,-0.4240737,5.015133,-67.0434,0.7851526,2.959327,3.807672,0.00052336,61.378,13.56726,0.343938,0
231463,289063495,-0.50668,-2.690208,0.3625576,-3.348142,-121.2403,0.5869797,-0.6205938,-3.402422,-0.00122005,-1382.738,-1026.24,0.2025501,2
6203,20963278,-0.1524222,0.00812511,-0.00035783,-0.08848622,0.00775028,-0.00023084,3.03E-05,0.7170792,-0.00113206,0.04253387,0.04253387,0,0
276286,338863567,-3.00676,70.03745,0.01751484,5.704221,-121.0398,0.8669851,5.028213,1.88458,0.00559712,1.521446,9.206295,0.3426912,0
234876,292863641,-7.178975,-88.25002,0.8378699,-1.460548,-140.9348,0.4603766,1.41562,-2.990673,0.00536805,332.5958,-1000.903,0.38987,2
122333,167763701,-13.21726,91.5401,-0.3747905,102.8555,91.10977,0.5545608,46.50096,14.05375,0.05957061,-32.0937,-19.14272,0.3666243,1
281061,344163946,-5.394823,50.35951,0.11882,5.080054,-122.9939,0.8886315,1.782439,2.40223,-0.00094093,-0.7600788,7.156467,0.3417725,0
99828,142463825,-1.304687,-151.5666,0.6195483,3.490251,56.69698,-0.7723691,2.108743,3.024834,-0.00095301,-7.108263,-26.94044,0.44782,1
371487,444663730,9.591562,-133.0715,0.7332531,0.08451292,13.12825,-0.5215647,2.07559,2.414084,-3.45E-05,3.989147,1.541615,0.3431031,0
373646,447063603,5.90842,-30.07144,0.6521158,-3.341404,-143.8171,0.6735405,2.788117,1.812647,0.00103988,-0.8438486,0.8237839,0.3562438,4
217257,273263984,-21.92656,-132.9392,0.1953283,-7.506889,114.593,-0.9034892,-11.90583,4.613011,-0.02310108,-98.97856,-1018.887,0.3496631,2
393537,469163926,6.458934,-138.6946,0.6988423,4.279007,16.48285,-0.5434933,2.705165,2.464498,0.00102567,-1.904606,-10.80647,0.3468269,4
111927,156063383,0.2291714,-137.7739,0.5616416,0.2063404,52.21155,-0.7610871,2.93511,2.781007,0.0010336,-1.275959,-7.194233,0.4134587,1
362837,435063405,4.526211,-122.2247,0.9525279,-8.161061,-89.37212,0.01085667,11.33875,12.6196,0.00372213,3.4986,3.262711,0.3548512,0
198745,252663894,-136.1313,16.85088,-0.7471303,21.93254,-40.39301,0.7250628,36.03881,14.01689,0.02359278,11.47325,-1113.271,0.4007377,2
201349,255563567,-4.544939,74.75471,0.09625219,5.243401,-151.5233,1.064003,16.33148,-5.061785,0.03261946,567.3181,-1114.388,0.4265041,2
353746,424963280,-0.2611997,102.8489,-0.8714317,-41.69231,66.89159,-0.234608,35.75792,19.46685,0.03317344,8.960423,7.051086,0.3543193,0
258278,318864070,-5.409642,125.1303,-0.4620498,1.581708,-60.01497,0.6964798,1.506282,3.73335,-0.00272096,35.453,6.52132,0.3439045,0
55095,92463833,-15.26126,76.75866,-0.1317709,-29.69387,-132.6317,0.8097324,-19.19125,1.148199,-0.02255807,-41.54245,-30.10368,0.363835,0
333126,402063277,-12.17673,38.02018,-0.762252,-19.01369,147.6229,-0.741928,-2.100756,-11.38268,0.00566787,2.549421,26.75295,0.393731,0
121980,167363861,-17.0663,136.1637,-0.5649321,0.1768531,-63.31736,0.7772295,2.130902,4.612361,-0.0026992,1.755474,7.315445,0.4183644,1
11004,26963377,-0.2393422,0.01538093,-0.00061867,-0.170136,0.01178325,-0.00044854,7.64E-05,0.4090138,-0.00064203,0.01144409,0.01144409,0,0
209615,264764052,-39.63512,-51.46189,0.6607719,40.55182,-167.0522,0.9720581,30.15519,5.524098,0.04790396,3453.135,-1104.868,0.9663181,2
289080,353063718,-4.45557,257.9978,-0.6094819,-57.86007,-359.7397,0.7183796,113.539,-2000.07,3.297416,5587.502,113.0171,1,3
13006,29464043,-0.2556753,0.01234503,-0.00062285,-0.1914781,0.01305974,-0.00048816,9.79E-05,0.3318839,-0.00052551,0.04825592,0.04825592,0,0
312500,379163274,-25.08633,-0.00525298,-0.3489608,40.14115,-0.02127937,0.5946474,134.4675,-0.9490648,0.2623996,1591.621,0.1083374,1,3
43556,79663955,-0.1275894,62.35527,-0.7025595,5.221676,134.6038,-0.4625222,-0.2596562,1.838039,-0.00432274,0.8443474,-9.25951,0.373673,0
138183,185363325,-11.85272,7.963475,0.4373727,7.341785,-152.2267,0.8695207,2.968767,3.012001,-0.00012926,-0.8568668,-10.72512,0.4184679,0
420721,499363508,3.337975,-7.27742,-0.3655433,-6.082027,135.3626,-0.7274845,2.428342,1.801785,0.00076439,-0.04275107,-1.883602,0.3367014,4
12525,28863450,-0.2565308,0.01577016,-0.00065178,-0.1903134,0.01120966,-0.00047979,9.49E-05,0.3453623,-0.00054738,0.01955032,0.01955032,0,0
342039,411963482,-6.274055,109.3092,-0.3372966,12.45295,-74.28705,0.7592167,-0.8359381,2.068441,-0.00411624,-13.3597,-1.785469,0.3461871,0
313311,380063747,-25.61147,0.00019243,-0.3501724,39.79984,-0.02969334,0.5939113,134.4678,-0.9671093,0.2624087,1591.711,0.09098053,1,3
109881,153763470,-16.91733,140.763,-0.6167794,-1.138119,-48.56673,0.746951,3.30909,1.957277,0.00276212,-3.520447,7.380009,0.4117094,1
58159,95863306,-2.905552,12.15363,0.383987,7.372858,-133.764,0.781055,5.295214,2.878491,0.00454238,0.6617873,4.598904,0.3779285,0
368869,441764057,0.2813691,-20.81194,0.4889317,6.131691,-134.2664,0.6556474,1.889081,2.277504,-0.00069914,3.170211,1.484776,0.3401068,0
311330,377863794,-24.31229,-0.00356801,-0.3471856,40.62165,-0.02045123,0.5957276,134.4673,-0.9590997,0.2624117,1591.833,0.1290321,1,3
194244,247663395,-6.483897,91.05897,0.04441829,23.63234,-128.8776,1.134158,12.53561,-19.09366,0.0414672,624.2142,-1123.333,0.4447052,2
180667,232563604,3.035242,-142.0473,0.8156727,-3.131979,-4.156213,-0.4629655,-1.203335,3.594656,-0.00696505,-1115.163,-1106.141,0.3872698,0
273674,335963894,-12.7606,126.036,-0.8209424,-42.1465,-2.145704,0.2380254,-19.55716,-4.299625,-0.02577606,-27.11564,-27.70824,0.3309934,0
14476,47363547,-0.3561588,0.01645134,-0.00087633,-0.3061678,0.01456948,-0.00076528,0.00021653,0.1262247,-0.00019935,0.0202179,0.0202179,0,0
132060,178563546,-13.25491,25.18353,0.3445067,7.674778,-152.1438,0.9208168,3.872053,3.103023,0.00108008,0.7221192,-4.810524,0.4188749,0
2517,16363452,-0.1120266,0.0094358,-0.00029512,-0.05299636,0.00681399,-0.0001654,6.57E-06,1.223944,-0.00193456,0.4469872,0.4469872,0,0
31212,65963604,-4.087219,100.6369,-0.261564,1.866496,-90.65173,0.8393609,2.350149,2.752821,2.78E-05,-0.1725857,-0.5754471,0.3758096,0
369228,442163897,-3.604369,2.415844,0.4208911,6.392395,-135.5514,0.7828514,1.966942,1.928404,-0.00022922,3.450357,-1.400757,0.3406572,0
169137,219763726,4.891602,-88.03935,0.1658412,-3.609622,99.29918,-0.817856,2.699764,3.044571,0.00055708,-3.252731,-0.9366989,0.3744137,0
109524,153363630,-15.39693,112.6843,-0.3246389,3.467504,-96.11999,0.9280844,0.0486373,0.8711758,-0.00174785,-3.81176,-7.447624,0.4128434,1
223372,280063763,-45.5861,144.3388,-0.9122487,23.85531,14.6814,0.5875763,-0.5287813,5.934699,0.00071699,425.6232,-1059.636,0.4546694,2
290071,354163278,-49.73328,318.5373,-0.9189972,93.93806,-257.1502,0.8488238,122.4897,-63.53128,0.2607985,1390.95,-337.3499,1,3
286463,350164045,8.168493,-106.3455,0.2947408,-3.567024,86.80119,-0.8438251,2.615157,2.686958,0.00088507,-0.1543998,-3.80888,0.3401275,0
319524,386963486,-44.18544,-0.00346592,-0.3960931,16.87978,-0.01900996,0.5397481,-134.469,-1.19449,-0.2093704,1591.216,-0.00238419,1,3
315654,382663540,-42.30581,-0.00618627,-0.3895746,21.08445,-0.01967992,0.5497528,-134.4925,-1.12381,-0.1576683,1591.45,0.2159119,1,3
305658,371563815,-17.57224,-0.00860356,-0.3000449,44.04533,-0.03335319,0.6039408,134.4641,-0.8607259,0.2622406,1595.196,0.1186371,1,3
303764,369463822,-10.57196,-0.00327018,-0.2121367,46.07381,-0.03603227,0.6086466,134.4701,-0.6703948,0.2619758,1597.391,0.1850128,1,3
339611,409263729,-5.163785,121.5449,-0.9421586,6.017902,112.9388,-0.1726345,1.585416,1.96598,-0.00088423,-7.255485,30.31368,0.386444,0
435915,517463765,0.3566233,-0.02029565,0.00088761,0.7351871,-0.01883647,0.00177651,0.00049513,-0.03279377,5.26E-05,0.3576279,0.3576279,0,4
223732,280463603,-56.41613,104.904,-1.028972,-7.293092,46.30349,0.2731268,-28.4694,-3.097109,-0.03780972,-63.72333,-1018.577,0.4141363,2
61496,99563492,-1.464082,67.6162,-0.759608,2.25447,131.7386,-0.4455522,4.638384,0.6632493,0.00544121,3.43141,-5.796719,0.3746964,0
367520,440263824,-3.42961,121.2828,-0.8852559,-7.870098,61.34682,0.03834946,1.879846,1.696629,-0.00059978,-20.16055,-8.995628,0.3388258,0
253597,313663651,7.228963,-123.8081,0.4911598,2.593064,66.68833,-0.7574559,2.784489,3.750453,-0.00019179,62.45047,6.259632,0.3444363,0
103119,146164011,-17.6157,152.7014,-0.701493,-0.1341021,-40.93087,0.6990623,2.092668,3.019069,-0.00050612,-1.891397,17.59319,0.4274073,1
161398,211163834,7.439452,-134.3418,0.822404,4.612913,-27.44321,-0.2584778,2.521389,3.299495,-0.00059092,-3.037413,-4.6978,0.3761382,0
372118,445363450,-0.6136639,135.3593,-0.8852161,-9.595175,38.21389,0.1870509,2.517709,1.945109,0.00015181,1.139791,-1.139641,0.3443587,0
186246,238763623,7.280084,25.94049,-0.4811935,-3.786475,135.3037,-0.643221,11.85029,4.961901,0.01497801,-795.2775,-1136.115,0.3173738,0
218515,274663424,76.24308,-14.22068,0.08080177,-34.79835,91.35101,-0.9862292,-4.859855,5.530358,-0.01413924,203.1995,-1052.79,0.3896371,2
90133,131564020,-11.10938,-94.38099,0.9626914,12.89425,-152.42,0.5300353,4.685927,3.91551,-0.00015447,20.83477,-29.6566,0.4894364,1
290251,354364031,-333.841,314.1347,-1.576836,68.98166,-419.214,1.185192,-266.646,-266.646,0.06533566,1722.42,-840.0547,0.4861277,3
150243,198763796,-7.590152,-69.46589,0.7821983,7.150253,-133.4349,0.5018049,2.234613,4.155301,-0.00336714,0.1193697,-24.63627,0.4189166,0
259180,319863670,3.611989,138.028,-0.8324237,0.9222552,19.62205,0.4311679,3.702023,1.43293,0.00254075,-85.0284,29.84133,0.3367099,0
438622,520763278,0.3640686,-0.01667584,0.00089229,0.7151209,-0.01507031,0.00172684,0.00051304,-0.03517216,5.81E-05,0.3009796,0.3009796,0,4
188676,241463376,-10.33131,70.91688,0.1414439,-5.712725,-182.7046,1.202509,15.4027,0.0359933,0.02626655,5260.007,-1010.956,0.913031,2
145290,193263497,-7.919732,60.74749,-0.8268232,-7.51484,140.1795,-0.5779855,6.419323,2.12387,0.00685729,0.6510081,19.99531,0.4218165,0
426755,506063327,-1.309727,-0.01326453,-0.00299216,0.6161897,-0.02453567,0.00325124,2.035714,-0.01599717,0.00373677,0.2334595,0.2334595,0,4
404424,481264084,-3.194776,107.0961,-0.7749246,-6.98047,71.64215,-0.06751095,2.066523,1.655421,0.00016332,-1.499429,-2.128506,0.3257611,4
235958,294063994,-5.675792,-13.72189,0.6048843,12.7155,-174.4662,0.9014962,6.036173,-0.6590377,0.00658335,470.501,-1026.45,0.43369,2
435095,516463332,0.3510686,-0.02007104,0.00088595,0.7378357,-0.01729343,0.00177076,0.00044791,-0.03234994,5.12E-05,0.394249,0.394249,0,4
172469,223463912,6.355728,82.31966,-0.03361395,32.02825,-100.3501,0.9068266,-64.00674,1.148901,-0.1141217,4.625726,12.3189,0.3880529,0
33013,67963637,-6.68796,60.73724,0.02948119,3.67059,-116.1762,0.8363355,2.190892,2.725167,-0.00023839,-0.1618499,-1.087952,0.3758343,0
407126,484263717,6.382108,-86.6107,0.1311918,-2.596544,105.7788,-0.8752186,1.827904,3.146163,-0.00094304,-27.3854,-0.3103256,0.3380562,4
382290,456663928,-5.05159,-41.53054,0.6934959,0.8633115,-142.4073,0.5984312,2.786628,2.880253,-0.00047876,1.081463,-17.98601,0.3798488,4
123413,168964054,6.946918,118.3425,-0.2418488,2.630149,-106.3184,0.9140831,86.34214,41.88544,0.06075991,-0.258217,32.27091,0.4215841,0
128727,174863360,-4.097624,-43.65977,-0.2630677,-8.338622,145.548,-0.9748827,9.386749,2.960163,0.0118018,-0.8663371,12.85238,0.4209585,0
415500,493563329,-1.891365,-36.34723,0.6181723,6.557704,-130.1373,0.6400772,2.242411,2.002487,-0.0001289,-0.1027303,1.222992,0.3372162,4
419458,497964068,-2.414451,94.78031,-0.8116863,-6.100985,87.62926,-0.1541334,2.26227,2.189082,1.93E-05,-1.224021,-2.971554,0.3362955,4
250084,309763545,4.515311,-132.2174,0.8861618,4.545094,-42.36007,-0.2046449,2.052718,2.621283,-0.00072228,32.89552,11.97691,0.3486924,0
223193,279863843,-30.06716,161.5486,-0.8290709,24.98978,-19.98956,0.7583165,14.85904,2.802579,0.02743708,615.6084,-1077.744,0.4684978,2
291779,356063351,-322.5425,279.3125,-1.444629,-74.87611,-421.1078,1.011232,-317.1682,-317.1682,0.0460023,1877.015,-915.7408,0.5222633,3
213125,268663325,-7.385366,-18.83904,-0.559817,18.59183,206.2843,-1.021293,19.83876,2.737437,0.03513535,903.0894,-1087.827,0.4544673,2
107743,151363597,-16.09582,124.4921,-0.4213528,2.793934,-85.92972,0.8930002,2.474176,2.873394,0.00025462,-1.678721,3.200054,0.414996,1
199998,254063334,-2.292321,81.34859,-0.7684994,-4.900413,107.1552,-0.3123648,-5.839852,-9.14928,-0.00171146,-359.97,-1017.037,0.3311916,2
182197,234263757,-1.048226,73.34612,-0.7992959,-5.509254,121.6544,-0.4375868,2.956003,2.492574,0.00011598,-1059.508,-1074.199,0.384484,0
195769,249363548,3.213551,-108.3853,0.1842417,-0.107491,127.7832,-1.04794,-7.494606,12.06316,-0.02685287,-41.09229,-1013.689,0.4042877,2
54731,92063993,-5.92741,85.02463,-0.1331201,2.709147,-107.683,0.8514708,2.838039,3.228626,0.00037768,-1.362745,2.442455,0.3755369,0
26980,61263818,5.234215,-115.8924,0.8142432,4.124867,-58.76834,-0.05556643,2.070954,1.902297,1.33E-05,-22.20997,-39.80093,0.363703,0
180036,231863884,-9.256301,126.0603,-0.5241657,-28.98555,-90.3074,0.7629701,9.18293,3.13389,0.01204465,-1068.63,-1102.791,0.3895535,0
262423,323463896,6.707134,-82.94208,0.119179,0.2490351,110.2589,-0.8181546,2.444602,2.587047,0.00040372,2.883588,-4.358768,0.3418394,0
3154,17163965,-0.1109628,0.01080268,-0.00028281,-0.05527474,0.00169562,-0.00011598,1.44E-05,1.098073,-0.00175322,0.2551079,0.2551079,0,0
397221,473263952,5.735318,-87.90471,0.150857,-3.075026,101.5161,-0.8680428,2.055219,2.39179,0.00013808,-4.109285,-3.184128,0.3411483,4
130617,176963353,-14.29263,41.21805,0.2042099,5.098204,-141.3339,0.9545147,2.748419,3.121807,0.00207098,-1.730033,-7.323742,0.4159864,0
416758,494963602,-6.138729,79.81973,-0.0916824,4.297631,-107.4176,0.8107826,2.28445,2.789299,0.00017604,2.000363,-0.408268,0.3374947,4
5725,20363518,-0.1537146,0.01352806,-0.00041138,-0.08615918,0.0072968,-0.00022932,2.64E-05,0.7630136,-0.00120765,0.1160622,0.1160622,0,0
353390,424563440,-0.2712217,133.4566,-0.9050001,-32.99276,51.22133,-0.00045258,22.07319,2.146862,0.01617526,75.61571,48.67449,0.3525959,0
403703,480463571,-4.954715,130.5352,-0.7738713,-4.108783,10.90848,0.3649622,2.045727,2.287835,1.14E-05,-0.5528507,-2.607346,0.3265683,4
285654,349263572,-5.058995,48.61047,0.1565991,5.85452,-127.7082,0.8856368,2.086143,2.519671,-0.00061828,3.229646,7.252884,0.3416552,0
213211,268763285,-33.458,-23.85556,0.5794227,52.615,-143.119,1.02131,8.958968,6.348382,0.01888381,933.5129,-1089.6,0.4589831,2
261163,322063623,-4.548547,33.20681,-0.6602183,-2.550487,144.5908,-0.7073544,2.88689,2.432688,0.00079859,10.80681,19.75975,0.3616251,0
420902,499563428,4.449747,-19.64571,-0.30399,-6.650925,131.9009,-0.7508243,2.659586,2.086426,0.00104055,0.8099321,2.212429,0.3372418,4
335379,404563943,-15.99546,169.569,-1.036142,-7.47727,50.92787,0.2417048,6.106102,0.4932654,0.00839494,3.965418,31.70748,0.4215698,0
406675,483763917,-5.636563,48.26373,0.1682936,7.552677,-135.1828,0.9232223,2.784684,3.101194,0.00023103,38.87808,62.39204,0.3569857,4
230210,287664055,-8.942904,-98.08214,0.9900179,3.802379,-166.5237,0.5918764,-17.96566,-5.114651,-0.02774108,6202.19,-1003.172,1,2
199011,252963774,-10.49138,-175.7572,0.8957332,39.46793,19.33174,-0.3476229,29.52361,24.60821,0.01694357,-363.068,-1037.852,0.3674021,2
319434,386863526,-44.15086,-0.0077312,-0.395963,16.96956,-0.02164261,0.5400558,-134.469,-1.203673,-0.2093704,1591.229,0.2213478,1,3
205746,260463273,-92.80154,76.55907,-0.8100404,60.04809,51.84666,0.5793176,-63.57211,-2.519459,-0.08230208,-108.0121,-1060.384,0.3929217,2
150152,198663836,-7.992906,70.38363,-0.8239045,-8.630662,134.9926,-0.5201774,2.705331,4.523109,-0.00184527,-0.1375967,21.65165,0.42093,0
206378,261163826,6.929214,-111.0353,0.8633983,-12.94503,-91.22411,0.06134193,-8.008576,-44.51999,0.03593097,-840.7245,-1010.294,0.2907555,2
69880,108863937,6.443214,-139.2543,0.6536593,31.31112,54.84924,-0.5714577,4.502338,3.730669,0.00074423,2.554855,5.422974,0.3908395,1
344203,414363355,-1.080768,97.30415,-0.7887753,-7.41606,93.13501,-0.2162537,2.735895,1.164429,0.00111507,19.00776,-2.869225,0.3399795,0
358332,430063739,-5.261753,106.3357,-0.9080996,-28.90792,61.60905,-0.1074933,-8.199288,-7.672065,-0.00690283,-2.592329,-2.079773,0.3529007,0
178148,229763891,69.55848,104.3776,-0.8798385,-59.33871,191.7933,-0.9211092,25.73381,4.263166,0.01055085,176.9663,-1011.042,1,0
431404,511863506,-0.7699916,-0.01383746,-0.00242521,0.6714337,-0.01692955,0.004027,-0.00081847,-0.02454149,0.00068269,0.1602173,0.2858162,0,4
345374,415663668,0.2179434,-15.30456,0.5365787,-28.20022,-166.7982,0.6526543,20.8566,11.64742,0.01713641,5.963666,6.916904,0.3507244,0
287996,351863365,-62.98646,276.2245,-0.8490143,-29.89016,-371.4965,0.8469474,84.52509,-1491.213,2.399217,4736.493,-258.3152,1,3
368599,441463344,0.8568945,51.45581,-0.7029997,-8.272007,126.1522,-0.5369917,2.244333,1.941157,-0.00038672,-1.519103,-5.992603,0.3377419,0
218335,274463504,14.65977,-66.82975,-0.03658044,-25.07764,124.0591,-1.04737,6.270647,5.521502,0.00960308,202.2745,-1022.272,0.4036188,2
30944,65663724,6.054118,-115.22,0.4308289,-0.4513285,62.87761,-0.7093444,2.295388,2.729464,-8.39E-05,0.9137423,-0.4673958,0.3767639,0
11245,27264090,-0.2381476,0.01063665,-0.00057686,-0.1718307,0.00950539,-0.00042022,8.22E-05,0.3980038,-0.00062669,-0.01573563,-0.01573563,0,0
305298,371163975,-17.26318,-0.00436329,-0.2831491,44.15977,-0.02313404,0.6040138,134.4644,-0.8193953,0.2621921,1595.627,0.0787735,1,3
65192,103663518,0.7699407,-135.6039,0.9106489,-2.997686,-55.40872,-0.1733911,0.1613749,2.147511,-0.00424513,-25.51271,-15.41634,0.3939637,0
159418,208963881,4.440197,-109.1799,0.8352518,18.47735,-61.31599,0.05285333,6.174706,3.823635,0.0056845,9.412864,-3.688145,0.371432,0
406133,483163324,-4.962434,-7.967856,0.5136809,5.313858,-147.5574,0.8077273,2.998053,1.943649,0.00089601,142.9829,97.53437,0.3646648,4
190741,243763289,8.791279,-78.89887,0.1400183,3.224175,102.2388,-0.8135104,14.72157,11.65239,0.01303919,-334.2414,-1127.411,0.3119232,2
82127,122563455,-5.748343,-97.65369,0.8891997,-29.17019,-143.4229,0.292274,-6.673832,-1.425241,-0.01083503,21.61656,8.414555,0.4078189,1
283492,346863699,-0.8075122,-129.5495,0.951341,-3.555354,-68.25644,-0.07876743,2.860036,2.261319,0.00048985,-3.557075,1.494122,0.3613297,0
229580,286963502,-61.3172,57.34026,-1.130946,32.85997,166.2319,-0.3764242,6.499513,20.40256,-0.00567575,4265.988,-1086.614,0.5842237,2
290610,354763871,-28.55938,-58.20863,0.1293952,37.52781,-20.04159,0.1664328,-107.9867,33.89884,-0.2352504,1024.478,-162.9442,1,3
219060,275264017,21.71739,-87.67354,0.1202461,19.09717,176.1955,-1.172131,-13.03349,-12.88505,-0.01383655,4044.094,-1121.475,0.6882316,2
277998,340763640,4.528651,-133.8716,0.7367806,-32.56788,-33.72972,-0.4261404,7.53785,2.373853,0.00717826,-11.89228,-5.617046,0.3369823,0
89865,131263307,-14.80527,112.0595,-1.123952,-6.345248,137.8982,-0.4063463,4.283809,4.140325,-8.14E-05,25.85633,42.87395,0.4896479,1
310611,377063281,-23.69483,0.00278818,-0.3457822,41.0267,-0.01162901,0.5966058,134.4439,-0.9579028,0.262401,1591.941,0.141716,1,3
263503,324663416,7.327919,-130.7269,0.6316453,1.079038,40.82573,-0.6463037,2.166883,2.641526,-5.23E-05,-1.223667,-4.81596,0.3412282,0
301513,366963989,-8.531561,-0.00706049,-0.150835,46.10025,-0.02475366,0.6086325,134.5079,-0.5544285,0.2618068,1600.4,0.091362,1,3
337447,406863856,-19.74521,64.84772,0.1050154,6.210636,-158.655,1.027551,2.451001,4.003636,-0.00264567,11.43137,-5.874825,0.419872,0
426484,505763447,0.8493848,-0.00273799,0.00186828,0.732664,-0.01260894,0.00287839,2.052605,-0.01378978,0.00366726,-546.7217,-0.08916855,0,4
296057,360863930,-3.310557,-0.02606531,-0.05841615,47.38324,-0.02797974,0.6117245,134.3881,-0.395988,0.2501281,1595.648,-2.132988,1,3
130888,177264066,-0.2223478,-32.15741,-0.2968925,-3.378239,152.9379,-0.9370635,-0.3447149,2.623395,-0.00406339,-0.646153,20.04795,0.4209881,0
95203,137263406,-4.225952,-82.86165,-0.0869832,-1.419438,159.4422,-1.154437,2.496098,3.606844,-0.00121444,-22.21608,-11.43303,0.4904196,1
122248,167663741,-48.23668,-204.5486,0.5360606,207.5029,198.5493,-0.5702021,59.05746,6.935925,0.0465018,-19.87188,1.830769,0.392857,1
350054,420864087,-1.923698,16.89553,-0.588198,9.909591,156.8629,-0.7416182,13.86767,-1.369411,0.02484571,3.130341,18.01033,0.360884,0
146462,194563810,-9.270103,-44.6531,0.6689166,8.649724,-145.8296,0.6564869,1.309465,1.514181,-0.00214842,-0.9648043,-17.25864,0.418685,0
405596,482563564,-0.8482177,-44.60403,0.6537769,7.185439,-123.442,0.5529556,2.308875,1.374039,0.00048302,3.133944,4.166889,0.3273095,4
349425,420163534,-5.926125,-67.35947,0.7429051,-18.54282,-148.8143,0.4299451,-17.34109,-13.23302,-0.01463283,5.042332,-0.404644,0.3517347,0
386242,461063834,-3.902558,70.7888,-0.8495441,-15.99714,128.1079,-0.4610846,2.474286,2.149225,-0.00039603,0.1750955,14.75849,0.3797572,4
177601,229163298,0.06355763,43.464,-0.6662845,2.856823,131.9518,-0.5332051,2.962088,2.279837,0.00064124,4.466716,-11.30991,0.3734967,0
155907,205063775,-12.31466,116.6653,-0.960767,-8.099511,94.43743,-0.1677348,3.496078,0.7976278,0.00329793,-0.861981,17.39788,0.4196902,0
329612,398164004,69.44755,5.562257,-0.9011548,-117.827,290.446,-0.8420818,-132.6626,-38.94027,-0.1704672,921.5644,459.0561,1,3
236676,294863674,114.1844,90.55573,0.5633183,30.82846,-108.009,0.6337912,53.89441,12.62376,0.03897893,-8.43042,-1069.919,0.3496762,2
385523,460263321,-9.033072,125.1801,-0.9350426,-14.04314,86.77032,-0.09416321,3.10972,2.777485,-0.00012658,2.226808,4.388809,0.3799631,4
230121,287563262,-14.7392,88.56274,-1.064545,-14.6612,151.6071,-0.5233415,-21.15196,-1.609008,-0.0351149,5999.69,-996.015,0.9906598,2
431169,511563626,-0.7699916,-0.01887522,-0.00240831,0.6714337,-0.0205041,0.00404397,-0.00081847,-0.0294801,0.0006836,0.1602173,0.3054619,0,4
208093,263063899,3.938064,34.80989,-0.5814206,-15.3636,130.46,-0.6579657,-11.31152,25.41599,-0.04876491,163.2943,-1049.018,0.3553683,2
367338,440063904,-5.061611,129.3692,-0.8700646,-6.923452,40.97816,0.1837905,1.820501,2.023953,-0.00090888,-13.10062,-6.166172,0.3424978,0
388765,463863547,3.365032,-148.0165,0.6999265,-4.878033,24.49103,-0.6456583,3.03137,3.022493,0.00047337,2.066844,12.00218,0.3819944,4
92712,134463693,0.04752814,47.50754,-0.8027226,-7.77609,177.4658,-0.8112042,3.024692,3.327194,-0.00100286,-7.653035,-5.970287,0.5129929,1
246485,305763479,0.8995913,40.37181,-0.5835355,-5.770164,109.6286,-0.462154,0.09977339,0.2371068,-0.00128488,-611.345,-148.8048,0.294008,0
386694,461563634,-6.525213,-22.33714,0.6037815,0.09102641,-148.2272,0.692171,3.143309,2.622235,0.00040069,2.949599,-17.8194,0.3807425,4
197927,251763421,8.543991,-132.0441,0.4129442,-4.740866,91.63175,-0.932705,20.34257,-1.676334,0.03576848,-40.63699,-1110.247,0.3938707,2
243603,302563926,-16.67947,53.77484,0.1230745,20.2077,-130.9592,1.063143,20.18059,10.92976,0.02173881,1036.171,-1094.14,0.4079917,0
381390,455663495,-1.893342,-121.0777,0.9155079,0.1059028,-98.20853,0.141468,2.751625,2.463104,-0.00032633,4.757371,1.390266,0.382813,4
16073,49163660,-0.3805094,0.01904821,-0.00159397,-0.3298509,0.01754556,-0.00138393,0.1205426,0.1167784,-2.34E-05,141.3691,0.0702858,0.08192669,0
356712,428263626,-7.090812,124.7262,-0.5141054,-0.03378734,-51.12235,0.7006799,0.6191878,0.7546343,-0.00077687,6.702653,10.22635,0.3445954,0
161218,210963914,7.557239,-130.1016,0.8265814,4.971803,-36.61819,-0.2080462,3.565504,3.095646,0.00136925,-2.650381,-11.4398,0.3765652,0
160679,210363321,7.877493,-130.8337,0.8453847,11.35996,-24.45417,-0.2640045,3.813174,0.5203177,0.00438085,0.8175769,0.4553795,0.3758196,0
261253,322163583,-6.708957,-32.16766,0.6131713,24.17393,-129.9269,0.7465969,2.682865,2.5362,-3.14E-06,8.998737,-8.852482,0.3597319,0
19230,52663926,-1.311556,-12.08929,0.5388021,7.927314,-148.973,0.7547438,8.04084,2.420976,0.00476274,46.1135,46.16852,0.4169396,0
158428,207863488,-5.78916,118.6729,-0.9196069,12.08461,96.10967,-0.04610786,-12.98021,-16.38499,0.0007581,-10.67659,12.46834,0.3871576,0
10284,26063737,-0.2306138,0.01250219,-0.00057123,-0.1585819,0.00334156,-0.00036615,6.86E-05,0.437517,-0.00069127,0.03480911,0.03480911,0,0
97694,140063952,-2.317166,-141.0542,0.4442314,3.587997,89.05975,-0.926196,3.33629,2.834682,0.0013757,-14.54486,-30.40314,0.4652202,1
20943,54563999,-0.3595603,47.69416,-0.699546,-8.532546,136.238,-0.5906118,4.075118,-0.6056823,0.00557368,11.4499,7.862568,0.4079295,0
43645,79763915,-0.8102048,-61.17717,0.7028912,13.60386,-108.8837,0.4371735,-0.05763124,1.205837,-0.00350244,3.703283,1.424408,0.3745441,0
428401,508063360,-0.7699916,-0.01589729,-0.00241435,0.6714337,-0.02109186,0.00405483,-0.00081847,-0.02376812,0.00067844,0.1602173,0.3238678,0,4
75985,115663716,3.918085,-13.82099,-0.3292021,-4.83259,131.3559,-0.7635282,3.485243,2.60294,0.00173593,0.801229,-1.488972,0.3759408,1
149612,198064076,-8.841177,93.04704,-0.9027717,-8.628757,123.8629,-0.3720374,6.044655,0.868465,0.00812212,-0.00494405,20.21637,0.4202544,0
189931,242863649,20.16341,98.54259,-0.05225529,24.50312,-88.58793,0.7986647,-17.83806,-27.99112,0.00202102,-620.6071,-1140.16,0.3033653,2
176971,228463578,0.347513,-57.69472,0.7394618,32.25915,-100.876,0.5005931,2.655752,0.8703725,0.00140388,-8.865636,-10.57854,0.3843935,0
435341,516764045,0.3533839,-0.01803559,0.00086471,0.7367381,-0.01772658,0.00176828,0.00052279,-0.03135288,5.28E-05,0.3433228,0.3433228,0,4
310882,377363994,-23.97009,-0.00834608,-0.3464725,40.8161,-0.02318074,0.5961292,134.4676,-0.9556916,0.2624089,1591.916,0.1524925,1,3
204764,259363713,2.999079,-65.07765,-0.2336959,-0.4527741,181.4766,-1.175312,35.30797,-4.851126,0.06587038,4505.065,-1103.192,0.8513342,2
45448,81763948,3.84295,-96.2374,0.8199818,6.931096,-93.17916,0.2004746,1.713874,1.507611,-0.00051542,-1.399855,0.7926941,0.3763856,0
97427,139764072,-19.93657,114.1584,-0.2354298,7.435403,-125.4718,1.049923,2.217486,2.87461,-0.00063617,-17.82815,-4.826736,0.4602749,1
416220,494363842,-5.121782,37.09436,0.2098211,5.524857,-131.0517,0.806683,2.35566,2.576364,0.00018892,-1.72065,0.09479523,0.3369156,4
100273,142963625,-17.37052,118.3276,-0.2980391,7.014567,-116.5704,1.03205,1.997428,3.184018,-0.00091681,-8.274418,8.499336,0.4410699,1
235866,293964034,-1.00774,27.35959,-0.7022895,-9.638854,162.536,-0.8158159,2.665733,-1.003235,0.00193288,589.4082,-1016.624,0.4376952,2
91469,133063420,1.897285,55.76809,-0.8872197,-7.687315,174.3011,-0.7800904,4.368124,3.288804,0.00089214,11.08104,3.005123,0.5155532,1
271693,333763941,-4.949105,73.35882,-0.01359889,5.638688,-113.6296,0.8705466,2.22397,3.97094,-0.00181276,1.189037,2.989197,0.3425808,0
96538,138763639,-16.99832,67.51247,0.1003156,11.31934,-153.4217,1.060775,2.852873,3.817364,-0.00097242,-23.6174,-11.63855,0.4686474,1
169859,220563406,6.613583,-83.65803,0.1240221,-3.0668,102.6483,-0.864475,2.104506,2.809439,-0.00029982,0.2339311,-0.5740166,0.375331,0
324659,392663705,-45.97587,-0.01048841,-0.4106489,10.67331,-0.02335967,0.5251604,-134.4731,-1.198475,-0.2093832,1591.731,0.1503944,1,3
104810,148064084,0.5741014,-141.2673,0.5466624,1.141233,66.12737,-0.7944589,-2.940312,2.809505,-0.00913396,-3.66685,-15.02876,0.4261103,1
404962,481863844,-2.117403,91.05656,-0.8164264,-6.255787,95.79233,-0.2384535,1.889934,1.283532,-0.00012751,0.7784336,-0.3646851,0.3262692,4
102764,145763338,-17.8662,144.8826,-0.6584306,1.244993,-47.86506,0.7664025,1.960464,2.9534,-0.00070706,-1.643944,21.4076,0.4302816,1
385432,460163361,-0.1010638,-127.9421,0.9228204,0.04375162,-82.92488,0.02860633,3.381655,2.706325,0.00050651,3.14051,2.813435,0.3829425,4
187775,240463776,-78.03275,-17.45384,0.04611556,55.00801,-62.44846,0.7915288,-15.08325,-6.562237,-0.01235985,-347.9495,-1062.758,0.3010737,0
331864,400663837,-18.09407,142.0771,-1.022042,-23.40903,39.36583,0.1788234,65.58805,46.06078,0.04931344,20.65456,-5.882263,0.3881485,0
310701,377164074,-23.82805,0.00299889,-0.3461024,40.90318,-0.02650962,0.5963618,134.4675,-0.9564092,0.2623916,1591.928,0.09336472,1,3
335017,404163270,-16.63356,171.917,-0.9148827,-2.46448,-19.85663,0.6729825,-0.717452,-1.074885,-0.00073864,3.989746,18.84184,0.4208291,0
420632,499263548,-3.739884,2.444349,0.4176172,7.10429,-133.9983,0.7056671,2.243304,2.067125,0.00023525,-0.1005589,2.356052,0.3366591,4
25177,59263785,2.186511,-89.25842,0.7683633,5.853024,-91.52887,0.214593,1.514024,1.595563,-0.0009088,-145.1972,-105.7937,0.359564,0
42474,78463602,-6.622333,97.46034,-0.9012535,-13.11168,102.2311,-0.28664,6.99045,0.8094789,0.00936956,-5.312923,5.717945,0.3935245,0
289440,353463558,-61.06745,251.5675,-0.8115536,-36.57648,-314.2017,0.7211905,95.69758,-2000.015,3.297843,5427.115,52.24638,1,3
58792,96563859,4.312381,-10.83182,-0.355318,-5.181129,133.6461,-0.7600696,0.6330133,3.015917,-0.00359443,-2.305799,-8.682537,0.3757859,0
158789,208263328,2.162748,124.366,-0.887807,4.005713,79.82353,-0.02320635,2.707116,-11.27363,0.01928678,-2.867633,5.324459,0.3753897,0
12684,29063370,-0.2563821,0.01429766,-0.00063249,-0.1905165,0.00748914,-0.00045313,9.30E-05,0.3458571,-0.00054098,-0.01831055,-0.01831055,0,0
125304,171064047,4.192369,-43.05135,-0.1999111,-15.43047,135.1791,-0.9114859,67.82865,58.24899,0.01526489,8.165438,26.14326,0.4006726,0
331413,400164037,15.19429,-152.1268,0.8360176,1.929489,-17.24,-0.3115334,32.45185,4.647708,0.04960078,-209.4173,-122.4125,0.3403837,0
239281,297763347,5.676327,-5.020707,-0.3847431,0.9117414,150.2655,-0.7958087,-107.3882,-82.87906,-0.07340485,-292.0028,-1125.565,0.3465803,2
298915,364063483,-5.449738,-0.02841763,-0.09571324,46.11595,-0.01883104,0.6086192,134.5035,-0.4348323,0.2616689,1602.633,-0.03290176,1,3
278359,341163480,4.680984,-136.4244,0.8568283,-25.98681,-70.06367,-0.2103225,7.880785,5.949954,0.00595755,4.403981,11.50846,0.3499619,0
436653,518363405,0.360026,-0.01586428,0.00087461,0.7281169,-0.01846036,0.00176355,0.00043884,-0.03672934,5.65E-05,0.2873421,0.2873421,0,4
182468,234563637,-0.2030859,-43.84962,0.6735279,9.718422,-130.137,0.614363,2.026261,2.413041,-0.00118015,-1073.43,-1078.663,0.3807409,0
112193,156363263,-15.87781,128.4501,-0.5000756,0.01878782,-67.93983,0.8107856,2.817956,3.249895,0.00022627,-1.640821,7.607841,0.4101197,1
131788,178263666,-3.873391,-4.317736,-0.4600959,-3.564529,151.034,-0.8410496,3.376372,2.222583,0.00224148,1.839839,27.7626,0.4223202,0
392276,467763653,-2.631462,-95.18031,0.1450828,3.88367,101.3922,-0.8387927,2.365353,2.20787,0.00048368,13.54049,-1.128197,0.3420254,4
107123,150663877,-0.8231412,-149.6184,0.6806676,1.584309,32.05657,-0.6313338,1.513927,2.237052,-0.00094449,-1.914738,-10.54068,0.4185004,1
331323,400064077,-0.2031621,140.0774,-0.7349587,-11.64295,-0.6832322,0.3244631,32.47572,-1.856741,0.05749732,-317.5642,-194.6475,0.3190699,0
339970,409663569,-2.661741,82.56036,-0.7997115,4.699759,134.8234,-0.4270857,2.308811,1.544862,0.00030693,-5.630579,12.2817,0.3735018,0
21933,55663559,2.198146,-98.72298,0.9182694,7.168491,-112.2745,0.2962992,1.8397,3.165239,-0.00260212,10.63493,5.161476,0.4107101,0
139526,186863558,-12.18919,24.48731,-0.7028179,-5.135123,155.4255,-0.7373882,1.179998,2.967448,-1.54E-05,1.306894,24.17336,0.4237963,0
239102,297563427,7.71198,4.108015,-0.4089819,-2.194967,153.6639,-0.7796859,-135.1681,-54.00484,-0.1456524,-289.2985,-1134.27,0.3504157,2
32474,67363877,-7.041765,111.9407,-0.3808219,1.77679,-69.55827,0.7429299,2.556561,3.022558,0.00030057,-0.8856078,2.570534,0.3761582,0
321776,389463319,-45.02789,-0.00791341,-0.4019791,14.45065,-0.02429345,0.5340822,-134.4694,-1.190947,-0.2093803,1591.375,0.1646042,1,3
420811,499463468,-4.234471,11.40296,0.340704,5.783144,-133.0583,0.733807,2.576002,1.936348,0.00098612,0.2209613,4.101181,0.3371142,4
310520,376963321,-23.71961,-0.01593294,-0.3458398,40.9725,-0.02843635,0.596496,134.4672,-0.9531516,0.2624179,1591.953,0.1238823,1,3
78120,118063589,-3.351396,62.49533,-0.7665027,-9.661088,129.2738,-0.5041061,2.197563,16.56267,-0.01779582,-5.785263,5.209732,0.3911394,1
211778,267163925,29.5493,48.47181,0.2859494,-22.81445,-155.2142,0.7665467,-14.80748,4.739762,-0.02244487,-51.67552,-1073.933,0.3135062,2
338619,408163336,-2.859546,-164.0232,0.7427105,1.789035,49.91692,-0.7971168,2.829274,4.326775,-0.00196283,-4.179253,-17.40723,0.4158075,0
243422,302364006,-25.93303,29.42996,0.2265116,-1.104317,-157.5979,1.03126,26.02906,3.626296,0.03909653,977.1995,-1101.698,0.3975638,0
238021,296363907,31.6085,49.84526,-0.5757259,14.10013,178.3083,-0.760202,38.57574,68.43427,-0.05113789,-39.09108,-1134.584,0.3858012,2
132689,179263266,-3.503312,-23.38721,-0.3787991,-5.323488,148.4553,-0.9167485,1.354732,3.096423,-0.00241523,1.027553,14.64338,0.4220098,0
74295,113763643,-6.098672,23.29372,0.2788728,23.76735,-124.8867,0.8494124,5.931378,4.787129,0.0041919,-3.335047,-8.206081,0.3922452,1
322045,389764032,-45.1103,-0.01300383,-0.4024283,14.18302,-0.02156587,0.5334316,-134.4695,-1.199457,-0.2093769,1591.518,0.1826286,1,3
376347,450064069,-7.105341,145.5746,-0.8546958,-12.86242,21.36745,0.3580184,3.028381,2.770945,-1.44E-05,2.724516,0.5081177,0.3827007,4
255667,315963564,-1.922161,91.67757,-0.8400156,-43.08813,71.98055,-0.2961407,16.0423,3.310583,0.01368341,-103.7545,-20.31183,0.3341173,0
304304,370063582,-11.01375,0.00717617,-0.2286546,46.01134,-0.02216567,0.6084051,134.4685,-0.713917,0.2620051,1596.692,0.1163483,1,3
418831,497263515,4.546151,-123.7763,0.8080393,5.83552,-51.2994,-0.1050491,2.149615,1.618912,0.00012626,1.71659,4.451466,0.3376758,4
179945,231763924,3.597455,-130.1337,0.474492,-29.05389,44.03772,-0.8164133,8.618495,1.353447,0.01602401,-1041.22,-1093.203,0.4007487,0
348164,418763261,6.293983,-132.7989,0.8070055,7.56302,-36.47183,-0.2092306,0.5999874,1.451082,-0.00240431,-0.5765313,-2.618027,0.3418974,0
107922,151563517,-15.74782,137.4761,-0.56292,0.4468698,-61.74107,0.802857,2.529986,2.971265,0.00020026,-1.906715,12.15038,0.414523,1
235687,293763281,-3.409837,49.40125,-0.8355587,-25.30072,143.5521,-0.7481622,-2.262731,-0.8027465,-0.00095315,682.0221,-1010.617,0.4367916,2
70871,109963497,-5.755695,119.5383,-0.4162433,3.340737,-68.97396,0.7776931,1.507349,2.143516,-0.0005296,5.892809,3.084373,0.3773608,1
364908,437363318,7.016121,-46.18202,-0.1630718,-0.2498432,131.1172,-0.8780692,2.914936,3.996762,-0.00101028,4.999779,-4.547215,0.3430155,0
394528,470263486,-1.186305,117.9656,-0.8723406,-7.21468,71.74957,-0.0239075,2.376313,1.995484,0.0001368,3.442247,5.146694,0.3452543,4
400823,477264018,-3.21898,-18.02827,0.4655363,7.569338,-113.7248,0.6130779,1.212896,0.9959254,-0.00049016,-135.5254,-115.5963,0.2889268,4
15892,48963740,-0.368696,0.01949918,-0.00138469,-0.3190658,0.01372017,-0.00117425,0.08993934,0.1165728,-7.22E-05,78.38965,0.08745193,0.03743936,0
108456,152163277,-16.55694,133.3705,-0.5506055,1.134406,-61.04596,0.7957954,8.740189,6.068966,0.00791222,4.552028,14.50081,0.4170117,1
210069,265263852,-57.6451,-103.9671,-0.1628869,16.11004,162.5202,-0.8586164,-32.53044,7.217432,-0.05234078,-591.124,-1034.085,0.3348362,2
200179,254264087,7.823079,101.7823,-0.8450086,-25.25883,91.89725,-0.3539312,-2.07726,-8.036097,0.00550717,-241.2998,-1026.345,0.3332895,2
401183,477663858,-3.221621,6.008543,0.3465482,4.827878,-120.7391,0.7142807,1.733562,1.273516,0.00046567,-89.09624,-92.7186,0.2894122,4
66004,104563991,-5.706222,123.4441,-0.8401597,5.84287,71.93886,0.06477177,2.963482,1.956563,0.00179995,-6.857733,-10.94265,0.3706477,0
269082,330863435,-4.388706,124.0015,-0.8228658,-42.88737,29.28924,0.02443211,16.95442,3.086556,0.01520676,-23.537,-20.21494,0.3334831,0
147991,196263963,-6.816782,60.25613,-0.7870046,-7.754585,140.1465,-0.5888519,2.164096,2.487395,-0.00085954,-0.593353,15.56911,0.4206556,0
12845,29263290,-0.2559688,0.01105663,-0.00062341,-0.1910797,0.00698306,-0.00045433,9.50E-05,0.3397665,-0.0005336,-0.00543594,-0.00543594,0,0
268721,330463595,-5.913458,132.9063,-0.7955737,-6.449137,31.3632,0.2341539,1.81401,1.378926,-0.00016716,0.5688518,3.928566,0.3422003,0
438129,520163518,0.3657712,-0.02041721,0.00091507,0.7197843,-0.01088034,0.00171666,0.00051885,-0.03573941,5.69E-05,0.2925873,0.2925873,0,4
403251,479963771,5.982873,-127.2106,0.6287587,2.84489,29.95767,-0.5748937,2.093857,2.332605,0.00028764,-1.582942,-2.136993,0.3258626,4
90042,131464060,-14.56259,109.8978,-1.073372,-6.35885,141.4302,-0.4146755,4.173068,3.759786,6.59E-05,22.60483,35.67486,0.491729,1
101697,144563818,-17.90024,154.7833,-0.7370961,2.29148,-37.77197,0.6905921,2.306376,3.006196,-0.00033044,-3.4937,19.45934,0.4353964,1
