LineNo,TimeUS,I,Status,GMS,GWk,NSats,HDop,Lat,Lng,Alt,Spd,GCrs,VZ,Yaw,U,labels
186120,238603687,0,6,547888600,2232,10,1.21,-35.3609875,149.1633259,48.64,1.7,29.63562,-1.197,0,1,0
70202,109203801,0,1,547759200,2232,3,1.21,-35.362661,149.1625928,39.94,3.885,327.2096,0.031,0,1,1
37211,72603447,0,6,547722600,2232,10,1.21,-35.3632862,149.163059,39.94,0.025,303.8013,-0.009,0,1,0
426537,505803431,0,6,548155800,2232,10,1.21,-35.3632836,149.1630611,20.39,0,258.6222,0,0,1,4
319397,386803550,0,6,548036800,2232,10,1.21,-35.3618904,149.165704,18.51,0,336.5852,0,0,1,3
385484,460203345,0,6,548110200,2232,10,1.21,-35.3632747,149.1639265,39.4,9.984,269.308,-0.003,0,1,4
259503,320203534,0,6,547970200,2232,10,1.21,-35.3614007,149.1653201,39.02,1.03,149.9513,-0.138,0,1,0
49829,86603678,0,6,547736600,2232,10,1.21,-35.3630412,149.162875,39.87,1.455,327.6384,-0.005,0,1,0
258601,319203934,0,6,547969200,2232,10,1.21,-35.3613888,149.1653122,38.99,2.049,151.6103,0.039,0,1,0
386566,461403698,0,6,548111400,2232,10,1.21,-35.3632761,149.1637943,39.4,9.997001,269.2372,-0.001,0,1,4
390528,465803604,0,6,548115800,2232,10,1.21,-35.3632813,149.163311,39.4,9.654,269.0293,-0.001,0,1,4
46762,83203372,0,6,547733200,2232,10,1.21,-35.3631139,149.1629313,39.82,1.175,330.4346,-0.061,0,1,0
309313,375603865,0,6,548025600,2232,10,1.21,-35.3618904,149.165704,18.51,0,294.1483,0,0,1,3
412849,490603680,0,6,548140600,2232,10,1.21,-35.3632835,149.1630612,27.18,0.016,120.7575,0.487,0,1,4
204992,259603617,0,6,547909600,2232,10,1.21,-35.3610171,149.1640536,40.9,5.706,105.4863,-0.781,0,1,2
191149,244203946,0,6,547894200,2232,10,1.21,-35.3609745,149.163453,47.17,3.519,110.1418,1.528,0,1,2
77013,116803260,0,1,547766800,2232,3,1.21,-35.362532,149.1624749,39.92,1.291,319.5397,-0.008,0,1,1
88227,129404051,0,1,547779400,2232,3,1.21,-35.3619955,149.1621055,39.55,10.704,329.9481,0.183,0,1,1
76658,116403420,0,1,547766400,2232,3,1.21,-35.3625359,149.162479,39.92,1.616,319.4525,-0.011,0,1,1
337232,406603960,0,6,548056600,2232,10,1.21,-35.3622976,149.1656269,31.81,10.173,193.0405,-1.208,0,1,0
226752,283803933,0,6,547933800,2232,10,1.21,-35.3609722,149.1648098,41.93,8.798,23.43839,-1.367,0,1,2
96233,138403783,0,1,547788400,2232,3,1.21,-35.3611582,149.1614794,41.17,12.296,329.9106,-0.067,0,1,1
418972,497403459,0,6,548147400,2232,10,1.21,-35.3632836,149.1630611,23.89,0.007,297.2444,0.483,0,1,4
128148,174203624,0,6,547824200,2232,10,1.21,-35.3588145,149.1602702,41.32,9.151,147.0263,-0.013,0,1,0
163066,213003931,0,6,547863000,2232,10,1.21,-35.3611049,149.1629154,41.42,3.008,41.23229,0.04,0,1,0
251578,311403722,0,6,547961400,2232,10,1.21,-35.3612528,149.165209,39.51,0.55,147.1418,-0.015,0,1,0
437352,519203902,0,6,548169200,2232,10,1.21,-35.3632836,149.1630611,20.39,0,147.6304,0,0,1,4
369645,442603721,0,6,548092600,2232,10,1.21,-35.3632599,149.1652351,39.6,0.017,212.5039,0.002,0,1,0
321019,388603663,0,6,548038600,2232,10,1.21,-35.3618904,149.165704,18.51,0,21.53602,0,0,1,3
143991,191804081,0,6,547841800,2232,10,1.21,-35.3600854,149.161388,41.38,9.976001,141.6691,-0.007,0,1,0
52351,89403391,0,6,547739400,2232,10,1.21,-35.3630032,149.1628514,39.94,3.983,334.6127,-0.011,0,1,0
288319,352204062,0,6,548002200,2232,10,1.21,-35.3618784,149.1657013,30.82,1.677,144.31,7.218,0,1,3
219020,275204041,0,6,547925200,2232,10,1.21,-35.3610165,149.1645351,39.97,4.802,39.70974,-0.09500001,0,1,2
226032,283003420,0,6,547933000,2232,10,1.21,-35.3610232,149.1647792,41.12,6.456,27.94145,-0.749,0,1,2
150654,199203620,0,6,547849200,2232,10,1.21,-35.3605772,149.1619327,41.36,9.941001,134.4257,-0.006,0,1,0
106373,149803388,0,1,547799800,2232,3,1.21,-35.3601473,149.1608392,40.85,10.073,335.1218,-0.037,0,1,1
378289,452204046,0,6,548102200,2232,10,1.21,-35.3632659,149.1647985,39.48,9.695001,269.1823,0.014,0,1,4
379553,453603486,0,6,548103600,2232,10,1.21,-35.3632672,149.1646481,39.45,9.807,269.4131,0.02,0,1,4
46224,82603612,0,6,547732600,2232,10,1.21,-35.3631174,149.1629336,39.79,0.636,330.2439,-0.01,0,1,0
330564,399203588,0,6,548049200,2232,10,1.21,-35.3619069,149.1657243,20.42,4.269,122.5587,-2.558,0,1,0
195281,248803772,0,6,547898800,2232,10,1.21,-35.3610293,149.1636466,39.03,5.887,140.6089,-0.399,0,1,2
191686,244803706,0,6,547894800,2232,10,1.21,-35.3609871,149.1634752,46.06,4.799,136.046,2.142,0,1,2
190615,243603353,0,6,547893600,2232,10,1.21,-35.3609749,149.1634326,47.85,3.117,62.80892,0.702,0,1,2
13332,46004091,0,6,547696000,2232,10,1.21,-35.3632838,149.163061,20.39,0,0,0,0,1,0
196003,249603452,0,6,547899600,2232,10,1.21,-35.3610566,149.1636804,39.56,3.947,114.839,-0.772,0,1,2
55418,92803697,0,6,547742800,2232,10,1.21,-35.3629433,149.1628172,39.92,0.628,336.3432,0.075,0,1,0
332365,401203621,0,6,548051200,2232,10,1.21,-35.3619315,149.1657399,24.48,3.627,229.8448,-1.35,0,1,0
161451,211203818,0,6,547861200,2232,10,1.21,-35.3611128,149.1628825,41.48,2.479,98.5223,-0.006,0,1,0
187013,239603287,0,6,547889600,2232,10,1.21,-35.3609865,149.1633553,48.84,4.378,108.2875,0.664,0,1,0
289402,353403582,0,6,548003400,2232,10,1.21,-35.3618923,149.165706,21.14,1.108,180.5898,8.370001,0,1,3
322459,390203856,0,6,548040200,2232,10,1.21,-35.3618904,149.165704,18.51,0,175.7126,0,0,1,3
333991,403003734,0,6,548053000,2232,10,1.21,-35.3620041,149.1656894,26.98,6.99,194.4056,-1.387,0,1,0
123467,169004038,0,6,547819000,2232,10,1.21,-35.3586219,149.1601073,41.18,3.03,329.0093,0.037,0,1,0
185758,238203847,0,6,547888200,2232,10,1.21,-35.3609946,149.1633263,47.96,2.705,337.8272,-2.197,0,1,0
254460,314603275,0,6,547964600,2232,10,1.21,-35.3613168,149.1652619,39.18,1.807,145.4346,0.007,0,1,0
102638,145603402,0,1,547795600,2232,3,1.21,-35.3605006,149.1610484,40.8,10.777,333.3734,0.052,0,1,1
305890,371803719,0,6,548021800,2232,10,1.21,-35.3618904,149.165704,18.51,0,145.1452,0,0,1,3
303367,369004006,0,6,548019000,2232,10,1.21,-35.3618904,149.165704,18.51,0.001,139.2349,0,0,1,3
278232,341003544,0,6,547991000,2232,10,1.21,-35.3617068,149.1655533,38.41,0.456,149.6553,0.043,0,1,0
372170,445403434,0,6,548095400,2232,10,1.21,-35.3632604,149.1652336,39.59,0.322,266.1992,-0.006,0,1,0
212011,267403829,0,6,547917400,2232,10,1.21,-35.3610446,149.1643045,40.56,3.697,26.83541,1.923,0,1,2
330926,399603428,0,6,548049600,2232,10,1.21,-35.3619131,149.1657399,21.61,3.447,110.9791,-3.147,0,1,0
147414,195603394,0,6,547845600,2232,10,1.21,-35.360343,149.1616618,41.35,9.995001,138.4059,0.007,0,1,0
249061,308604009,0,6,547958600,2232,10,1.21,-35.3612259,149.1651824,39.2,3.148,142.1718,0.304,0,1,0
424374,503403558,0,6,548153400,2232,10,1.21,-35.3632836,149.1630609,20.98,0.015,67.76904,0.484,0,1,4
107617,151203661,0,1,547801200,2232,3,1.21,-35.360033,149.1607752,40.9,9.912001,335.7519,-0.036,0,1,1
67317,106003415,0,6,547756000,2232,10,1.21,-35.362704,149.1626245,40.04,2.169,329.4851,-0.005,0,1,0
335069,404204087,0,6,548054200,2232,10,1.21,-35.3620903,149.1656708,28.64,9.053,187.887,-1.377,0,1,0
52711,89804064,0,6,547739800,2232,10,1.21,-35.3629903,149.1628438,39.94,3.821,334.4962,0.013,0,1,0
362440,434603589,0,6,548084600,2232,10,1.21,-35.3631737,149.165288,39.48,0.538,202.1493,0.007,0,1,0
318138,385403277,0,6,548035400,2232,10,1.21,-35.3618904,149.165704,18.51,0.001,306.8647,0,0,1,3
405648,482603548,0,6,548132600,2232,10,1.21,-35.3632834,149.1630614,31.76,0.013,100.1228,1.44,0,1,4
152095,200803813,0,6,547850800,2232,10,1.21,-35.3606774,149.1620582,41.37,9.988001,134.4573,-0.014,0,1,0
44958,81203339,0,6,547731200,2232,10,1.21,-35.3631306,149.1629437,39.78,1.969,327.0096,-0.008,0,1,0
23336,57203776,0,6,547707200,2232,10,1.21,-35.3632836,149.1630609,33.05,0.015,45.54475,-2.277,0,1,0
280934,344004010,0,6,547994000,2232,10,1.21,-35.361765,149.1656017,38.35,2.296,144.6632,-0.007,0,1,0
271567,333604005,0,6,547983600,2232,10,1.21,-35.3616099,149.1654718,38.57,2.713,150.8492,0,0,1,0
74880,114403387,0,1,547764400,2232,3,1.21,-35.362574,149.1625176,39.92,3.999,321.2917,0,0,1,1
42076,78003786,0,6,547728000,2232,10,1.21,-35.3631995,149.162997,39.78,0.7460001,330.8498,-0.014,0,1,0
379373,453403566,0,6,548103400,2232,10,1.21,-35.3632671,149.1646697,39.46,9.787001,269.4057,0.023,0,1,4
434892,516203436,0,6,548166200,2232,10,1.21,-35.3632836,149.1630611,20.39,0,338.8143,0,0,1,4
47303,83803965,0,6,547733800,2232,10,1.21,-35.3631047,149.1629246,39.85,2.749,328.4713,-0.049,0,1,0
331827,400603861,0,6,548050600,2232,10,1.21,-35.3619221,149.1657535,23.68,1.622,221.6545,-1.326,0,1,0
242401,301203637,0,6,547951200,2232,10,1.21,-35.3610764,149.1651068,39.08,1.171,177.9652,1.875,0,1,0
199424,253403598,0,6,547903400,2232,10,1.21,-35.3610554,149.1638173,41.43,4.433,108.1931,-0.475,0,1,2
94453,136403750,0,1,547786400,2232,3,1.21,-35.36135,149.1616213,40.91,12.6,327.7672,-0.199,0,1,1
298341,363403747,0,6,548013400,2232,10,1.21,-35.3618904,149.165704,18.51,0,197.4199,0,0,1,3
149574,198003267,0,6,547848000,2232,10,1.21,-35.3605017,149.1618395,41.35,9.927,135.2825,-0.005,0,1,0
124367,170003638,0,6,547820000,2232,10,1.21,-35.3586194,149.1601045,41.14,1.899,147.9466,0.048,0,1,0
162710,212604091,0,6,547862600,2232,10,1.21,-35.3611114,149.1629074,41.44,2.086,51.93878,0.055,0,1,0
100503,143203529,0,1,547793200,2232,3,1.21,-35.3607125,149.1611807,40.96,11.274,332.5108,0.074,0,1,1
305170,371004039,0,6,548021000,2232,10,1.21,-35.3618904,149.165704,18.51,0,251.8939,0,0,1,3
234480,292403825,0,6,547942400,2232,10,1.21,-35.3610344,149.1651191,36.14,4.156,155.7544,0.443,0,1,2
111712,155803487,0,1,547805800,2232,3,1.21,-35.3596642,149.1605799,41.12,9.561001,337.6015,-0.032,0,1,1
294235,358803921,0,6,548008800,2232,10,1.21,-35.3618898,149.1657088,18.53,1.439,44.6623,1.393,0,1,3
435058,516403356,0,6,548166400,2232,10,1.21,-35.3632836,149.1630611,20.39,0,179.6614,0,0,1,4
247078,306404056,0,6,547956400,2232,10,1.21,-35.361179,149.1651417,40.48,0.9020001,145.8608,0.144,0,1,0
293879,358404081,0,6,548008400,2232,10,1.21,-35.3618908,149.1657066,18.63,0.007,120.6382,-0.12,0,1,3
83958,124603472,0,1,547774600,2232,3,1.21,-35.3623562,149.162355,40.26,7.845,331.6668,-0.033,0,1,1
76837,116603340,0,1,547766600,2232,3,1.21,-35.3625338,149.1624769,39.92,1.447,319.4697,-0.011,0,1,1
10569,26403601,0,6,547676400,2232,10,1.21,-35.3632838,149.163061,20.39,0,0,0,0,1,0
326601,394803682,0,6,548044800,2232,10,1.21,-35.3618904,149.165704,18.51,0,352.5516,0,0,1,3
306612,372603399,0,6,548022600,2232,10,1.21,-35.3618904,149.165704,18.51,0,61.40933,0,0,1,3
27125,61403762,0,6,547711400,2232,10,1.21,-35.3632838,149.1630604,39.75,0.127,185.3757,-0.182,0,1,0
269044,330803459,0,6,547980800,2232,10,1.21,-35.3615584,149.1654371,38.67,0.6160001,148.1771,0.008,0,1,0
393589,469203910,0,6,548119200,2232,10,1.21,-35.3632842,149.1630663,39.39,2.323,270.3126,-0.015,0,1,4
391250,466603284,0,6,548116600,2232,10,1.21,-35.3632826,149.1632296,39.4,8.690001,268.9228,-0.003,0,1,4
296553,361403714,0,6,548011400,2232,10,1.21,-35.3618904,149.165704,18.51,0.001,177.8507,0,0,1,3
19913,53403630,0,6,547703400,2232,10,1.21,-35.3632835,149.1630605,24.89,0.015,255.9636,-2.027,0,1,0
344975,415203852,0,6,548065200,2232,10,1.21,-35.3628363,149.1654549,39.21,0.9680001,198.5896,0.011,0,1,0
119540,164603299,0,1,547814600,2232,3,1.21,-35.3589551,149.160255,41.15,9.739,340.7061,-0.014,0,1,1
304086,369803686,0,6,548019800,2232,10,1.21,-35.3618904,149.165704,18.51,0,84.75421,0,0,1,3
28566,63003955,0,6,547713000,2232,10,1.21,-35.3632856,149.1630598,39.81,0.089,210.9913,0.003,0,1,0
91077,132603604,0,1,547782600,2232,3,1.21,-35.3617106,149.1619005,39.75,12.19,329.0345,-0.301,0,1,1
420413,499003652,0,6,548149000,2232,10,1.21,-35.3632836,149.163061,23.12,0.016,289.5317,0.485,0,1,4
265088,326403553,0,6,547976400,2232,10,1.21,-35.361484,149.1653753,38.88,0.7780001,150.7124,0.188,0,1,0
232144,289804032,0,6,547939800,2232,10,1.21,-35.3610146,149.1650048,41.32,2.649,35.89162,0.6720001,0,1,2
410687,488203807,0,6,548138200,2232,10,1.21,-35.3632834,149.1630611,28.35,0.014,269.1364,0.492,0,1,4
33246,68203541,0,6,547718200,2232,10,1.21,-35.363286,149.1630588,39.88,0.014,134.2945,-0.014,0,1,0
206250,261003890,0,6,547911000,2232,10,1.21,-35.3610755,149.1641262,42.93,5.993001,151.7859,-1.586,0,1,2
383512,458003392,0,6,548108000,2232,10,1.21,-35.363272,149.1641685,39.4,9.972,269.2205,0,0,1,4
89651,131003411,0,1,547781000,2232,3,1.21,-35.3618576,149.1620068,39.45,11.502,329.4637,-0.07700001,0,1,1
154248,203203686,0,6,547853200,2232,10,1.21,-35.3608211,149.1622523,41.37,9.847,127.9044,0.017,0,1,0
214704,270403462,0,6,547920400,2232,10,1.21,-35.3610519,149.1643823,38.32,1.508,352.1716,-1.417,0,1,2
344255,414403339,0,6,548064400,2232,10,1.21,-35.3628261,149.1654591,39.23,2.11,198.3468,0.024,0,1,0
138777,186003902,0,6,547836000,2232,10,1.21,-35.3596746,149.1609969,41.34,9.989,143.7564,-0.005,0,1,0
325882,394004002,0,6,548044000,2232,10,1.21,-35.3618904,149.165704,18.51,0,55.16932,0,0,1,3
76124,115803660,0,1,547765800,2232,3,1.21,-35.3625436,149.1624871,39.91,2.199,319.8008,-0.008,0,1,1
113491,157803520,0,1,547807800,2232,3,1.21,-35.3595056,149.1605018,41.15,9.502001,338.6348,0.018,0,1,1
427259,506603944,0,6,548156600,2232,10,1.21,-35.3632836,149.1630611,20.39,0,88.40332,0,0,1,4
306791,372803319,0,6,548022800,2232,10,1.21,-35.3618904,149.165704,18.51,0,231.9323,0,0,1,3
324442,392403809,0,6,548042400,2232,10,1.21,-35.3618904,149.165704,18.51,0.001,235.5001,0,0,1,3
342814,412803979,0,6,548062800,2232,10,1.21,-35.3627745,149.1654792,38.78,5.53,197.156,-0.661,0,1,0
69300,108203368,0,1,547758200,2232,3,1.21,-35.3626833,149.1626099,40,1.674,328.6852,0.09,0,1,1
94098,136003910,0,1,547786000,2232,3,1.21,-35.3613883,149.161651,40.82,12.597,327.502,-0.235,0,1,1
166490,216804077,0,6,547866800,2232,10,1.21,-35.3610399,149.1629687,41.4,0.472,37.7699,0.058,0,1,0
336870,406203287,0,6,548056200,2232,10,1.21,-35.362262,149.1656367,31.32,10.077,192.2514,-1.21,0,1,0
425275,504403991,0,6,548154400,2232,10,1.21,-35.3632836,149.163061,20.5,0.009,82.80448,0.476,0,1,4
405285,482203708,0,6,548132200,2232,10,1.21,-35.3632834,149.1630614,32.34,0.014,108.9356,1.446,0,1,4
4966,19403902,0,6,547669400,2232,10,1.21,-35.3632838,149.163061,20.39,0,0,0,0,1,0
316517,383603997,0,6,548033600,2232,10,1.21,-35.3618904,149.165704,18.51,0,320.0186,0,0,1,3
216858,272803335,0,6,547922800,2232,10,1.21,-35.3610173,149.1644542,40.48,5.085,130.708,0.032,0,1,2
15225,48204044,0,6,547698200,2232,10,1.21,-35.3632838,149.163061,20.39,0,0,0,0,1,0
207330,262203410,0,6,547912200,2232,10,1.21,-35.3611012,149.1641507,43.35,1.389,80.67686,0.7830001,0,1,2
417891,496203939,0,6,548146200,2232,10,1.21,-35.3632836,149.1630611,24.47,0.007,285.8509,0.477,0,1,4
115270,159803553,0,1,547809800,2232,3,1.21,-35.359346,149.1604272,41.12,9.514001,339.546,0.011,0,1,1
266344,327803826,0,6,547977800,2232,10,1.21,-35.3615104,149.1653968,38.68,3.851,145.6774,0.05,0,1,0
75948,115603740,0,1,547765600,2232,3,1.21,-35.3625469,149.1624904,39.91,2.437,320.0708,-0.003,0,1,1
301927,367403813,0,6,548017400,2232,10,1.21,-35.3618904,149.165704,18.51,0,307.242,0,0,1,3
167029,217403837,0,6,547867400,2232,10,1.21,-35.3610384,149.1629702,41.27,0.212,36.16763,0.284,0,1,0
315796,382803484,0,6,548032800,2232,10,1.21,-35.3618904,149.165704,18.51,0,257.5319,0,0,1,3
126888,172803351,0,6,547822800,2232,10,1.21,-35.3587242,149.1601977,41.27,7.79,145.4613,-0.068,0,1,0
126709,172603431,0,6,547822600,2232,10,1.21,-35.3587129,149.1601881,41.25,7.444,144.8361,-0.07700001,0,1,0
156410,205603559,0,6,547855600,2232,10,1.21,-35.3609499,149.1624622,41.33,9.957001,126.6192,0.009,0,1,0
275889,338403751,0,6,547988400,2232,10,1.21,-35.361679,149.1655278,38.4,2.957,142.6393,0.004,0,1,0
281113,344203930,0,6,547994200,2232,10,1.21,-35.3617682,149.1656045,38.35,2.039,144.9883,-0.009,0,1,0
171892,222803343,0,6,547872800,2232,10,1.21,-35.3610367,149.1629812,40.87,2.341,89.55432,0.203,0,1,0
349839,420603358,0,6,548070600,2232,10,1.21,-35.3629303,149.1654015,39.24,2.006,198.0562,0.057,0,1,0
110287,154203294,0,1,547804200,2232,3,1.21,-35.3597916,149.1606454,41.05,9.663,336.9619,-0.047,0,1,1
372350,445603354,0,6,548095600,2232,10,1.21,-35.3632605,149.1652327,39.59,0.478,267.9903,-0.01,0,1,0
275529,338003911,0,6,547988000,2232,10,1.21,-35.3616698,149.1655193,38.41,3.45,142.8961,0.014,0,1,0
349117,419803678,0,6,548069800,2232,10,1.21,-35.3629223,149.1654055,39.29,0.914,207.0699,0.023,0,1,0
278412,341203464,0,6,547991200,2232,10,1.21,-35.3617075,149.1655539,38.4,0.626,149.5676,0.055,0,1,0
314715,381603964,0,6,548031600,2232,10,1.21,-35.3618904,149.165704,18.51,0,296.5637,0,0,1,3
66777,105403655,0,6,547755400,2232,10,1.21,-35.3627161,149.1626331,40.04,3.018,329.3273,0.005,0,1,0
114203,158604033,0,1,547808600,2232,3,1.21,-35.3594419,149.1604716,41.13,9.492001,339.0268,0.015,0,1,1
271746,333803925,0,6,547983800,2232,10,1.21,-35.3616139,149.1654745,38.57,2.452,150.7324,-0.003,0,1,0
371450,444603754,0,6,548094600,2232,10,1.21,-35.3632604,149.1652348,39.6,0.031,218.2163,0.01,0,1,0
183240,235403301,0,6,547885400,2232,10,1.21,-35.3610368,149.1633809,42.56,2.02,89.04053,0.013,0,1,0
85736,126603505,0,1,547776600,2232,3,1.21,-35.3622162,149.1622601,40.19,9.582001,330.5588,0.125,0,1,1
337410,406803880,0,6,548056800,2232,10,1.21,-35.3623155,149.1656218,32.05,10.203,193.3273,-1.213,0,1,0
324260,392203889,0,6,548042200,2232,10,1.21,-35.3618904,149.165704,18.51,0,16.6466,0,0,1,3
89827,131203331,0,1,547781200,2232,3,1.21,-35.3618397,149.1619939,39.47,11.602,329.483,-0.109,0,1,1
158030,207403672,0,6,547857400,2232,10,1.21,-35.3610448,149.1626217,41.35,9.786,121.3998,-0.071,0,1,0
295661,360403281,0,6,548010400,2232,10,1.21,-35.3618904,149.165704,18.52,0.085,233.1899,0.089,0,1,3
355234,426603457,0,6,548076600,2232,10,1.21,-35.3630389,149.165358,39.42,3.797,206.8401,-0.044,0,1,0
376489,450204013,0,6,548100200,2232,10,1.21,-35.3632632,149.1650066,39.53,8.791,269.1608,0.037,0,1,4
196363,250003292,0,6,547900000,2232,10,1.21,-35.3610582,149.163695,39.87,3.18,78.18371,-0.771,0,1,2
130129,176403577,0,6,547826400,2232,10,1.21,-35.3589733,149.1603951,41.33,9.791,147.1083,0.001,0,1,0
43336,79404059,0,6,547729400,2232,10,1.21,-35.3631737,149.1629776,39.79,3.965,327.729,-0.007,0,1,0
404025,480803435,0,6,548130800,2232,10,1.21,-35.3632834,149.1630611,34.36,0.026,70.91776,1.434,0,1,4
149033,197403507,0,6,547847400,2232,10,1.21,-35.3604634,149.1617938,41.35,9.928,136.3623,-0.016,0,1,0
26581,60804002,0,6,547710800,2232,10,1.21,-35.3632835,149.1630605,39.57,0.011,298.3301,-0.443,0,1,0
365140,437604055,0,6,548087600,2232,10,1.21,-35.3632336,149.1652513,39.44,2.587,205.7712,0,0,1,0
263646,324803360,0,6,547974800,2232,10,1.21,-35.361474,149.1653689,38.92,1.377,150.9448,-0.015,0,1,0
165767,216003564,0,6,547866000,2232,10,1.21,-35.3610441,149.1629649,41.41,1.063,35.89789,-0.005,0,1,0
118829,163803619,0,1,547813800,2232,3,1.21,-35.359021,149.1602833,41.14,9.702001,340.6458,-0.019,0,1,1
172432,223403936,0,6,547873400,2232,10,1.21,-35.3610366,149.1630018,40.78,3.899,89.75603,0.105,0,1,0
310934,377403978,0,6,548027400,2232,10,1.21,-35.3618904,149.165704,18.51,0,250.3598,0,0,1,3
62450,100603909,0,6,547750600,2232,10,1.21,-35.3627989,149.1626937,39.72,2.596,327.2821,0.001,0,1,0
425816,505003751,0,6,548155000,2232,10,1.21,-35.3632836,149.1630611,20.38,0.001,277.3185,-0.083,0,1,4
328043,396403875,0,6,548046400,2232,10,1.21,-35.3618904,149.165704,18.51,0,347.5677,0,0,1,3
206069,260803970,0,6,547910800,2232,10,1.21,-35.3610653,149.1641191,42.58,7.009,148.9342,-1.848,0,1,2
133372,180003803,0,6,547830000,2232,10,1.21,-35.3592381,149.1606148,41.32,9.942,145.3693,-0.01,0,1,0
108864,152603934,0,1,547802600,2232,3,1.21,-35.3599199,149.1607134,40.96,9.802,336.358,-0.062,0,1,1
24600,58604049,0,6,547708600,2232,10,1.21,-35.3632836,149.1630607,36.27,0.023,311.4456,-2.312,0,1,0
397723,473803736,0,6,548123800,2232,10,1.21,-35.3632828,149.1630597,39.55,0.022,70.51377,-0.038,0,1,4
231965,289603279,0,6,547939600,2232,10,1.21,-35.3610179,149.165002,41.39,1.798,32.80973,0.002,0,1,2
207515,262403330,0,6,547912400,2232,10,1.21,-35.3611001,149.1641536,43.16,1.633,53.01002,1.098,0,1,2
10888,26803441,0,6,547676800,2232,10,1.21,-35.3632838,149.163061,20.39,0,0,0,0,1,0
101926,144803722,0,1,547794800,2232,3,1.21,-35.3605704,149.1610914,40.84,10.958,333.1545,0.068,0,1,1
149215,197603427,0,6,547847600,2232,10,1.21,-35.3604762,149.161809,41.35,9.919001,135.8557,-0.013,0,1,0
189715,242603753,0,6,547892600,2232,10,1.21,-35.3610071,149.1634164,47.65,5.048,356.2776,-1.142,0,1,2
355053,426403537,0,6,548076400,2232,10,1.21,-35.3630329,149.1653618,39.41,3.689,206.945,-0.067,0,1,0
333268,402204054,0,6,548052200,2232,10,1.21,-35.3619629,149.1657083,25.86,5.351,208.4814,-1.408,0,1,0
126528,172403511,0,6,547822400,2232,10,1.21,-35.3587023,149.1601787,41.24,7.067,144.2867,-0.085,0,1,0
9606,25204081,0,6,547675200,2232,10,1.21,-35.3632838,149.163061,20.39,0,0,0,0,1,0
73271,112603274,0,1,547762600,2232,3,1.21,-35.3626064,149.1625478,39.91,0.762,325.8902,-0.004,0,1,1
25501,59603649,0,6,547709600,2232,10,1.21,-35.3632835,149.1630606,38.34,0.012,313.0836,-1.652,0,1,0
234839,292803665,0,6,547942800,2232,10,1.21,-35.361047,149.1651235,36.06,3.229,172.8755,-0.036,0,1,2
312193,378803418,0,6,548028800,2232,10,1.21,-35.3618904,149.165704,18.51,0,323.8188,0,0,1,3
186298,238803607,0,6,547888800,2232,10,1.21,-35.3609852,149.1633287,48.83,1.91,60.568,-0.754,0,1,0
285436,349003676,0,6,547999000,2232,10,1.21,-35.3618423,149.165666,38.39,2.253,145.2764,0.011,0,1,0
321739,389403343,0,6,548039400,2232,10,1.21,-35.3618904,149.165704,18.51,0,196.4899,0,0,1,3
209851,265003956,0,6,547915000,2232,10,1.21,-35.3610326,149.1642588,40.89,5.359,105.8929,-0.997,0,1,2
247798,307203736,0,6,547957200,2232,10,1.21,-35.3611894,149.1651501,40.06,2.765,146.5618,0.751,0,1,0
191510,244603786,0,6,547894600,2232,10,1.21,-35.3609815,149.1634678,46.47,4.358,129.3534,1.963,0,1,2
288859,352803822,0,6,548002800,2232,10,1.21,-35.3618856,149.1657051,26.18,1.336,166.2032,8.145,0,1,3
345156,415403772,0,6,548065400,2232,10,1.21,-35.3628378,149.1654543,39.21,0.788,198.9725,0.001,0,1,0
188457,241203480,0,6,547891200,2232,10,1.21,-35.3610314,149.1634221,46.84,2.316,151.9057,0.62,0,1,0
421313,500004085,0,6,548150000,2232,10,1.21,-35.3632835,149.1630609,22.64,0.007,293.202,0.487,0,1,4
238433,296803731,0,6,547946800,2232,10,1.21,-35.3610214,149.1651384,39.58,4.92,131.6414,-0.09200001,0,1,2
396822,472803303,0,6,548122800,2232,10,1.21,-35.363283,149.163059,39.5,0.148,76.89257,-0.056,0,1,4
62809,101003749,0,6,547751000,2232,10,1.21,-35.362792,149.1626881,39.72,2.052,327.3594,-0.008,0,1,0
167570,218003597,0,6,547868000,2232,10,1.21,-35.3610378,149.1629706,41.14,0.06,16.966,0.148,0,1,0
249596,309203769,0,6,547959200,2232,10,1.21,-35.3612373,149.1651934,39.12,2.22,140.6187,-0.019,0,1,0
369281,442203881,0,6,548092200,2232,10,1.21,-35.3632599,149.1652351,39.6,0.009,203.0705,0.003,0,1,0
35586,70803334,0,6,547720800,2232,10,1.21,-35.3632862,149.1630591,39.92,0.006,337.5567,-0.01,0,1,0
125267,171004071,0,6,547821000,2232,10,1.21,-35.3586441,149.160126,41.12,4.53,143.2389,-0.037,0,1,0
84667,125403985,0,1,547775400,2232,3,1.21,-35.3623032,149.1623196,40.27,8.825001,331.131,0.011,0,1,1
3519,17603789,0,6,547667600,2232,10,1.21,-35.3632838,149.163061,20.39,0,0,0,0,1,0
297449,362403314,0,6,548012400,2232,10,1.21,-35.3618904,149.165704,18.51,0,333.9676,0,0,1,3
130490,176803417,0,6,547826800,2232,10,1.21,-35.359003,149.1604186,41.33,9.831,147.0038,0,0,1,0
390170,465403764,0,6,548115400,2232,10,1.21,-35.3632808,149.1633541,39.4,9.897,269.1811,0.002,0,1,4
424915,504003318,0,6,548154000,2232,10,1.21,-35.3632836,149.163061,20.69,0.013,69.07341,0.48,0,1,4
230885,288403759,0,6,547938400,2232,10,1.21,-35.361012,149.16499,39.36,2.795,145.656,-2.367,0,1,2
209491,264603283,0,6,547914600,2232,10,1.21,-35.3610315,149.1642344,40.63,5.941,79.44102,-0.321,0,1,2
193125,246403899,0,6,547896400,2232,10,1.21,-35.3610374,149.1635413,41.86,3.766,95.56065,2.788,0,1,2
326242,394403842,0,6,548044400,2232,10,1.21,-35.3618904,149.165704,18.51,0.001,336.0447,0,0,1,3
47844,84403725,0,6,547734400,2232,10,1.21,-35.3630889,149.1629125,39.87,3.973,327.6574,-0.021,0,1,0
143090,190803648,0,6,547840800,2232,10,1.21,-35.3600152,149.1613198,41.37,9.990001,141.6043,-0.013,0,1,0
129229,175403977,0,6,547825400,2232,10,1.21,-35.3589,149.1603375,41.33,9.606001,147.5099,-0.006,0,1,0
231426,289003519,0,6,547939000,2232,10,1.21,-35.3610203,149.1649971,40.82,0.9680001,128.5395,-1.874,0,1,2
81105,121403919,0,1,547771400,2232,3,1.21,-35.362456,149.1624187,39.96,1.333,329.5145,-0.006,0,1,1
202118,256404064,0,6,547906400,2232,10,1.21,-35.3610308,149.1639372,39.63,5.71,135.5896,-0.056,0,1,2
157129,206404072,0,6,547856400,2232,10,1.21,-35.3609928,149.1625326,41.33,9.984,126.7707,0.004,0,1,0
17387,50603917,0,6,547700600,2232,10,1.21,-35.3632838,149.163061,20.54,0,338.8719,-0.7220001,0,1,0
3679,17803709,0,6,547667800,2232,10,1.21,-35.3632838,149.163061,20.39,0,0,0,0,1,0
295842,360604034,0,6,548010600,2232,10,1.21,-35.3618904,149.165704,18.5,0.01,233.9266,0.011,0,1,3
159472,209003865,0,6,547859000,2232,10,1.21,-35.3610921,149.1627643,41.44,7.393,105.3097,-0.029,0,1,0
4319,18603389,0,6,547668600,2232,10,1.21,-35.3632838,149.163061,20.39,0,0,0,0,1,0
359194,431003363,0,6,548081000,2232,10,1.21,-35.3631064,149.1653187,39.49,3.042,201.5557,-0.049,0,1,0
329846,398403908,0,6,548048400,2232,10,1.21,-35.361891,149.1657042,18.84,0.8980001,149.7231,-1.518,0,1,3
225317,282203740,0,6,547932200,2232,10,1.21,-35.3610506,149.1647623,40.77,1.831,24.62977,0.003,0,1,2
310393,376803385,0,6,548026800,2232,10,1.21,-35.3618904,149.165704,18.51,0,90.29957,0,0,1,3
33067,68003621,0,6,547718000,2232,10,1.21,-35.363286,149.1630588,39.88,0.009,144.3336,-0.016,0,1,0
10247,26003761,0,6,547676000,2232,10,1.21,-35.3632838,149.163061,20.39,0,0,0,0,1,0
13496,46204011,0,6,547696200,2232,10,1.21,-35.3632838,149.163061,20.39,0,0,0,0,1,0
52891,90003984,0,6,547740000,2232,10,1.21,-35.3629843,149.1628404,39.93,3.559,334.6622,0.019,0,1,0
32346,67203941,0,6,547717200,2232,10,1.21,-35.3632859,149.1630588,39.86,0.009,128.718,-0.021,0,1,0
280034,343003577,0,6,547993000,2232,10,1.21,-35.3617431,149.165583,38.35,3.63,145.2234,0.007,0,1,0
282914,346203963,0,6,547996200,2232,10,1.21,-35.3617841,149.1656176,38.37,0.739,148.555,-0.017,0,1,0
412488,490203840,0,6,548140200,2232,10,1.21,-35.3632835,149.1630611,27.38,0.018,137.4028,0.483,0,1,4
152271,201003733,0,6,547851000,2232,10,1.21,-35.36069,149.162074,41.38,9.985001,134.462,-0.014,0,1,0
172973,224003696,0,6,547874000,2232,10,1.21,-35.3610362,149.1630304,40.73,4.41,89.00172,0.053,0,1,0
411588,489203407,0,6,548139200,2232,10,1.21,-35.3632834,149.1630611,27.86,0.006,56.36763,0.486,0,1,4
243293,302204070,0,6,547952200,2232,10,1.21,-35.3611025,149.1651096,37.24,3.965,180.7994,1.478,0,1,0
280574,343603337,0,6,547993600,2232,10,1.21,-35.3617574,149.1655951,38.35,2.838,144.9771,0.001,0,1,0
68942,107803528,0,1,547757800,2232,3,1.21,-35.3626869,149.1626125,40.03,0.804,331.1661,0.081,0,1,1
387105,462003458,0,6,548112000,2232,10,1.21,-35.3632768,149.1637281,39.4,9.996,269.2292,-0.005,0,1,4
330386,399003668,0,6,548049000,2232,10,1.21,-35.3619024,149.1657169,19.96,4.181,130.021,-2.14,0,1,0
419691,498203972,0,6,548148200,2232,10,1.21,-35.3632836,149.1630611,23.51,0.006,252.1176,0.48,0,1,4
210570,265803636,0,6,547915800,2232,10,1.21,-35.3610508,149.1642905,41.77,3.165,145.217,-0.585,0,1,2
170271,221004063,0,6,547871000,2232,10,1.21,-35.3610369,149.1629697,41.08,0.038,337.5801,0.004,0,1,0
292811,357203728,0,6,548007200,2232,10,1.21,-35.3618909,149.1657075,18.58,1.743,284.1724,1.632,0,1,3
370729,443804074,0,6,548093800,2232,10,1.21,-35.3632602,149.165235,39.6,0.025,205.6356,0,0,1,0
124007,169603798,0,6,547819600,2232,10,1.21,-35.3586161,149.1601023,41.16,0.257,173.7872,0.042,0,1,0
258241,318803261,0,6,547968800,2232,10,1.21,-35.3613815,149.1653074,39.01,2.555,151.6572,0.055,0,1,0
396285,472203543,0,6,548122200,2232,10,1.21,-35.3632833,149.1630577,39.47,0.258,80.5105,-0.045,0,1,4
171532,222403503,0,6,547872400,2232,10,1.21,-35.3610368,149.1629731,40.96,1.279,88.92695,0.249,0,1,0
246358,305603543,0,6,547955600,2232,10,1.21,-35.361174,149.1651365,40.14,1.089,136.203,-0.886,0,1,0
176393,227803842,0,6,547877800,2232,10,1.21,-35.3610367,149.1631212,40.75,2.786,90.43821,-0.038,0,1,0
245817,305003783,0,6,547955000,2232,10,1.21,-35.3611692,149.1651307,39.5,1.406,135.4023,-1.384,0,1,0
185220,237604087,0,6,547887600,2232,10,1.21,-35.3610111,149.1633436,46.23,5.133,308.951,-3.289,0,1,0
49465,86203838,0,6,547736200,2232,10,1.21,-35.3630463,149.1628791,39.87,1.928,327.3824,-0.002,0,1,0
358836,430603523,0,6,548080600,2232,10,1.21,-35.363098,149.1653227,39.47,2.003,202.1506,-0.06,0,1,0
285254,348803756,0,6,547998800,2232,10,1.21,-35.3618388,149.1656631,38.39,2.517,145.296,0.014,0,1,0
417172,495403426,0,6,548145400,2232,10,1.21,-35.3632836,149.1630611,24.85,0.005,215.9004,0.479,0,1,4
380632,454803839,0,6,548104800,2232,10,1.21,-35.3632684,149.1645182,39.43,9.857,269.3308,0.019,0,1,4
47663,84203805,0,6,547734200,2232,10,1.21,-35.3630948,149.162917,39.87,3.716,327.9892,-0.03,0,1,0
348757,419403838,0,6,548069400,2232,10,1.21,-35.3629187,149.1654078,39.29,1.286,206.2122,0.003,0,1,0
232866,290603712,0,6,547940600,2232,10,1.21,-35.3609983,149.1650335,39.86,4.998,75.42897,2.72,0,1,2
32886,67803701,0,6,547717800,2232,10,1.21,-35.363286,149.1630588,39.87,0.009,127.7548,-0.017,0,1,0
13665,46403931,0,6,547696400,2232,10,1.21,-35.3632838,149.163061,20.39,0,0,0,0,1,0
272827,335003445,0,6,547985000,2232,10,1.21,-35.3616303,149.1654858,38.58,1.107,151.3915,-0.005,0,1,0
362799,435003429,0,6,548085000,2232,10,1.21,-35.3631753,149.1652871,39.48,0.645,206.4556,0.036,0,1,0
407987,485203341,0,6,548135200,2232,10,1.21,-35.3632834,149.1630614,29.81,0.003,278.1573,0.451,0,1,4
36847,72203607,0,6,547722200,2232,10,1.21,-35.3632862,149.1630591,39.93,0.01,290.0256,-0.012,0,1,0
152809,201603493,0,6,547851600,2232,10,1.21,-35.3607277,149.1621209,41.38,9.986,134.48,-0.012,0,1,0
299953,365203860,0,6,548015200,2232,10,1.21,-35.3618904,149.165704,18.51,0,203.1272,0,0,1,3
280394,343403417,0,6,547993400,2232,10,1.21,-35.3617531,149.1655915,38.35,3.115,145.0862,0.004,0,1,0
370909,444003994,0,6,548094000,2232,10,1.21,-35.3632603,149.165235,39.6,0.025,217.0251,0.002,0,1,0
324622,392603729,0,6,548042600,2232,10,1.21,-35.3618904,149.165704,18.51,0,324.1269,0,0,1,3
141111,188603695,0,6,547838600,2232,10,1.21,-35.3598603,149.1611696,41.36,9.976001,141.7564,-0.006,0,1,0
351999,423004064,0,6,548073000,2232,10,1.21,-35.3629917,149.1653819,39.21,1.929,193.0812,-0.012,0,1,0
174233,225403969,0,6,547875400,2232,10,1.21,-35.3610361,149.1630822,40.71,2.262,90.98991,-0.01,0,1,0
242038,300803797,0,6,547950800,2232,10,1.21,-35.3610752,149.1651085,39.78,1.008,298.5168,1.571,0,1,0
293524,358003408,0,6,548008000,2232,10,1.21,-35.3618908,149.1657066,18.59,0.031,280.6646,-0.102,0,1,3
159291,208803945,0,6,547858800,2232,10,1.21,-35.3610884,149.1627481,41.43,7.769001,106.2527,-0.034,0,1,0
347676,418203485,0,6,548068200,2232,10,1.21,-35.3628993,149.165419,39.29,2.781,205.3301,-0.008,0,1,0
168830,219403870,0,6,547869400,2232,10,1.21,-35.3610375,149.1629702,41.09,0.055,290.2061,-0.007,0,1,0
23157,57003856,0,6,547707000,2232,10,1.21,-35.3632836,149.1630607,32.59,0.022,53.59215,-2.27,0,1,0
311474,378003738,0,6,548028000,2232,10,1.21,-35.3618904,149.165704,18.51,0,61.95625,0,0,1,3
84489,125204065,0,1,547775200,2232,3,1.21,-35.362317,149.162329,40.27,8.636001,331.2986,-0.001,0,1,1
98722,141203496,0,1,547791200,2232,3,1.21,-35.3608949,149.161299,41.12,11.697,331.5874,0.071,0,1,1
29645,64203475,0,6,547714200,2232,10,1.21,-35.3632859,149.1630592,39.81,0.044,267.7803,-0.008,0,1,0
434238,515403756,0,6,548165400,2232,10,1.21,-35.3632836,149.1630611,20.39,0,325.07,0,0,1,4
289043,353003742,0,6,548003000,2232,10,1.21,-35.361888,149.1657056,24.53,1.273,172.9015,8.381001,0,1,3
90185,131604004,0,1,547781600,2232,3,1.21,-35.3618035,149.1619677,39.53,11.789,329.4977,-0.167,0,1,1
110645,154603967,0,1,547804600,2232,3,1.21,-35.3597597,149.1606287,41.07,9.64,337.1165,-0.045,0,1,1
351459,422403471,0,6,548072400,2232,10,1.21,-35.3629796,149.1653854,39.2,2.699,193.509,0,0,1,0
185938,238403767,0,6,547888400,2232,10,1.21,-35.3609906,149.163325,48.35,2.001,358.4051,-1.682,0,1,0
145072,193003601,0,6,547843000,2232,10,1.21,-35.360168,149.1614722,41.38,9.972,138.9967,0.009,0,1,0
130849,177204090,0,6,547827200,2232,10,1.21,-35.3590326,149.1604423,41.33,9.853001,146.5595,0,0,1,0
38650,74203640,0,6,547724200,2232,10,1.21,-35.3632693,149.1630468,39.79,3.35,330.1379,0.07,0,1,0
7368,22403535,0,6,547672400,2232,10,1.21,-35.3632838,149.163061,20.39,0,0,0,0,1,0
217217,273204008,0,6,547923200,2232,10,1.21,-35.3610308,149.1644713,40.42,5.456,134.8198,0.197,0,1,2
404565,481404028,0,6,548131400,2232,10,1.21,-35.3632834,149.1630611,33.49,0.018,76.64606,1.439,0,1,4
105128,148403948,0,1,547798400,2232,3,1.21,-35.3602629,149.1609061,40.79,10.285,334.4633,-0.05,0,1,1
57762,95403490,0,6,547745400,2232,10,1.21,-35.3628883,149.1627672,39.76,3.183,322.3737,0.01,0,1,0
106551,150003308,0,1,547800000,2232,3,1.21,-35.3601309,149.1608298,40.85,10.044,335.2209,-0.037,0,1,1
255179,315403788,0,6,547965400,2232,10,1.21,-35.3613249,149.1652686,39.2,0.979,145.7268,-0.042,0,1,0
341734,411603626,0,6,548061600,2232,10,1.21,-35.3627056,149.1655046,37.85,7.661,196.1233,-0.83,0,1,0
124545,170203558,0,6,547820200,2232,10,1.21,-35.3586229,149.1601072,41.13,2.576,145.9117,0.041,0,1,0
230708,288203839,0,6,547938200,2232,10,1.21,-35.3610075,149.164986,38.94,3.473,142.5066,-1.852,0,1,2
60466,98403956,0,6,547748400,2232,10,1.21,-35.3628542,149.1627368,39.75,1.978,327.6977,0.032,0,1,0
68763,107603608,0,1,547757600,2232,3,1.21,-35.3626881,149.1626131,40.05,0.67,331.6565,0.046,0,1,1
340653,410403273,0,6,548060400,2232,10,1.21,-35.3626238,149.1655305,36.7,8.027,192.8512,-1.275,0,1,0
271927,334003845,0,6,547984000,2232,10,1.21,-35.3616175,149.1654771,38.57,2.197,150.6355,-0.006,0,1,0
421492,500204005,0,6,548150200,2232,10,1.21,-35.3632835,149.1630609,22.54,0.007,253.7849,0.484,0,1,4
346056,416403372,0,6,548066400,2232,10,1.21,-35.362849,149.1654484,39.23,2.525,204.8266,-0.038,0,1,0
197800,251603485,0,6,547901600,2232,10,1.21,-35.3610167,149.163747,40.61,3.682,70.3069,-0.068,0,1,2
273006,335203365,0,6,547985200,2232,10,1.21,-35.3616319,149.1654868,38.58,0.934,151.5497,-0.004,0,1,0
98011,140403816,0,1,547790400,2232,3,1.21,-35.3609692,149.1613487,41.17,11.866,331.199,0.05,0,1,1
163244,213203851,0,6,547863200,2232,10,1.21,-35.3611005,149.1629199,41.41,3.451,37.62204,0.033,0,1,0
328401,396803715,0,6,548046800,2232,10,1.21,-35.3618904,149.165704,18.51,0,210.2436,0,0,1,3
132830,179404043,0,6,547829400,2232,10,1.21,-35.359194,149.1605775,41.32,9.926001,145.451,-0.002,0,1,0
437519,519403822,0,6,548169400,2232,10,1.21,-35.3632836,149.1630611,20.39,0,315.4345,0,0,1,4
200320,254404031,0,6,547904400,2232,10,1.21,-35.3610478,149.1638553,41.29,3.998,44.34113,0.703,0,1,2
196722,250403965,0,6,547900400,2232,10,1.21,-35.3610523,149.1637079,40.16,3.804,45.90152,-0.655,0,1,2
256261,316603308,0,6,547966600,2232,10,1.21,-35.3613314,149.1652738,39.21,1.131,150.9451,0.08400001,0,1,0
265446,326803393,0,6,547976800,2232,10,1.21,-35.3614878,149.1653782,38.8,1.789,146.754,0.194,0,1,0
436043,517603709,0,6,548167600,2232,10,1.21,-35.3632836,149.1630611,20.39,0,90.298,0,0,1,4
431525,512003450,0,6,548162000,2232,10,1.21,-35.3632836,149.1630611,20.39,0,84.4136,0,0,1,4
225854,282803500,0,6,547932800,2232,10,1.21,-35.3610326,149.1647731,40.98,5.459,27.43054,-0.626,0,1,2
115448,160003473,0,1,547810000,2232,3,1.21,-35.3593301,149.1604199,41.12,9.525001,339.6386,0.011,0,1,1
357393,429003330,0,6,548079000,2232,10,1.21,-35.363086,149.1653296,39.41,1.058,205.9519,-0.004,0,1,0
90896,132403684,0,1,547782400,2232,3,1.21,-35.3617294,149.1619141,39.69,12.118,329.3049,-0.265,0,1,1
307872,374003672,0,6,548024000,2232,10,1.21,-35.3618904,149.165704,18.51,0,118.4253,0,0,1,3
28026,62403362,0,6,547712400,2232,10,1.21,-35.363285,149.1630601,39.81,0.12,193.5662,0.002,0,1,0
253019,313003915,0,6,547963000,2232,10,1.21,-35.3612828,149.1652334,39.3,3.861,145.6148,0.12,0,1,0
97122,139403383,0,1,547789400,2232,3,1.21,-35.361063,149.1614128,41.2,12.075,330.6413,-0.001,0,1,1
281652,344803690,0,6,547994800,2232,10,1.21,-35.3617756,149.1656108,38.36,1.354,145.5982,-0.008,0,1,0
346596,417003965,0,6,548067000,2232,10,1.21,-35.362865,149.165439,39.26,3.87,205.5923,-0.053,0,1,0
220280,276603481,0,6,547926600,2232,10,1.21,-35.3610223,149.1645979,40.69,5.521,132.0183,0.052,0,1,2
428206,507803464,0,6,548157800,2232,10,1.21,-35.3632836,149.1630611,20.39,0,158.999,0,0,1,4
195462,249003692,0,6,547899000,2232,10,1.21,-35.3610378,149.163655,39.13,6.14,141.7369,-0.6070001,0,1,2
95343,137403350,0,1,547787400,2232,3,1.21,-35.361254,149.1615488,41.06,12.495,328.9585,-0.13,0,1,1
90541,132003844,0,1,547782000,2232,3,1.21,-35.3617666,149.1619411,39.6,11.958,329.4961,-0.214,0,1,1
262566,323603840,0,6,547973600,2232,10,1.21,-35.3614546,149.1653557,38.91,2.8,150.9814,-0.004,0,1,0
112067,156203327,0,1,547806200,2232,3,1.21,-35.3596324,149.160564,41.13,9.541,337.7607,-0.027,0,1,1
260045,320803294,0,6,547970800,2232,10,1.21,-35.3614044,149.1653227,39.03,0.597,151.6447,0.039,0,1,0
224776,281603980,0,6,547931600,2232,10,1.21,-35.3610514,149.1647597,40.61,1.249,167.6015,-0.8150001,0,1,2
5445,20003662,0,6,547670000,2232,10,1.21,-35.3632838,149.163061,20.39,0,0,0,0,1,0
242221,301003717,0,6,547951000,2232,10,1.21,-35.3610751,149.1651072,39.45,0.515,227.9647,1.759,0,1,0
109932,153803454,0,1,547803800,2232,3,1.21,-35.3598237,149.1606622,41.03,9.699,336.6903,-0.053,0,1,1
62987,101203669,0,6,547751200,2232,10,1.21,-35.3627891,149.1626858,39.72,1.797,327.4381,-0.008,0,1,0
29466,64003555,0,6,547714000,2232,10,1.21,-35.3632859,149.1630592,39.81,0.055,255.7016,-0.006,0,1,0
150834,199403540,0,6,547849400,2232,10,1.21,-35.3605897,149.1619483,41.36,9.950001,134.3694,-0.008,0,1,0
72367,111603674,0,1,547761600,2232,3,1.21,-35.3626137,149.1625539,39.91,1.339,325.224,0,0,1,1
192768,246004059,0,6,547896000,2232,10,1.21,-35.361032,149.1635236,43,5.02,121.2194,2.878,0,1,2
170091,220803310,0,6,547870800,2232,10,1.21,-35.3610371,149.1629697,41.09,0.04,331.4802,0.006,0,1,0
133912,180603563,0,6,547830600,2232,10,1.21,-35.3592821,149.1606521,41.33,9.938001,145.4003,-0.009,0,1,0
361540,433603989,0,6,548083600,2232,10,1.21,-35.3631662,149.1652915,39.49,1.311,200.2385,0.006,0,1,0
184856,237203414,0,6,547887200,2232,10,1.21,-35.3610215,149.1633622,45.03,4.93,301.12,-2.685,0,1,0
189176,242003993,0,6,547892000,2232,10,1.21,-35.3610289,149.1634216,46.95,2.778,342.4544,-0.8340001,0,1,2
426177,505403591,0,6,548155400,2232,10,1.21,-35.3632836,149.1630611,20.38,0,88.31203,0.008,0,1,4
363340,435604022,0,6,548085600,2232,10,1.21,-35.3631817,149.1652832,39.45,2.08,206.7104,0.023,0,1,0
86268,127203265,0,1,547777200,2232,3,1.21,-35.3621708,149.1622286,40.09,9.802,330.368,0.201,0,1,1
335970,405203687,0,6,548055200,2232,10,1.21,-35.3621743,149.1656563,30.02,9.761001,188.6889,-1.392,0,1,0
177293,228803442,0,6,547878800,2232,10,1.21,-35.3610368,149.163165,40.78,4.78,89.59797,-0.019,0,1,0
48026,84603645,0,6,547734600,2232,10,1.21,-35.3630828,149.1629077,39.88,4.009,327.3979,-0.007,0,1,0
359738,431603956,0,6,548081600,2232,10,1.21,-35.3631242,149.1653103,39.51,3.685,200.3365,-0.017,0,1,0
407087,484203741,0,6,548134200,2232,10,1.21,-35.3632834,149.1630614,30.21,0.012,200.3364,0.385,0,1,4
61186,99203636,0,6,547749200,2232,10,1.21,-35.362836,149.1627227,39.73,3.881,327.7343,0.009,0,1,0
254099,314203435,0,6,547964200,2232,10,1.21,-35.3613107,149.1652567,39.19,2.321,145.6043,0.05,0,1,0
117939,162804019,0,1,547812800,2232,3,1.21,-35.359103,149.1603189,41.11,9.668,340.3642,-0.031,0,1,1
46943,83403292,0,6,547733400,2232,10,1.21,-35.3631117,149.1629297,39.83,1.703,329.1745,-0.062,0,1,0
205350,260003457,0,6,547910000,2232,10,1.21,-35.3610268,149.1640775,41.3,6.563,125.6188,-1.179,0,1,2
8968,24403568,0,6,547674400,2232,10,1.21,-35.3632838,149.163061,20.39,0,0,0,0,1,0
430261,510404090,0,6,548160400,2232,10,1.21,-35.3632836,149.1630611,20.39,0,256.533,0,0,1,4
427078,506404024,0,6,548156400,2232,10,1.21,-35.3632836,149.1630611,20.39,0,26.27925,0,0,1,4
104060,147203595,0,1,547797200,2232,3,1.21,-35.3603638,149.1609655,40.74,10.475,334.0234,0.004,0,1,1
360998,433003396,0,6,548083000,2232,10,1.21,-35.363158,149.1652952,39.5,1.983,199.6867,0.015,0,1,0
167748,218203517,0,6,547868200,2232,10,1.21,-35.3610377,149.1629706,41.11,0.042,359.7463,0.09500001,0,1,0
79682,119803726,0,1,547769800,2232,3,1.21,-35.3624808,149.1624367,39.96,2.875,329.4879,0.009,0,1,1
88049,129203298,0,1,547779200,2232,3,1.21,-35.3620121,149.1621173,39.59,10.605,330.031,0.206,0,1,1
435878,517403789,0,6,548167400,2232,10,1.21,-35.3632836,149.1630611,20.39,0,250.6505,0,0,1,4
366580,439203415,0,6,548089200,2232,10,1.21,-35.3632549,149.1652389,39.44,0.8150001,206.8116,-0.007,0,1,0
137875,185003469,0,6,547835000,2232,10,1.21,-35.3596022,149.1609318,41.34,9.995001,143.6559,-0.003,0,1,0
346415,416804045,0,6,548066800,2232,10,1.21,-35.3628589,149.1654427,39.24,3.554,205.6517,-0.051,0,1,0
64974,103403622,0,6,547753400,2232,10,1.21,-35.3627703,149.1626722,39.88,2.081,330.2368,-0.208,0,1,0
351641,422603391,0,6,548072600,2232,10,1.21,-35.3629842,149.165384,39.2,2.436,193.278,-0.005,0,1,0
258061,318603341,0,6,547968600,2232,10,1.21,-35.3613773,149.1653045,39.02,2.814,151.5724,0.058,0,1,0
175315,226603489,0,6,547876600,2232,10,1.21,-35.3610363,149.1631021,40.71,0.86,91.52338,-0.001,0,1,0
344795,415003932,0,6,548065000,2232,10,1.21,-35.3628345,149.1654557,39.21,1.202,198.4518,0.026,0,1,0
252298,312203402,0,6,547962200,2232,10,1.21,-35.3612619,149.1652164,39.43,2.607,146.5291,0.175,0,1,0
387649,462604051,0,6,548112600,2232,10,1.21,-35.3632774,149.163662,39.41,9.998,269.2474,-0.01,0,1,4
168471,219004030,0,6,547869000,2232,10,1.21,-35.3610375,149.1629705,41.09,0.042,292.7176,-0.002,0,1,0
92497,134203797,0,1,547784200,2232,3,1.21,-35.3615595,149.1617852,40.28,12.509,327.5247,-0.334,0,1,1
305530,371403879,0,6,548021400,2232,10,1.21,-35.3618904,149.165704,18.51,0,233.6636,0,0,1,3
55239,92603777,0,6,547742600,2232,10,1.21,-35.3629442,149.1628178,39.93,0.6070001,337.5514,0.024,0,1,0
93564,135403317,0,1,547785400,2232,3,1.21,-35.3614455,149.1616958,40.66,12.587,327.3237,-0.281,0,1,1
351277,422203551,0,6,548072200,2232,10,1.21,-35.3629746,149.1653868,39.2,2.967,193.6915,0.006,0,1,0
22435,56203343,0,6,547706200,2232,10,1.21,-35.3632836,149.1630607,30.79,0.013,89.27119,-2.223,0,1,0
18288,51603517,0,6,547701600,2232,10,1.21,-35.3632836,149.1630607,21.82,0.032,321.2423,-1.348,0,1,0
34867,70003654,0,6,547720000,2232,10,1.21,-35.3632862,149.1630591,39.91,0.009,312.9073,-0.013,0,1,0
221002,277403994,0,6,547927400,2232,10,1.21,-35.361046,149.1646235,40.34,2.687,131.7066,0.8570001,0,1,2
249240,308803929,0,6,547958800,2232,10,1.21,-35.3612302,149.1651865,39.15,2.838,141.6198,0.188,0,1,0
423655,502603878,0,6,548152600,2232,10,1.21,-35.3632836,149.1630607,21.37,0.018,89.61222,0.486,0,1,4
375951,449603420,0,6,548099600,2232,10,1.21,-35.3632625,149.1650622,39.55,7.951,269.1249,0.039,0,1,4
400964,477403962,0,6,548127400,2232,10,1.21,-35.3632834,149.1630604,39.26,0.04,117.9423,0.883,0,1,4
273728,336003878,0,6,547986000,2232,10,1.21,-35.361636,149.1654895,38.57,0.453,154.8585,0.06500001,0,1,0
377571,451403533,0,6,548101400,2232,10,1.21,-35.3632647,149.1648837,39.5,9.638,269.1117,0.016,0,1,4
189533,242403833,0,6,547892400,2232,10,1.21,-35.3610159,149.1634178,47.4,4.626,350.0572,-1.342,0,1,2
160731,210403305,0,6,547860400,2232,10,1.21,-35.3611087,149.1628532,41.47,4.317,100.7617,-0.02,0,1,0
151016,199603460,0,6,547849600,2232,10,1.21,-35.3606021,149.1619639,41.36,9.951,134.3214,-0.009,0,1,0
425457,504603911,0,6,548154600,2232,10,1.21,-35.3632836,149.163061,20.41,0.016,98.38436,0.474,0,1,4
27665,62003522,0,6,547712000,2232,10,1.21,-35.3632845,149.1630602,39.81,0.136,191.2493,-0.029,0,1,0
169549,220203550,0,6,547870200,2232,10,1.21,-35.3610373,149.1629699,41.09,0.039,306.5777,0.004,0,1,0
85912,126803425,0,1,547776800,2232,3,1.21,-35.3622012,149.1622497,40.16,9.649,330.4754,0.149,0,1,1
61908,100003316,0,6,547750000,2232,10,1.21,-35.3628127,149.1627045,39.72,3.441,327.3784,0.017,0,1,0
366041,438603655,0,6,548088600,2232,10,1.21,-35.3632495,149.165242,39.44,1.376,205.5412,-0.004,0,1,0
75059,114603307,0,1,547764600,2232,3,1.21,-35.3625685,149.1625121,39.92,3.839,320.894,0.007,0,1,1
226391,283403260,0,6,547933400,2232,10,1.21,-35.361,149.164794,41.47,8.017,26.56939,-0.992,0,1,2
263286,324403520,0,6,547974400,2232,10,1.21,-35.3614691,149.1653655,38.92,1.808,150.9401,-0.014,0,1,0
116337,161003906,0,1,547811000,2232,3,1.21,-35.3592495,149.1603836,41.1,9.597,339.9654,0.01,0,1,1
237361,295603378,0,6,547945600,2232,10,1.21,-35.3610137,149.1650965,39.28,2.495,30.27145,-0.8240001,0,1,2
116870,161603666,0,1,547811600,2232,3,1.21,-35.3592007,149.160362,41.1,9.636001,340.094,0.009,0,1,1
319579,387003470,0,6,548037000,2232,10,1.21,-35.3618904,149.165704,18.51,0.001,132.9374,0,0,1,3
94988,137003510,0,1,547787000,2232,3,1.21,-35.3612926,149.1615774,41.01,12.547,328.4052,-0.148,0,1,1
20632,54203310,0,6,547704200,2232,10,1.21,-35.3632835,149.1630605,26.52,0.016,170.3384,-2.053,0,1,0
135893,182803516,0,6,547832800,2232,10,1.21,-35.3594432,149.1607895,41.34,9.928,144.155,0.003,0,1,0
10728,26603521,0,6,547676600,2232,10,1.21,-35.3632838,149.163061,20.39,0,0,0,0,1,0
269405,331203299,0,6,547981200,2232,10,1.21,-35.3615601,149.1654384,38.66,0.5840001,151.9763,0.07,0,1,0
126346,172203591,0,6,547822200,2232,10,1.21,-35.3586923,149.1601699,41.22,6.666,143.9517,-0.09200001,0,1,0
286154,349803356,0,6,547999800,2232,10,1.21,-35.3618528,149.165675,38.38,1.318,145.8322,0,0,1,0
428680,508404057,0,6,548158400,2232,10,1.21,-35.3632836,149.1630611,20.39,0,210.978,0,0,1,4
85556,126403585,0,1,547776400,2232,3,1.21,-35.362231,149.1622705,40.22,9.495001,330.6401,0.102,0,1,1
339211,408803913,0,6,548058800,2232,10,1.21,-35.3624934,149.1655682,34.6,10.087,193.7152,-1.301,0,1,0
392328,467803637,0,6,548117800,2232,10,1.21,-35.3632839,149.1631309,39.4,6.039001,269.2752,0.017,0,1,4
34686,69803734,0,6,547719800,2232,10,1.21,-35.3632862,149.1630591,39.91,0.008,338.1296,-0.015,0,1,0
265984,327403986,0,6,547977400,2232,10,1.21,-35.3614994,149.1653878,38.71,3.359,146.3246,0.09900001,0,1,0
175493,226803409,0,6,547876800,2232,10,1.21,-35.3610365,149.1631038,40.72,0.776,91.86278,-0.013,0,1,0
172251,223204016,0,6,547873200,2232,10,1.21,-35.3610366,149.1629937,40.8,3.387,89.84706,0.135,0,1,0
17926,51203677,0,6,547701200,2232,10,1.21,-35.3632838,149.1630609,21.3,0.042,313.567,-1.276,0,1,0
367121,439804008,0,6,548089800,2232,10,1.21,-35.3632578,149.165237,39.46,0.439,208.4201,-0.082,0,1,0
62269,100403989,0,6,547750400,2232,10,1.21,-35.3628031,149.1626968,39.72,2.876,327.2718,0.006,0,1,0
427730,507203704,0,6,548157200,2232,10,1.21,-35.3632836,149.1630611,20.39,0,50.74996,0,0,1,4
84134,124803392,0,1,547774800,2232,3,1.21,-35.3623435,149.1623467,40.27,8.151,331.5553,-0.022,0,1,1
302108,367603733,0,6,548017600,2232,10,1.21,-35.3618904,149.165704,18.51,0,107.8476,0,0,1,3
80926,121203999,0,1,547771200,2232,3,1.21,-35.3624582,149.1624201,39.96,1.47,329.2722,-0.007,0,1,1
65693,104203302,0,6,547754200,2232,10,1.21,-35.3627509,149.1626585,40.01,3.987,329.649,-0.096,0,1,0
436205,517803629,0,6,548167800,2232,10,1.21,-35.3632836,149.1630611,20.39,0,65.89059,0,0,1,4
79506,119603806,0,1,547769600,2232,3,1.21,-35.3624854,149.1624401,39.96,3.168,329.7367,0.009,0,1,1
397545,473603816,0,6,548123600,2232,10,1.21,-35.3632829,149.1630597,39.54,0.042,71.69571,-0.045,0,1,4
193664,247003659,0,6,547897000,2232,10,1.21,-35.3610308,149.1635641,40.36,4.174,49.36012,2.101,0,1,2
170631,221403903,0,6,547871400,2232,10,1.21,-35.3610368,149.1629697,41.08,0.018,347.9134,0,0,1,0
308052,374203592,0,6,548024200,2232,10,1.21,-35.3618904,149.165704,18.51,0.001,206.3537,0,0,1,3
307332,373403912,0,6,548023400,2232,10,1.21,-35.3618904,149.165704,18.51,0,65.15332,0,0,1,3
356313,427803810,0,6,548077800,2232,10,1.21,-35.3630695,149.1653393,39.42,2.404,205.9709,0.016,0,1,0
395929,471803703,0,6,548121800,2232,10,1.21,-35.3632835,149.1630563,39.45,0.344,82.61307,-0.039,0,1,4
317777,385003437,0,6,548035000,2232,10,1.21,-35.3618904,149.165704,18.51,0,154.2106,0,0,1,3
339933,409603593,0,6,548059600,2232,10,1.21,-35.3625624,149.1655479,35.65,9.447001,193.1317,-1.326,0,1,0
377210,451003693,0,6,548101000,2232,10,1.21,-35.3632643,149.1649258,39.5,9.466001,269.0504,0.023,0,1,4
108151,151803421,0,1,547801800,2232,3,1.21,-35.3599846,149.1607484,40.92,9.851001,335.9204,-0.033,0,1,1
127610,173603864,0,6,547823600,2232,10,1.21,-35.3587741,149.1602381,41.3,8.733001,146.9837,-0.03,0,1,0
120072,165203892,0,1,547815200,2232,3,1.21,-35.3589055,149.1602337,41.16,9.744,340.7211,-0.016,0,1,1
21896,55603583,0,6,547705600,2232,10,1.21,-35.3632836,149.1630606,29.47,0.024,89.11799,-2.174,0,1,0
329124,397603395,0,6,548047600,2232,10,1.21,-35.3618904,149.165704,18.51,0.001,332.5559,0,0,1,3
200140,254203278,0,6,547904200,2232,10,1.21,-35.3610523,149.1638489,41.41,3.691,55.18424,0.5,0,1,2
380453,454603919,0,6,548104600,2232,10,1.21,-35.3632683,149.1645398,39.43,9.846001,269.2796,0.016,0,1,4
393051,468603317,0,6,548118600,2232,10,1.21,-35.3632842,149.1630869,39.39,3.939,269.6512,-0.002,0,1,4
204457,259003857,0,6,547909000,2232,10,1.21,-35.3610201,149.164018,40.64,5.697001,62.33555,-0.049,0,1,2
42435,78403626,0,6,547728400,2232,10,1.21,-35.3631959,149.1629945,39.78,1.62,329.0702,-0.014,0,1,0
182699,234803541,0,6,547884800,2232,10,1.21,-35.3610369,149.1633649,42.58,2.89,89.1718,0.052,0,1,0
403847,480603515,0,6,548130600,2232,10,1.21,-35.3632834,149.163061,34.64,0.023,66.71413,1.436,0,1,4
345515,415803612,0,6,548065800,2232,10,1.21,-35.3628405,149.165453,39.21,0.9990001,203.1122,-0.013,0,1,0
256621,317003981,0,6,547967000,2232,10,1.21,-35.3613366,149.1652773,39.16,2.207,151.1261,0.13,0,1,0
233398,291203472,0,6,547941200,2232,10,1.21,-35.3609991,149.1650687,38.1,5.652,106.7207,2.835,0,1,2
99080,141603336,0,1,547791600,2232,3,1.21,-35.360858,149.1612748,41.09,11.607,331.799,0.082,0,1,1
179997,231803908,0,6,547881800,2232,10,1.21,-35.3610344,149.1632501,42.68,1.659,99.74255,0.039,0,1,0
374510,448004060,0,6,548098000,2232,10,1.21,-35.3632611,149.1651738,39.6,4.601,269.3329,0.013,0,1,4
349298,420003598,0,6,548070000,2232,10,1.21,-35.3629238,149.1654046,39.28,0.891,206.7094,0.054,0,1,0
81641,122003679,0,1,547772000,2232,3,1.21,-35.3624503,149.1624148,39.96,1.391,334.0716,-0.005,0,1,1
40092,75803833,0,6,547725800,2232,10,1.21,-35.3632237,149.163015,39.74,2.776,329.2301,-0.006,0,1,0
258781,319403854,0,6,547969400,2232,10,1.21,-35.3613918,149.1653143,38.99,1.812,151.7114,0.03,0,1,0
278951,341804057,0,6,547991800,2232,10,1.21,-35.3617135,149.1655585,38.37,2.084,146.4902,0.031,0,1,0
370189,443203481,0,6,548093200,2232,10,1.21,-35.3632601,149.1652351,39.6,0.025,204.6624,-0.003,0,1,0
380091,454204079,0,6,548104200,2232,10,1.21,-35.3632678,149.1645831,39.44,9.839001,269.3275,0.018,0,1,4
260945,321803727,0,6,547971800,2232,10,1.21,-35.3614108,149.1653268,38.95,1.712,152.0737,0.082,0,1,0
129770,176003737,0,6,547826000,2232,10,1.21,-35.3589439,149.1603719,41.33,9.736,147.3115,-0.002,0,1,0
59925,97803363,0,6,547747800,2232,10,1.21,-35.3628598,149.1627411,39.77,0.688,327.9264,0.031,0,1,0
338853,408404073,0,6,548058400,2232,10,1.21,-35.3624581,149.1655788,34.08,10.148,193.8484,-1.299,0,1,0
269586,331404052,0,6,547981400,2232,10,1.21,-35.3615612,149.1654391,38.64,0.887,151.644,0.083,0,1,0
311114,377603898,0,6,548027600,2232,10,1.21,-35.3618904,149.165704,18.51,0,178.1186,0,0,1,3
438011,520003582,0,6,548170000,2232,10,1.21,-35.3632836,149.1630611,20.39,0,301.2456,0,0,1,4
406907,484003821,0,6,548134000,2232,10,1.21,-35.3632834,149.1630614,30.29,0.016,208.9017,0.442,0,1,4
301026,366403380,0,6,548016400,2232,10,1.21,-35.3618904,149.165704,18.51,0,73.26535,0,0,1,3
83245,123803792,0,1,547773800,2232,3,1.21,-35.3624011,149.1623842,40.21,6.149,332.3515,-0.12,0,1,1
261486,322403487,0,6,547972400,2232,10,1.21,-35.3614228,149.1653345,38.91,3.247,152.0241,0.024,0,1,0
292991,357403648,0,6,548007400,2232,10,1.21,-35.3618905,149.1657057,18.41,0.274,99.48386,-0.312,0,1,3
129410,175603897,0,6,547825600,2232,10,1.21,-35.3589146,149.1603489,41.33,9.661,147.4849,-0.006,0,1,0
140389,187804015,0,6,547837800,2232,10,1.21,-35.3598039,149.1611153,41.35,9.981001,142.0762,-0.011,0,1,0
142911,190603728,0,6,547840600,2232,10,1.21,-35.3600011,149.1613061,41.37,9.988001,141.6084,-0.012,0,1,0
386205,461003858,0,6,548111000,2232,10,1.21,-35.3632756,149.1638382,39.4,9.996,269.2247,-0.007,0,1,4
116513,161203826,0,1,547811200,2232,3,1.21,-35.3592333,149.1603764,41.1,9.616,339.9752,0.009,0,1,1
134992,181803916,0,6,547831800,2232,10,1.21,-35.3593703,149.1607266,41.34,9.927,145.4598,-0.009,0,1,0
78083,118003613,0,1,547768000,2232,3,1.21,-35.3625228,149.1624661,39.94,1.524,328.1,-0.025,0,1,1
166848,217203917,0,6,547867200,2232,10,1.21,-35.3610387,149.1629697,41.33,0.288,37.9747,0.274,0,1,0
155149,204203286,0,6,547854200,2232,10,1.21,-35.3608751,149.1623388,41.35,9.944,126.883,0.011,0,1,0
216678,272603415,0,6,547922600,2232,10,1.21,-35.361012,149.1644456,40.47,4.625,122.0907,-0.134,0,1,2
378652,452603886,0,6,548102600,2232,10,1.21,-35.3632664,149.1647557,39.48,9.717,269.2391,0.015,0,1,4
422573,501403525,0,6,548151400,2232,10,1.21,-35.3632835,149.1630607,21.96,0.003,327.0323,0.486,0,1,4
141649,189203455,0,6,547839200,2232,10,1.21,-35.3599026,149.1612104,41.36,9.984,141.6526,-0.009,0,1,0
273187,335403285,0,6,547985400,2232,10,1.21,-35.3616332,149.1654877,38.58,0.775,151.6961,-0.002,0,1,0
418791,497203539,0,6,548147200,2232,10,1.21,-35.3632836,149.1630611,23.99,0.007,313.8393,0.484,0,1,4
127069,173003271,0,6,547823000,2232,10,1.21,-35.358736,149.1602074,41.28,8.094001,146.0779,-0.058,0,1,0
167390,217803677,0,6,547867800,2232,10,1.21,-35.361038,149.1629705,41.17,0.101,28.45517,0.204,0,1,0
270487,332403652,0,6,547982400,2232,10,1.21,-35.3615783,149.1654505,38.58,3.396,151.4874,0.025,0,1,0
9287,24803408,0,6,547674800,2232,10,1.21,-35.3632838,149.163061,20.39,0,0,0,0,1,0
79327,119403886,0,1,547769400,2232,3,1.21,-35.3624906,149.1624436,39.96,3.455,329.9986,0.004,0,1,1
306432,372403479,0,6,548022400,2232,10,1.21,-35.3618904,149.165704,18.51,0.001,71.60905,0,0,1,3
5285,19803742,0,6,547669800,2232,10,1.21,-35.3632838,149.163061,20.39,0,0,0,0,1,0
51990,89003551,0,6,547739000,2232,10,1.21,-35.3630153,149.1628584,39.93,3.315,334.9111,-0.027,0,1,0
379011,453003726,0,6,548103000,2232,10,1.21,-35.3632668,149.1647128,39.47,9.75,269.3323,0.019,0,1,4
246538,305803463,0,6,547955800,2232,10,1.21,-35.3611753,149.1651382,40.3,0.9810001,137.6523,-0.7270001,0,1,0
7527,22603455,0,6,547672600,2232,10,1.21,-35.3632838,149.163061,20.39,0,0,0,0,1,0
403485,480203675,0,6,548130200,2232,10,1.21,-35.3632834,149.163061,35.22,0.012,71.09488,1.434,0,1,4
194925,248403932,0,6,547898400,2232,10,1.21,-35.3610161,149.1636296,38.94,4.889,123.1723,0.013,0,1,2
353800,425003264,0,6,548075000,2232,10,1.21,-35.3630092,149.1653763,39.23,0.5100001,204.0057,-0.11,0,1,0
54153,91403424,0,6,547741400,2232,10,1.21,-35.3629549,149.1628233,39.92,1.66,335.6798,-0.006,0,1,0
5926,20603422,0,6,547670600,2232,10,1.21,-35.3632838,149.163061,20.39,0,0,0,0,1,0
43697,79803899,0,6,547729800,2232,10,1.21,-35.3631614,149.1629682,39.79,3.899,327.3184,0.009,0,1,0
198160,252003325,0,6,547902000,2232,10,1.21,-35.3610163,149.1637616,40.63,3.367,108.1226,-0.025,0,1,2
345875,416203452,0,6,548066200,2232,10,1.21,-35.3628452,149.1654505,39.22,1.985,204.3103,-0.031,0,1,0
210210,265403796,0,6,547915400,2232,10,1.21,-35.3610405,149.1642786,41.4,4.627,127.5578,-1.258,0,1,2
261305,322203567,0,6,547972200,2232,10,1.21,-35.361418,149.1653313,38.92,2.765,152.082,0.043,0,1,0
72906,112203434,0,1,547762200,2232,3,1.21,-35.3626086,149.1625498,39.91,0.904,325.4838,0,0,1,1
31266,66003588,0,6,547716000,2232,10,1.21,-35.3632859,149.1630588,39.84,0.011,126.344,-0.018,0,1,0
375230,448803740,0,6,548098800,2232,10,1.21,-35.3632616,149.1651255,39.58,6.36,269.1758,0.033,0,1,4
187197,239804040,0,6,547889800,2232,10,1.21,-35.3609895,149.163365,48.67,4.963,113.7787,0.9490001,0,1,0
322640,390403776,0,6,548040400,2232,10,1.21,-35.3618904,149.165704,18.51,0.001,38.73791,0,0,1,3
395029,470803270,0,6,548120800,2232,10,1.21,-35.3632839,149.1630524,39.42,0.253,78.76448,-0.025,0,1,4
351819,422803311,0,6,548072800,2232,10,1.21,-35.3629881,149.165383,39.21,2.179,193.1878,-0.009,0,1,0
425636,504803831,0,6,548154800,2232,10,1.21,-35.3632836,149.1630611,20.36,0.001,297.5439,-0.067,0,1,4
8805,24203648,0,6,547674200,2232,10,1.21,-35.3632838,149.163061,20.39,0,0,0,0,1,0
130310,176603497,0,6,547826600,2232,10,1.21,-35.3589882,149.1604069,41.33,9.815001,147.0296,0.003,0,1,0
300846,366203460,0,6,548016200,2232,10,1.21,-35.3618904,149.165704,18.51,0,246.2522,0,0,1,3
276971,339603271,0,6,547989600,2232,10,1.21,-35.3616978,149.1655455,38.41,1.475,143.1857,-0.013,0,1,0
366942,439604088,0,6,548089600,2232,10,1.21,-35.363257,149.1652375,39.45,0.546,207.8223,-0.016,0,1,0
61548,99603476,0,6,547749600,2232,10,1.21,-35.3628238,149.1627133,39.73,3.947,327.2959,0.013,0,1,0
315437,382403644,0,6,548032400,2232,10,1.21,-35.3618904,149.165704,18.51,0,224.9689,0,0,1,3
65334,103803462,0,6,547753800,2232,10,1.21,-35.3627622,149.1626665,39.96,3.109,329.99,-0.154,0,1,0
162886,212804011,0,6,547862800,2232,10,1.21,-35.3611086,149.1629112,41.43,2.548,45.68301,0.047,0,1,0
111890,156003407,0,1,547806000,2232,3,1.21,-35.3596484,149.160572,41.12,9.546,337.6712,-0.029,0,1,1
262206,323204000,0,6,547973200,2232,10,1.21,-35.3614451,149.1653493,38.91,3.314,151.2355,0,0,1,0
341012,410803946,0,6,548060800,2232,10,1.21,-35.3626512,149.1655227,37.15,7.722001,193.7076,-0.9770001,0,1,0
12488,28803474,0,6,547678800,2232,10,1.21,-35.3632838,149.163061,20.39,0,0,0,0,1,0
348939,419603758,0,6,548069600,2232,10,1.21,-35.3629206,149.1654065,39.29,1.088,206.7698,0.003,0,1,0
177837,229404035,0,6,547879400,2232,10,1.21,-35.3610366,149.1631952,40.78,4.171,89.39225,0.006,0,1,0
132650,179203290,0,6,547829200,2232,10,1.21,-35.3591793,149.1605651,41.32,9.923,145.482,-0.003,0,1,0
436532,518203469,0,6,548168200,2232,10,1.21,-35.3632836,149.1630611,20.39,0,291.6302,0,0,1,4
267064,328603506,0,6,547978600,2232,10,1.21,-35.3615311,149.1654144,38.66,3.007,145.3325,0.007,0,1,0
229634,287003486,0,6,547937000,2232,10,1.21,-35.3609644,149.1649253,38.8,7.561,130.7053,1.941,0,1,2
212552,268003589,0,6,547918000,2232,10,1.21,-35.3610258,149.1643233,39.27,5.012,52.84159,2.209,0,1,2
240597,299203604,0,6,547949200,2232,10,1.21,-35.3610961,149.1651525,40.46,2.582,256.8,-1.029,0,1,2
303186,368804086,0,6,548018800,2232,10,1.21,-35.3618904,149.165704,18.51,0.001,320.7719,0,0,1,3
71646,110803994,0,1,547760800,2232,3,1.21,-35.3626237,149.1625623,39.91,2.102,325.6114,0.001,0,1,1
64433,102803862,0,6,547752800,2232,10,1.21,-35.3627764,149.1626765,39.76,0.694,332.1683,-0.164,0,1,0
277872,340603704,0,6,547990600,2232,10,1.21,-35.3617051,149.165552,38.42,0.615,146.0348,0.011,0,1,0
310754,377204058,0,6,548027200,2232,10,1.21,-35.3618904,149.165704,18.51,0,35.87101,0,0,1,3
178018,229603955,0,6,547879600,2232,10,1.21,-35.3610363,149.163204,40.84,3.757,87.95403,-0.609,0,1,0
96944,139203463,0,1,547789200,2232,3,1.21,-35.3610819,149.161426,41.2,12.128,330.4862,-0.013,0,1,1
203374,257803504,0,6,547907800,2232,10,1.21,-35.3610561,149.1639772,40.55,2.616,52.46408,-0.532,0,1,2
188279,241003560,0,6,547891000,2232,10,1.21,-35.3610268,149.1634188,47.01,3.746,147.2641,1.09,0,1,0
357573,429204083,0,6,548079200,2232,10,1.21,-35.3630876,149.1653285,39.41,0.887,206.2041,-0.006,0,1,0
266884,328403586,0,6,547978400,2232,10,1.21,-35.3615264,149.1654105,38.66,3.28,145.395,0.017,0,1,0
53612,90803664,0,6,547740800,2232,10,1.21,-35.3629649,149.162829,39.92,2.433,334.7651,0.002,0,1,0
110110,154003374,0,1,547804000,2232,3,1.21,-35.3598077,149.1606538,41.04,9.681001,336.8191,-0.051,0,1,1
2718,16603356,0,6,547666600,2232,10,1.21,-35.3632838,149.163061,20.39,0,0,0,0,1,0
308772,375003272,0,6,548025000,2232,10,1.21,-35.3618904,149.165704,18.51,0,95.16196,0,0,1,3
413388,491203440,0,6,548141200,2232,10,1.21,-35.3632835,149.1630612,26.89,0.006,86.4103,0.492,0,1,4
