timestamp,DesRoll,Roll,DesPitch,Pitch,DesYaw,Yaw,ErrRP,ErrYaw,MagX,MagY,MagZ,abGyrX,abGyrY,abGyrZ,abAccX,abAccY,abAccZ,labels
15363852,0,0.02,0,0,3.51,3.51,0,0,232,52,52,0.00013579,0.000135,0.0002321,-0.00046311,-0.0013428,-9.817147,0
15413832,0,0.02,0,0,3.525,3.525,0,0,232,52,52,0.00016472,0.00014985,0.00022841,-0.00052282,-0.00019193,-9.816688,0
15463812,0,0.02,0,0,3.54,3.54,0,0,232,52,52,0.00016693,0.0002111,0.00027411,-0.00162987,-0.00044639,-9.81665,0
15463812,0,0.02,0,0,3.54,3.54,0,0,232,52,52,0.00017391,0.0001713,0.00021633,-0.00150236,0.00001347,-9.817536,0
15513792,0,0.02,0,0,3.55,3.55,0,0,232,52,52,0.00020419,0.00024179,0.00025452,-0.00218636,-0.00223662,-9.816851,0
15563772,0,0.02,0,0,3.56,3.56,0,0,232,52,52,0.000195,0.00026858,0.00018583,-0.00188437,-0.00167402,-9.81715,0
15563772,0,0.02,0,0,3.56,3.56,0,0,232,52,52,0.00021333,0.00015253,0.00021712,-0.00142897,-0.00070509,-9.817696,0
15613752,0,0.02,0,0,3.57,3.57,0,0,232,52,52,0.00017714,0.00020531,0.0002099,-0.00107017,-0.00068162,-9.817696,0
15663732,0,0.02,0,0,3.58,3.58,0,0,232,52,52,0.00019581,0.00015505,0.00020709,0.00066201,-0.00046092,-9.817172,0
15663732,0,0.02,0,0,3.58,3.58,0,0,232,52,52,0.00018803,0.00016995,0.00019913,-0.00256787,-0.00101533,-9.817984,0
15713712,0,0.02,0,0,3.59,3.59,0,0,232,52,52,0.00021482,0.00020432,0.00021568,-0.00130172,-0.00148541,-9.816887,0
15763692,0,0.02,0,0,3.6,3.6,0,0,232,52,52,0.00016637,0.0001481,0.00021527,-0.00076575,-0.00161148,-9.818167,0
15763692,0,0.02,0,0,3.6,3.6,0,0,232,52,52,0.00024055,0.0001651,0.00018289,-0.00065453,-0.00124986,-9.8179,0
15813672,0,0.02,0,0,3.605,3.605,0,0,232,52,52,0.00019892,0.0002468,0.00012552,0.00038121,-0.00140102,-9.817821,0
15863652,0,0.02,0,0,3.61,3.61,0,0,232,52,52,0.00020761,0.00022757,0.00025435,-0.00071986,-0.00060752,-9.817113,0
15863652,0,0.02,0,0,3.61,3.61,0,0,232,52,52,0.00017263,0.00024196,0.00015323,-0.00189953,-0.00024485,-9.817353,0
15913632,0,0.02,0,0,3.62,3.62,0,0,232,52,52,0.00026931,0.00017117,0.00016265,-0.00062233,-0.00047767,-9.81682,0
15963612,0,0.02,0,0,3.63,3.63,0,0,232,52,52,0.00018718,0.00025857,0.00018919,-0.00176604,-0.00080809,-9.818518,0
15963612,0,0.02,0,0,3.63,3.63,0,0,232,52,52,0.00020196,0.00011647,0.00017483,-0.00093506,-0.00143691,-9.817406,0
16013592,0,0.02,0,0,3.635,3.635,0,0,232,52,52,0.00028346,0.0001699,0.00022475,-0.00132545,-0.00091914,-9.818045,0
16063572,0,0.02,0,0,3.64,3.64,0,0,232,52,52,0.00022257,0.00021477,0.00019972,-0.00204341,-0.00123892,-9.817552,0
16063572,0,0.02,0,0,3.64,3.64,0,0,232,52,52,0.00021503,0.00012188,0.00016105,-0.00076444,0.00041542,-9.817677,0
16113552,0,0.02,0,0,3.645,3.645,0,0,232,52,52,0.00023188,0.0002251,0.00019837,-0.0008524,-0.00094593,-9.818672,0
16163532,0,0.02,0,0,3.65,3.65,0,0,232,52,52,0.00013684,0.00019609,0.00021673,-0.00138934,-0.00093525,-9.817356,0
16163532,0,0.02,0,0,3.65,3.65,0,0,232,52,52,0.0002468,0.0002343,0.00021916,-0.00091096,-0.00141312,-9.816659,0
16213512,0,0.02,0,0.005,3.655,3.655,0,0,232,52,52,0.00016694,0.00019318,0.0002493,0.00002244,-0.00154289,-9.818151,0
16263492,0,0.02,0,0.01,3.66,3.66,0,0,232,52,52,0.00009664,0.0001082,0.00032578,-0.0019884,-0.00025665,-9.817297,0
16263492,0,0.02,0,0.01,3.66,3.66,0,0,232,52,52,0.00021594,0.00027871,0.00022963,-0.0009195,-0.00150762,-9.817439,0
16313472,0,0.02,0,0.01,3.665,3.665,0,0,232,52,52,0.00019034,0.0001543,0.00019967,-0.00078213,-0.00201088,-9.817229,0
16363452,0,0.02,0,0.01,3.67,3.67,0,0,232,52,52,0.00017813,0.00016837,0.00025298,-0.00061553,-0.00076646,-9.817011,0
16363452,0,0.02,0,0.01,3.67,3.67,0,0,232,52,52,0.00020858,0.00014252,0.00028046,-0.00149213,-0.00043043,-9.817325,0
16413432,0,0.02,0,0.01,3.675,3.675,0,0,232,52,52,0.00020868,0.0001994,0.00024965,-0.00185593,-0.00070127,-9.817087,0
16463412,0,0.02,0,0.01,3.68,3.68,0,0,232,52,52,0.00022336,0.00014483,0.00020507,-0.00016413,-0.00098202,-9.817739,0
16463412,0,0.02,0,0.01,3.68,3.68,0,0,232,52,52,0.00025744,0.00029467,0.00018896,-0.00218673,-0.00059944,-9.818016,0
16513392,0,0.02,0,0.01,3.685,3.685,0,0,232,52,52,0.00019044,0.00014594,0.00028115,-0.00196776,-0.00163556,-9.817288,0
16563372,0,0.02,0,0.01,3.69,3.69,0,0,232,52,52,0.00018955,0.00014075,0.00029297,-0.00198397,-0.00287801,-9.81838,0
16563372,0,0.02,0,0.01,3.69,3.69,0,0,232,52,52,0.00027284,0.00018887,0.0002428,-0.00036551,-0.00108434,-9.817098,0
16613352,0,0.02,0,0.01,3.69,3.69,0,0,232,52,52,0.00021091,0.00019565,0.00021704,-0.00088273,-0.00084416,-9.817721,0
16663332,0,0.02,0,0.01,3.69,3.69,0,0,232,52,52,0.00017653,0.00027011,0.00018978,-0.00097127,-0.00196943,-9.816832,0
16663332,0,0.02,0,0.01,3.69,3.69,0,0,232,52,52,0.00020084,0.0001427,0.00025834,0.00006316,-0.00116116,-9.81757,0
16713312,0,0.02,0,0.01,3.695,3.695,0,0,232,52,52,0.00016976,0.00021712,0.00028091,-0.00194673,-0.00074627,-9.817307,0
16763292,0,0.02,0,0.01,3.7,3.7,0,0,232,52,52,0.00017816,0.00021796,0.00023681,-0.00107274,-0.00090336,-9.817468,0
16763292,0,0.02,0,0.01,3.7,3.7,0,0,232,52,52,0.0002051,0.00019509,0.00027407,-0.00030444,-0.0006866,-9.816691,0
16813688.5,0,0.02,0,0.01,3.705,3.705,0,0,232,52,52,0.00028189,0.00026334,0.00025562,-0.00246776,-0.00089964,-9.817623,0
16864085,0,0.02,0,0.01,3.71,3.71,0,0,232,52,52,0.00020634,0.00024585,0.00024053,-0.0012365,-0.00260661,-9.817698,0
16864085,0,0.02,0,0.01,3.71,3.71,0,0,232,52,52,0.00019253,0.00018049,0.00028128,-0.00151405,-0.00047551,-9.81735,0
16914065,0,0.02,0,0.01,3.71,3.71,0,0,232,52,52,0.00025253,0.0002014,0.00023491,-0.00109573,-0.00058385,-9.816985,0
16964045,0,0.02,0,0.01,3.71,3.71,0,0,232,52,52,0.0002198,0.0001766,0.00032464,-0.00041585,-0.00098597,-9.818119,0
16964045,0,0.02,0,0.01,3.71,3.71,0,0,232,52,52,0.00019492,0.00022474,0.00020838,-0.00121851,-0.00034258,-9.817597,0
17014025,0,0.02,0,0.01,3.715,3.715,0,0,232,52,52,0.00022628,0.00019103,0.000233,-0.00165084,-0.00094842,-9.818033,0
17064005,0,0.02,0,0.01,3.72,3.72,0,0,232,52,52,0.00027579,0.00013433,0.00023761,-0.0009018,-0.00156247,-9.817067,0
17064005,0,0.02,0,0.01,3.72,3.72,0,0,232,52,52,0.00022635,0.0002179,0.00022435,-0.00137777,-0.00210865,-9.81637,0
17113985,0,0.02,0,0.01,3.72,3.72,0,0,232,52,52,0.00019957,0.00018837,0.00024024,-0.0012373,-0.00123364,-9.817915,0
17163965,0,0.02,0,0.01,3.72,3.72,0,0,232,52,52,0.000188,0.00015203,0.00017454,-0.00088689,-0.00088974,-9.817675,0
17163965,0,0.02,0,0.01,3.72,3.72,0,0,232,52,52,0.00020812,0.00026465,0.00025643,-0.00168064,-0.00147563,-9.818183,0
17213945,0,0.02,0,0.01,3.72,3.72,0,0,232,52,52,0.00024534,0.00025973,0.00019751,-0.00057772,-0.00093806,-9.817782,0
17263925,0,0.02,0,0.01,3.72,3.72,0,0,232,52,52,0.00015201,0.0002414,0.0002529,-0.0017966,-0.00188539,-9.817609,0
17263925,0,0.02,0,0.01,3.72,3.72,0,0,232,52,52,0.00023053,0.00019643,0.00022513,-0.00042808,-0.00049449,-9.817251,0
17313905,0,0.02,0,0.01,3.72,3.72,0,0,232,52,52,0.00025184,0.0002866,0.00023513,-0.00177148,-0.00152906,-9.81793,0
17363885,0,0.02,0,0.01,3.72,3.72,0,0,232,52,52,0.0001814,0.00024763,0.00027267,-0.001556,-0.00103442,-9.817953,0
17363885,0,0.02,0,0.01,3.72,3.72,0,0,232,52,52,0.00020684,0.00022456,0.00025729,-0.00044624,-0.001288,-9.816887,0
17413865,0,0.02,0,0.01,3.715,3.715,0,0,232,52,52,0.0002478,0.00021016,0.00020591,-0.00070264,-0.00168872,-9.816875,0
17463845,0,0.02,0,0.01,3.71,3.71,0,0,232,52,52,0.00022513,0.00021861,0.00020536,-0.00242235,-0.00125065,-9.817476,0
17463845,0,0.02,0,0.01,3.71,3.71,0,0,232,52,52,0.00027072,0.00029245,0.00027894,-0.00159821,-0.00198053,-9.81774,0
17513825,0,0.02,0,0.01,3.71,3.71,0,0,232,52,52,0.0002263,0.00019552,0.00024137,-0.00023947,-0.00115485,-9.817962,0
17563805,0,0.02,0,0.01,3.71,3.71,0,0,232,52,52,0.00025369,0.00019917,0.00018843,-0.00214992,-0.00078288,-9.817819,0
17563805,0,0.02,0,0.01,3.71,3.71,0,0,232,52,52,0.00028478,0.00015762,0.00014042,-0.00117764,-0.00146924,-9.817125,0
17613785,0,0.02,0,0.01,3.71,3.71,0,0,232,52,52,0.00030276,0.00019695,0.000252,-0.00030803,-0.00042118,-9.818879,0
17663765,0,0.02,0,0.01,3.71,3.71,0,0,232,52,52,0.00023636,0.00017043,0.00005324,-0.0017871,0.00004992,-9.817501,0
17663765,0,0.02,0,0.01,3.71,3.71,0,0,232,52,52,0.00025882,0.00026153,0.00028866,-0.00163672,-0.0009396,-9.818338,0
17713745,0,0.02,0,0.01,3.705,3.705,0,0,232,52,52,0.0001766,0.00024882,0.00025183,-0.00196261,-0.00061214,-9.817578,0
17763725,0,0.02,0,0.01,3.7,3.7,0,0,232,52,52,0.00026158,0.00020921,0.00026539,-0.00140716,-0.00053483,-9.817175,0
17763725,0,0.02,0,0.01,3.7,3.7,0,0,232,52,52,0.0002533,0.00015363,0.00018664,-0.00059367,-0.00148741,-9.817453,0
17813705,0,0.02,0,0.01,3.7,3.7,0,0,232,52,52,0.00023783,0.00031464,0.00026297,-0.00044705,-0.00086087,-9.817781,0
17863685,0,0.02,0,0.01,3.7,3.7,0,0,232,52,52,0.00026437,0.00023191,0.00033724,0.00033856,-0.00096238,-9.817656,0
17863685,0,0.02,0,0.01,3.7,3.7,0,0,232,52,52,0.00031673,0.00020009,0.00021964,-0.00044299,-0.00087225,-9.818621,0
17913665,0,0.02,0,0.01,3.695,3.695,0,0,232,52,52,0.00028502,0.00022445,0.0002411,-0.00110567,-0.00174917,-9.817256,0
17963645,0,0.02,0,0.01,3.69,3.69,0,0,232,52,52,0.00028761,0.00028137,0.00025365,-0.00139948,-0.00063198,-9.818172,0
17963645,0,0.02,0,0.01,3.69,3.69,0,0,232,52,52,0.00023021,0.00025107,0.00023851,-0.0012206,-0.00056032,-9.818099,0
18013625,0,0.02,0,0.01,3.69,3.69,0,0,232,52,52,0.00021152,0.00017964,0.00023611,-0.00189336,-0.00117541,-9.817019,0
18063605,0,0.02,0,0.01,3.69,3.69,0,0,232,52,52,0.00029723,0.00019794,0.00013972,-0.00148707,-0.0006408,-9.817009,0
18063605,0,0.02,0,0.01,3.69,3.69,0,0,232,52,52,0.000262,0.00028854,0.00029996,-0.00197787,-0.00122415,-9.819036,0
18113585,0,0.02,0,0.01,3.685,3.685,0,0,232,52,52,0.00026047,0.0003124,0.00026275,-0.00011534,-0.00236781,-9.817297,0
18163565,0,0.02,0,0.01,3.68,3.68,0,0,232,52,52,0.00023631,0.00028067,0.00027672,-0.00040062,-0.0004031,-9.817719,0
18163565,0,0.02,0,0.01,3.68,3.68,0,0,232,52,52,0.00029886,0.00030366,0.00021283,-0.00034385,-0.00126354,-9.817064,0
18213545,0,0.02,0,0.01,3.68,3.68,0,0,232,52,52,0.0001984,0.00019775,0.00025887,-0.00118949,-0.00016287,-9.816547,0
18263525,0,0.02,0,0.01,3.68,3.68,0,0,232,52,52,0.00024121,0.00020422,0.0003149,-0.00116038,-0.00131062,-9.817455,0
18263525,0,0.02,0,0.01,3.68,3.68,0,0,232,52,52,0.00022619,0.00020409,0.00026382,-0.00021759,-0.0009175,-9.817652,0
18313505,0,0.02,0,0.01,3.675,3.675,0,0,232,52,52,0.00032131,0.0002582,0.00029969,-0.00034771,-0.00063361,-9.817186,0
18363485,0,0.02,0,0.01,3.67,3.67,0,0,232,52,52,0.00028049,0.00018376,0.00021976,-0.00113383,-0.00077726,-9.816128,0
18363485,0,0.02,0,0.01,3.67,3.67,0,0,232,52,52,0.00024044,0.00020066,0.00020275,-0.00139031,-0.00109546,-9.817412,0
18413465,0,0.02,0,0.01,3.665,3.665,0,0,232,52,52,0.00024045,0.00018723,0.00024494,-0.00121189,-0.00171986,-9.817736,0
18463445,0,0.02,0,0.01,3.66,3.66,0,0,232,52,52,0.00019721,0.0002376,0.00032814,-0.00100766,-0.00162792,-9.817418,0
18463445,0,0.02,0,0.01,3.66,3.66,0,0,232,52,52,0.00022556,0.0002213,0.00030635,-0.0013636,-0.00058196,-9.817567,0
18513425,0,0.02,0,0.01,3.655,3.655,0,0,232,52,52,0.0002201,0.0002045,0.00026841,-0.00067284,-0.00051388,-9.817444,0
18563405,0,0.02,0,0.01,3.65,3.65,0,0,232,52,52,0.00023851,0.00025092,0.00023956,-0.00118641,-0.00103628,-9.818089,0
18563405,0,0.02,0,0.01,3.65,3.65,0,0,232,52,52,0.00029618,0.0002059,0.00022917,-0.00139868,-0.00124737,-9.818377,0
18613385,0,0.02,0,0.01,3.65,3.65,0,0,232,52,52,0.00030347,0.00023816,0.00032364,-0.00070929,-0.00078761,-9.816311,0
18663365,0,0.02,0,0.01,3.65,3.65,0,0,232,52,52,0.00025637,0.00018429,0.00019793,0.00011815,-0.00166192,-9.818711,0
18663365,0,0.02,0,0.01,3.65,3.65,0,0,232,52,52,0.0001618,0.00029225,0.00026671,-0.00093558,0.00001971,-9.816946,0
18713345,0,0.02,0,0.01,3.645,3.645,0,0,232,52,52,0.00028104,0.00014473,0.00030022,-0.00045152,-0.00032607,-9.817787,0
18763325,0,0.02,0,0.01,3.64,3.64,0,0,232,52,52,0.00031542,0.00019539,0.00020381,-0.00025319,-0.00153506,-9.816398,0
18763325,0,0.02,0,0.01,3.64,3.64,0,0,232,52,52,0.00028348,0.00021386,0.00025204,-0.00146659,-0.00110059,-9.817077,0
18813305,0,0.02,0,0.01,3.635,3.635,0,0,232,52,52,0.00019139,0.00024764,0.00030707,-0.00117429,-0.00186881,-9.817354,0
18863285,0,0.02,0,0.01,3.63,3.63,0,0,232,52,52,0.00020802,0.00028219,0.00023071,0.00011537,-0.00131298,-9.817488,0
18863285,0,0.02,0,0.01,3.63,3.63,0,0,232,52,52,0.00017634,0.00018468,0.00031926,-0.00064613,-0.00096142,-9.816422,0
18913681.5,0,0.02,0,0.01,3.625,3.625,0,0,232,52,52,0.00027764,0.00025413,0.00027369,0.00031486,-0.00115588,-9.818199,0
18964078,0,0.02,0,0.01,3.62,3.62,0,0,232,52,52,0.00032454,0.0002229,0.00032778,-0.00114354,-0.00056526,-9.817784,0
18964078,0,0.02,0,0.01,3.62,3.62,0,0,232,52,52,0.00023221,0.00014397,0.00017694,-0.00077686,-0.00045054,-9.817525,0
19014058,0,0.025,0,0.01,3.615,3.615,0,0,232,52,52,0.00026581,0.00024312,0.00028492,-0.00149921,-0.00193461,-9.818232,0
19064038,0,0.03,0,0.01,3.61,3.61,0,0,232,52,52,0.00023555,0.00033962,0.00028804,-0.00170043,-0.00142475,-9.818058,0
19064038,0,0.03,0,0.01,3.61,3.61,0,0,232,52,52,0.00027879,0.0002898,0.00029131,-0.00166732,-0.00148445,-9.817717,0
19114018,0,0.03,0,0.01,3.605,3.605,0,0,232,52,52,0.00026641,0.0002389,0.00020739,-0.00150315,-0.00165842,-9.817682,0
19163998,0,0.03,0,0.01,3.6,3.6,0,0,232,52,52,0.00023118,0.00025055,0.00027357,-0.00013173,-0.00095521,-9.816848,0
19163998,0,0.03,0,0.01,3.6,3.6,0,0,232,52,52,0.00036069,0.00014376,0.00030013,-0.00106316,0.00009544,-9.81827,0
19213978,0,0.03,0,0.01,3.6,3.6,0,0,232,52,52,0.00020973,0.00021571,0.00030028,-0.00162087,-0.00089633,-9.817003,0
19263958,0,0.03,0,0.01,3.6,3.6,0,0,232,52,52,0.00028261,0.00028889,0.00023014,-0.00002799,-0.00007085,-9.817308,0
19263958,0,0.03,0,0.01,3.6,3.6,0,0,232,52,52,0.00026477,0.00025222,0.00026709,-0.00113693,0.00014962,-9.817138,0
19313938,0,0.03,0,0.01,3.59,3.59,0,0,232,52,52,0.00020478,0.00024286,0.00026962,-0.00163956,-0.00035879,-9.816425,0
19363918,0,0.03,0,0.01,3.58,3.58,0,0,232,52,52,0.00027817,0.00030185,0.00030076,0.0004009,-0.00044124,-9.816967,0
19363918,0,0.03,0,0.01,3.58,3.58,0,0,232,52,52,0.0002142,0.00016723,0.00031646,-0.00153693,-0.00154869,-9.81669,0
19413898,0,0.03,0,0.01,3.575,3.575,0,0,232,52,52,0.00035336,0.00027825,0.00026476,-0.00068428,-0.00058971,-9.816932,0
19463878,0,0.03,0,0.01,3.57,3.57,0,0,232,52,52,0.000197,0.00025499,0.00025894,-0.00099499,-0.00044624,-9.817995,0
19463878,0,0.03,0,0.01,3.57,3.57,0,0,232,52,52,0.00023252,0.00024412,0.00026683,-0.00069826,-0.00124185,-9.81793,0
19513858,0,0.03,0,0.01,3.565,3.565,0,0,232,52,52,0.00026945,0.00030407,0.00035147,-0.00038098,-0.0018369,-9.816908,0
19563838,0,0.03,0,0.01,3.56,3.56,0,0,232,52,52,0.00026612,0.00023576,0.0002743,-0.00124762,-0.00167572,-9.81627,0
19563838,0,0.03,0,0.01,3.56,3.56,0,0,232,52,52,0.00024933,0.00022282,0.00025293,-0.00016128,-0.00115171,-9.818373,0
19613818,0,0.03,0,0.01,3.555,3.555,0,0,232,52,52,0.00020433,0.00026542,0.00020555,-0.000898,-0.00145651,-9.817577,0
19663798,0,0.03,0,0.01,3.55,3.55,0,0,232,52,52,0.00020035,0.00022424,0.00027099,-0.00064092,-0.0008178,-9.817444,0
19663798,0,0.03,0,0.01,3.55,3.55,0,0,232,52,52,0.00023841,0.00023818,0.0003242,-0.00123771,-0.0013473,-9.817448,0
19713778,0,0.03,0,0.01,3.545,3.545,0,0,232,52,52,0.00022991,0.00030285,0.0002671,-0.00094764,-0.000982,-9.818002,0
19763758,0,0.03,0,0.01,3.54,3.54,0,0,232,52,52,0.00029172,0.00024021,0.00029682,-0.00121971,-0.00082048,-9.817892,0
19763758,0,0.03,0,0.01,3.54,3.54,0,0,232,52,52,0.00029345,0.00025718,0.00031378,-0.00119491,-0.00220503,-9.817058,0
19813738,0,0.03,0,0.01,3.535,3.535,0,0,232,52,52,0.00019436,0.00026971,0.00026459,-0.00024891,-0.00086539,-9.817043,0
19863718,0,0.03,0,0.01,3.53,3.53,0,0,232,52,52,0.00023481,0.00024609,0.00035774,-0.00130479,-0.00087375,-9.81723,0
19863718,0,0.03,0,0.01,3.53,3.53,0,0,232,52,52,0.00024892,0.00031424,0.00024107,-0.00075692,-0.00051468,-9.81636,0
19913698,0,0.03,0,0.01,3.525,3.525,0,0,232,52,52,0.00026625,0.00026685,0.00034366,-0.00134734,-0.00009492,-9.817812,0
19963678,0,0.03,0,0.01,3.52,3.52,0,0,232,52,52,0.00024849,0.00031314,0.00024952,-0.00136014,-0.00016305,-9.817183,0
19963678,0,0.03,0,0.01,3.52,3.52,0,0,232,52,52,0.00033696,0.00025104,0.00026503,-0.00108139,-0.00018488,-9.818514,0
20013658,0,0.03,0,0.01,3.515,3.515,0,0,232,52,52,0.00019466,0.0002974,0.00029112,-0.00031659,-0.00066767,-9.817097,0
20063638,0,0.03,0,0.01,3.51,3.51,0,0,232,52,52,0.00031503,0.0002495,0.0002839,-0.00036465,0.00053834,-9.817447,0
20063638,0,0.03,0,0.01,3.51,3.51,0,0,232,52,52,0.0003227,0.00021858,0.00027302,-0.00128433,-0.00046918,-9.816705,0
20113618,0,0.03,0,0.01,3.505,3.505,0,0,232,52,52,0.00036915,0.00028448,0.00029005,-0.00017044,-0.00147659,-9.817778,0
20163598,0,0.03,0,0.01,3.5,3.5,0,0,232,52,52,0.0002023,0.0002552,0.00021264,-0.00035941,-0.00129672,-9.818266,0
20163598,0,0.03,0,0.01,3.5,3.5,0,0,232,52,52,0.00032232,0.00025523,0.0003707,-0.00166758,-0.00127738,-9.816831,0
20213578,0,0.03,0,0.01,3.495,3.495,0,0,232,52,52,0.00021778,0.00024111,0.00033899,-0.0013945,0.0002078,-9.817575,0
20263558,0,0.03,0,0.01,3.49,3.49,0,0,232,52,52,0.00025147,0.00023597,0.00033418,0.0004196,-0.00155735,-9.818403,0
20263558,0,0.03,0,0.01,3.49,3.49,0,0,232,52,52,0.00019647,0.00022351,0.00030892,-0.00056113,-0.00106873,-9.816606,0
20313538,0,0.03,0,0.01,3.485,3.485,0,0,232,52,52,0.00036453,0.00023652,0.00026646,-0.0020091,-0.00015076,-9.81708,0
20363518,0,0.03,0,0.01,3.48,3.48,0,0,232,52,52,0.00037063,0.00030288,0.00030704,-0.00130391,-0.0012776,-9.815634,0
20363518,0,0.03,0,0.01,3.48,3.48,0,0,232,52,52,0.00028583,0.00017814,0.00039333,-0.00089519,-0.00018529,-9.818188,0
20413498,0,0.03,0,0.01,3.475,3.475,0,0,232,52,52,0.00024624,0.00031645,0.00028058,-0.00081273,-0.00145251,-9.817245,0
20463478,0,0.03,0,0.01,3.47,3.47,0,0,232,52,52,0.00031722,0.00031875,0.00032396,-0.00088471,-0.00099114,-9.817692,0
20463478,0,0.03,0,0.01,3.47,3.47,0,0,232,52,52,0.00028038,0.00025549,0.00028278,-0.00135814,-0.00053668,-9.817061,0
20513458,0,0.03,0,0.01,3.46,3.46,0,0,232,52,52,0.00026781,0.00024579,0.00037661,-0.00157943,-0.00147748,-9.817735,0
20563438,0,0.03,0,0.01,3.45,3.45,0,0,232,52,52,0.00021924,0.00025176,0.00026255,-0.00077034,-0.00045963,-9.816778,0
20563438,0,0.03,0,0.01,3.45,3.45,0,0,232,52,52,0.00031734,0.0003212,0.00028074,-0.00210353,-0.00089631,-9.817531,0
20613418,0,0.03,0,0.01,3.445,3.445,0,0,232,52,52,0.00024024,0.00028485,0.00029939,-0.0007862,-0.0006046,-9.816759,0
20663398,0,0.03,0,0.01,3.44,3.44,0,0,232,52,52,0.0003234,0.00026285,0.00033599,-0.0017665,-0.00116676,-9.818499,0
20663398,0,0.03,0,0.01,3.44,3.44,0,0,232,52,52,0.00019636,0.00022924,0.0003052,-0.00186577,-0.00088554,-9.817913,0
20713378,0,0.03,0,0.015,3.435,3.435,0,0,232,52,52,0.00034965,0.00030511,0.00022825,-0.00073072,-0.0010668,-9.81722,0
20763358,0,0.03,0,0.02,3.43,3.43,0,0,232,52,52,0.00026076,0.00030043,0.00025767,-0.00108373,-0.00019523,-9.817473,0
20763358,0,0.03,0,0.02,3.43,3.43,0,0,232,52,52,0.00029606,0.00026642,0.00035838,-0.00171417,-0.00201649,-9.818113,0
20813338,0,0.03,0,0.02,3.425,3.425,0,0,232,52,52,0.00032196,0.00026932,0.00038723,0.00005734,-0.00044806,-9.816965,0
20863318,0,0.03,0,0.02,3.42,3.42,0,0,232,52,52,0.00031889,0.00030726,0.00028721,-0.00062959,-0.00125614,-9.817449,0
20863318,0,0.03,0,0.02,3.42,3.42,0,0,232,52,52,0.0002632,0.00023754,0.00029114,-0.00163558,-0.00042189,-9.817432,0
20913298,0,0.03,0,0.02,3.415,3.415,0,0,232,52,52,0.00037129,0.00026978,0.00029361,-0.00111679,-0.00069385,-9.817387,0
20963278,0,0.03,0,0.02,3.41,3.41,0,0,232,52,52,0.0003344,0.00029244,0.00028913,-0.00048234,-0.00156962,-9.818561,0
20963278,0,0.03,0,0.02,3.41,3.41,0,0,232,52,52,0.00028039,0.00027886,0.00026813,-0.00168947,-0.00086194,-9.817359,0
21013674.5,0,0.03,0,0.02,3.405,3.405,0,0,232,52,52,0.00025431,0.00032091,0.0003277,-0.00006151,-0.00067364,-9.81746,0
21064071,0,0.03,0,0.02,3.4,3.4,0,0,232,52,52,0.00029409,0.00030396,0.00029786,-0.00113614,-0.00077169,-9.816863,0
21064071,0,0.03,0,0.02,3.4,3.4,0,0,232,52,52,0.00027688,0.00033188,0.00029846,-0.00168066,-0.00125866,-9.817688,0
21114051,0,0.03,0,0.02,3.39,3.39,0,0,232,52,52,0.00025913,0.0002832,0.00030957,-0.00169451,-0.0011007,-9.818062,0
21164031,0,0.03,0,0.02,3.38,3.38,0,0,232,52,52,0.00023716,0.00021047,0.00032597,-0.00133815,-0.00007817,-9.81714,0
21164031,0,0.03,0,0.02,3.38,3.38,0,0,232,52,52,0.00033033,0.00023632,0.00029529,-0.00110151,-0.00064587,-9.816723,0
21214011,0,0.03,0,0.02,3.375,3.375,0,0,232,52,52,0.00025758,0.00029794,0.0002512,0.00055049,-0.00055095,-9.81883,0
21263991,0,0.03,0,0.02,3.37,3.37,0,0,232,52,52,0.00024001,0.00026294,0.00031276,-0.00206459,-0.00023522,-9.816768,0
21263991,0,0.03,0,0.02,3.37,3.37,0,0,232,52,52,0.00033596,0.00027897,0.00028468,-0.00019108,-0.00238927,-9.818099,0
21313971,0,0.03,0,0.02,3.365,3.365,0,0,232,52,52,0.00028896,0.00023093,0.00025935,-0.00069135,-0.00134504,-9.817395,0
21363951,0,0.03,0,0.02,3.36,3.36,0,0,232,52,52,0.00020172,0.00028496,0.00035094,-0.00047162,-0.00041856,-9.816694,0
21363951,0,0.03,0,0.02,3.36,3.36,0,0,232,52,52,0.00034779,0.00035816,0.00032313,-0.00207676,-0.00093651,-9.816827,0
21413931,0,0.03,0,0.02,3.355,3.355,0,0,232,52,52,0.00028368,0.00029146,0.00031473,-0.00115966,-0.00064047,-9.817742,0
21463911,0,0.03,0,0.02,3.35,3.35,0,0,232,52,52,0.00028955,0.00027588,0.00032634,-0.00088358,-0.00112582,-9.818466,0
21463911,0,0.03,0,0.02,3.35,3.35,0,0,232,52,52,0.00027357,0.00027355,0.0002921,-0.00082224,-0.00087735,-9.817013,0
21513891,0,0.03,0,0.02,3.345,3.345,0,0,232,52,52,0.00031595,0.00031531,0.00025962,-0.00259401,-0.00097619,-9.816522,0
21563871,0,0.03,0,0.02,3.34,3.34,0,0,232,52,52,0.00023889,0.00030893,0.00023015,-0.00082306,-0.00085168,-9.817091,0
21563871,0,0.03,0,0.02,3.34,3.34,0,0,232,52,52,0.00032049,0.00029987,0.00033136,-0.00143939,-0.00076357,-9.817061,0
21613851,0,0.03,0,0.02,3.33,3.33,0,0,232,52,52,0.00029028,0.00022286,0.00036028,-0.00238194,-0.00093136,-9.81744,0
21663831,0,0.03,0,0.02,3.32,3.32,0,0,232,52,52,0.00032184,0.00032478,0.000289,-0.0003992,-0.00096684,-9.817951,0
21663831,0,0.03,0,0.02,3.32,3.32,0,0,232,52,52,0.00021082,0.0001307,0.00031508,-0.00131818,-0.0003177,-9.817167,0
21713811,0,0.03,0,0.02,3.315,3.315,0,0,232,52,52,0.00031965,0.00025778,0.00030503,-0.00058956,-0.00042727,-9.817762,0
21763791,0,0.03,0,0.02,3.31,3.31,0,0,232,52,52,0.00028605,0.0003746,0.00033579,-0.00076639,0.00019792,-9.817865,0
21763791,0,0.03,0,0.02,3.31,3.31,0,0,232,52,52,0.00033862,0.00029529,0.0003287,-0.00162021,-0.00011885,-9.817999,0
21813771,0,0.03,0,0.02,3.305,3.305,0,0,232,52,52,0.00039871,0.00021336,0.000304,-0.00000826,0.00072733,-9.817367,0
21863751,0,0.03,0,0.02,3.3,3.3,0,0,232,52,52,0.00027075,0.00034453,0.00030589,-0.00057581,-0.00073293,-9.816881,0
21863751,0,0.03,0,0.02,3.3,3.3,0,0,232,52,52,0.0003517,0.000315,0.00035993,0.00018574,-0.00160127,-9.819077,0
21913731,0,0.03,0,0.02,3.295,3.295,0,0,232,52,52,0.00023834,0.00040095,0.00025467,-0.00072767,0.00003932,-9.816328,0
21963711,0,0.03,0,0.02,3.29,3.29,0,0,232,52,52,0.000283,0.00030536,0.00032511,-0.00124889,-0.00031218,-9.817591,0
21963711,0,0.03,0,0.02,3.29,3.29,0,0,232,52,52,0.0003274,0.00023752,0.00028016,0.00030394,-0.00042575,-9.817772,0
22013691,0,0.035,0,0.02,3.285,3.285,0,0,232,52,52,0.00036522,0.00020783,0.00046445,-0.00117334,-0.00096986,-9.816553,0
22063671,0,0.04,0,0.02,3.28,3.28,0,0,232,52,52,0.00028856,0.00036461,0.00031923,-0.00052353,-0.00023658,-9.817421,0
22063671,0,0.04,0,0.02,3.28,3.28,0,0,232,52,52,0.00037221,0.00034324,0.00025919,-0.00007098,-0.00104726,-9.818285,0
22113651,0,0.04,0,0.02,3.27,3.27,0,0,232,52,52,0.00032226,0.00027185,0.0003131,-0.00151389,-0.00121411,-9.816606,0
22163631,0,0.04,0,0.02,3.26,3.26,0,0,232,52,52,0.000272,0.00035392,0.00039536,-0.00073038,-0.00096322,-9.81773,0
22163631,0,0.04,0,0.02,3.26,3.26,0,0,232,52,52,0.00030508,0.00030697,0.00026983,-0.00069073,-0.00074654,-9.816977,0
22213611,0,0.04,0,0.02,3.255,3.255,0,0,232,52,52,0.0003085,0.00031177,0.00031101,-0.00084884,-0.00096641,-9.816963,0
22263591,0,0.04,0,0.02,3.25,3.25,0,0,232,52,52,0.00042335,0.00032674,0.0002966,-0.00133513,-0.00158379,-9.818005,0
22263591,0,0.04,0,0.02,3.25,3.25,0,0,232,52,52,0.00026628,0.0003302,0.00040475,-0.00182162,-0.00241713,-9.81754,0
22313571,0,0.04,0,0.02,3.245,3.245,0,0,232,52,52,0.000327,0.00031697,0.00040415,0.00007633,-0.00184021,-9.817377,0
22363551,0,0.04,0,0.02,3.24,3.24,0,0,232,52,52,0.00038875,0.00030316,0.0002478,-0.00151249,-0.00028086,-9.819011,0
22363551,0,0.04,0,0.02,3.24,3.24,0,0,232,52,52,0.00025571,0.00023588,0.00025769,-0.00099975,-0.00122941,-9.817796,0
22413531,0,0.04,0,0.02,3.235,3.235,0,0,232,52,52,0.00027156,0.00036494,0.00035339,-0.00062956,-0.00177334,-9.81735,0
22463511,0,0.04,0,0.02,3.23,3.23,0,0,232,52,52,0.00037678,0.00031937,0.00039951,-0.00006209,-0.0015972,-9.816872,0
22463511,0,0.04,0,0.02,3.23,3.23,0,0,232,52,52,0.00030155,0.00023653,0.00029404,-0.00113967,-0.00064881,-9.816959,0
22513491,0,0.04,0,0.02,3.22,3.22,0,0,232,52,52,0.00029653,0.00038075,0.00034816,-0.00047814,-0.00178503,-9.81765,0
22563471,0,0.04,0,0.02,3.21,3.21,0,0,232,52,52,0.00030031,0.00029405,0.00033189,-0.00127246,-0.00166475,-9.818172,0
22563471,0,0.04,0,0.02,3.21,3.21,0,0,232,52,52,0.00038614,0.00029465,0.00031404,-0.00051937,-0.00167175,-9.817216,0
22613451,0,0.04,0,0.02,3.205,3.205,0,0,232,52,52,0.00031416,0.00019236,0.00034054,-0.00099522,-0.00023858,-9.818142,0
22663431,0,0.04,0,0.02,3.2,3.2,0,0,232,52,52,0.00038096,0.00023796,0.00033589,-0.00107858,-0.00131911,-9.817709,0
22663431,0,0.04,0,0.02,3.2,3.2,0,0,232,52,52,0.00029673,0.00029929,0.00034088,-0.00078588,-0.00027608,-9.817931,0
22713411,0,0.04,0,0.02,3.195,3.195,0,0,232,52,52,0.00031506,0.00026518,0.00031659,-0.00067521,-0.00049307,-9.817867,0
22763391,0,0.04,0,0.02,3.19,3.19,0,0,232,52,52,0.00040448,0.00033282,0.00030422,-0.0022097,-0.00139954,-9.818092,0
22763391,0,0.04,0,0.02,3.19,3.19,0,0,232,52,52,0.00027658,0.00029987,0.00033378,-0.00106714,-0.00127743,-9.816331,0
22813371,0,0.04,0,0.02,3.185,3.185,0,0,232,52,52,0.00026616,0.00031966,0.00036118,-0.00046016,-0.00057316,-9.816536,0
22863351,0,0.04,0,0.02,3.18,3.18,0,0,232,52,52,0.00032569,0.00036053,0.00032183,-0.00155913,-0.00154611,-9.816607,0
22863351,0,0.04,0,0.02,3.18,3.18,0,0,232,52,52,0.00032795,0.00030906,0.00032749,-0.00063724,-0.00106985,-9.817764,0
22913331,0,0.04,0,0.02,3.17,3.17,0,0,232,52,52,0.00031818,0.00030984,0.00036164,-0.00001068,-0.00132527,-9.817235,0
22963311,0,0.04,0,0.02,3.16,3.16,0,0,232,52,52,0.00039266,0.00035625,0.00043679,-0.00142658,-0.00103563,-9.818044,0
22963311,0,0.04,0,0.02,3.16,3.16,0,0,232,52,52,0.00027835,0.00037486,0.00026248,-0.00115565,-0.00066063,-9.816517,0
23013291,0,0.04,0,0.02,3.155,3.155,0,0,232,52,52,0.00026916,0.00037602,0.00037595,-0.001443,-0.00043029,-9.817786,0
23063271,0,0.04,0,0.02,3.15,3.15,0,0,232,52,52,0.00035316,0.00024818,0.00034249,-0.00089449,-0.00132153,-9.817784,0
23063271,0,0.04,0,0.02,3.15,3.15,0,0,232,52,52,0.0003298,0.00032239,0.00035892,-0.00192239,-0.00169434,-9.817436,0
23113667.5,0,0.04,0,0.02,3.145,3.145,0,0,232,52,52,0.00040249,0.00027316,0.00037808,-0.00085256,-0.00145576,-9.816326,0
23164064,0,0.04,0,0.02,3.14,3.14,0,0,232,52,52,0.00032963,0.00030599,0.00036442,-0.00038628,-0.00088899,-9.817134,0
23164064,0,0.04,0,0.02,3.14,3.14,0,0,232,52,52,0.00035533,0.00023131,0.00033249,-0.00228577,-0.00227999,-9.817161,0
23214044,0,0.04,0,0.02,3.135,3.135,0,0,232,52,52,0.00030471,0.00034163,0.0003599,-0.00110599,-0.00030494,-9.817748,0
23264024,0,0.04,0,0.02,3.13,3.13,0,0,232,52,52,0.00037785,0.00035961,0.00038713,-0.00185244,-0.00173154,-9.817826,0
23264024,0,0.04,0,0.02,3.13,3.13,0,0,232,52,52,0.00035851,0.00026635,0.00029879,-0.00143213,0.00006309,-9.81802,0
23314004,0,0.04,0,0.02,3.125,3.125,0,0,232,52,52,0.00028025,0.00041805,0.00030995,-0.00083653,-0.00119822,-9.818091,0
23363984,0,0.04,0,0.02,3.12,3.12,0,0,232,52,52,0.00034277,0.00021954,0.00030347,-0.00077389,-0.00066285,-9.817535,0
23363984,0,0.04,0,0.02,3.12,3.12,0,0,232,52,52,0.00039377,0.00032095,0.00029535,-0.0007789,-0.00250924,-9.817908,0
23413964,0,0.04,0,0.02,3.115,3.115,0,0,232,52,52,0.00039674,0.00036497,0.00031742,-0.00026632,-0.00077159,-9.817003,0
23463944,0,0.04,0,0.02,3.11,3.11,0,0,232,52,52,0.00038475,0.00027841,0.00032439,-0.00188036,-0.00062363,-9.81795,0
23463944,0,0.04,0,0.02,3.11,3.11,0,0,232,52,52,0.00026443,0.00029776,0.0003211,-0.00186058,-0.00147472,-9.817012,0
23513924,0,0.04,0,0.02,3.1,3.1,0,0,232,52,52,0.00039945,0.00033283,0.00038762,-0.00073868,-0.00072115,-9.816268,0
23563904,0,0.04,0,0.02,3.09,3.09,0,0,232,52,52,0.00031916,0.00028087,0.00033124,-0.0008147,-0.00193587,-9.817953,0
23563904,0,0.04,0,0.02,3.09,3.09,0,0,232,52,52,0.00039877,0.00034572,0.00034244,-0.00162104,-0.00102067,-9.81814,0
23613884,0,0.04,0,0.02,3.085,3.085,0,0,232,52,52,0.00035758,0.00037568,0.00028165,-0.00044506,-0.001412,-9.818159,0
23663864,0,0.04,0,0.02,3.08,3.08,0,0,232,52,52,0.00034068,0.00032911,0.00034208,-0.00170328,0.00010629,-9.817799,0
23663864,0,0.04,0,0.02,3.08,3.08,0,0,232,52,52,0.00027471,0.00033563,0.00034451,-0.00043607,-0.00176838,-9.818019,0
23713844,0,0.04,0,0.02,3.075,3.075,0,0,232,52,52,0.00043308,0.00027231,0.00039687,-0.00162554,-0.00021609,-9.817996,0
23763824,0,0.04,0,0.02,3.07,3.07,0,0,232,52,52,0.00042212,0.00032181,0.00039155,-0.00017715,-0.00119113,-9.817892,0
23763824,0,0.04,0,0.02,3.07,3.07,0,0,232,52,52,0.00035842,0.00036919,0.00039321,-0.00072927,-0.00123286,-9.816714,0
23813804,0,0.04,0,0.02,3.065,3.065,0,0,232,52,52,0.00027519,0.00029299,0.0003749,-0.00050996,-0.00049863,-9.816978,0
23863784,0,0.04,0,0.02,3.06,3.06,0,0,232,52,52,0.00032721,0.00038312,0.00029561,-0.00072989,-0.0007672,-9.817425,0
23863784,0,0.04,0,0.02,3.06,3.06,0,0,232,52,52,0.00031861,0.00030787,0.00033756,-0.00030044,-0.00062035,-9.818155,0
23913764,0,0.04,0,0.02,3.055,3.055,0,0,232,52,52,0.00036043,0.00038639,0.00032071,-0.00174697,-0.00086351,-9.818603,0
23963744,0,0.04,0,0.02,3.05,3.05,0,0,232,52,52,0.00026109,0.00035965,0.00033089,-0.00058003,-0.00088369,-9.816212,0
23963744,0,0.04,0,0.02,3.05,3.05,0,0,232,52,52,0.00035994,0.0002919,0.00032607,-0.0014118,-0.00010685,-9.816714,0
24013724,0,0.04,0,0.02,3.04,3.04,0,0,232,52,52,0.00028526,0.00028285,0.00033212,-0.00081332,0.00011233,-9.817863,0
24063704,0,0.04,0,0.02,3.03,3.03,0,0,232,52,52,0.00030838,0.000322,0.00027471,-0.00203402,-0.00137291,-9.817468,0
24063704,0,0.04,0,0.02,3.03,3.03,0,0,232,52,52,0.00033901,0.00038354,0.00043264,-0.00111103,-0.00061052,-9.817253,0
24113684,0,0.04,0,0.02,3.025,3.025,0,0,232,52,52,0.00037187,0.00033313,0.0003212,-0.00037289,-0.00089641,-9.817082,0
24163664,0,0.04,0,0.02,3.02,3.02,0,0,232,52,52,0.00025944,0.00033597,0.00044566,-0.00181685,-0.00122895,-9.818863,0
24163664,0,0.04,0,0.02,3.02,3.02,0,0,232,52,52,0.00025755,0.00024505,0.00038647,-0.00056519,-0.00098327,-9.817183,0
24213644,0,0.04,0,0.02,3.015,3.015,0,0,232,52,52,0.00033442,0.00029907,0.00038265,-0.00138522,-0.00083722,-9.816398,0
24263624,0,0.04,0,0.02,3.01,3.01,0,0,232,52,52,0.00038943,0.00036923,0.00040407,-0.00041866,0.00000933,-9.817546,0
24263624,0,0.04,0,0.02,3.01,3.01,0,0,232,52,52,0.00041701,0.00036917,0.00034582,-0.00134507,-0.00135609,-9.817875,0
24313604,0,0.04,0,0.025,3.005,3.005,0,0,232,52,52,0.00036349,0.0003542,0.00039778,-0.00185158,-0.00029528,-9.817902,0
24363584,0,0.04,0,0.03,3,3,0,0,232,52,52,0.00033799,0.0002348,0.00038029,-0.00012435,-0.00092232,-9.817287,0
24363584,0,0.04,0,0.03,3,3,0,0,232,52,52,0.00033113,0.00034592,0.00035347,-0.00163974,-0.00049164,-9.818724,0
24413564,0,0.04,0,0.03,2.995,2.995,0,0,232,52,52,0.00035147,0.00037327,0.00039883,-0.00045634,-0.00135826,-9.817665,0
24463544,0,0.04,0,0.03,2.99,2.99,0,0,232,52,52,0.00037988,0.00035574,0.0003641,-0.00137325,0.00018777,-9.81709,0
24463544,0,0.04,0,0.03,2.99,2.99,0,0,232,52,52,0.0003567,0.00035393,0.00036666,-0.00111942,-0.00110457,-9.817704,0
24513524,0,0.04,0,0.03,2.985,2.985,0,0,232,52,52,0.00033556,0.00040481,0.00038799,-0.00127407,-0.00003067,-9.817192,0
24563504,0,0.04,0,0.03,2.98,2.98,0,0,232,52,52,0.00038543,0.00038247,0.00032939,-0.00028952,-0.00022697,-9.81772,0
24563504,0,0.04,0,0.03,2.98,2.98,0,0,232,52,52,0.00034169,0.00033857,0.00036632,-0.0010149,-0.00068263,-9.81763,0
24613484,0,0.04,0,0.03,2.97,2.97,0,0,232,52,52,0.00037306,0.00030803,0.00034992,-0.00048186,-0.00137667,-9.817428,0
24663464,0,0.04,0,0.03,2.96,2.96,0,0,232,52,52,0.00025848,0.00032201,0.0003623,-0.00012596,-0.0011084,-9.818115,0
24663464,0,0.04,0,0.03,2.96,2.96,0,0,232,52,52,0.00033526,0.0003284,0.0003355,-0.00141942,-0.00109532,-9.817787,0
24713444,0,0.04,0,0.03,2.955,2.955,0,0,232,52,52,0.00042385,0.00036861,0.00041758,-0.00139637,-0.00017071,-9.817076,0
24763424,0,0.04,0,0.03,2.95,2.95,0,0,232,52,52,0.00038291,0.00040898,0.00038255,-0.00087943,-0.00006263,-9.818422,0
24763424,0,0.04,0,0.03,2.95,2.95,0,0,232,52,52,0.00032991,0.00037695,0.00039822,-0.00139482,-0.00189827,-9.817316,0
24813404,0,0.04,0,0.03,2.945,2.945,0,0,232,52,52,0.00032157,0.0003888,0.00041686,-0.00050393,-0.00076909,-9.817699,0
24863384,0,0.04,0,0.03,2.94,2.94,0,0,232,52,52,0.00041057,0.00031915,0.0003988,0.00013264,-0.00096006,-9.816517,0
24863384,0,0.04,0,0.03,2.94,2.94,0,0,232,52,52,0.0003542,0.00031025,0.0004233,-0.00133671,-0.00012856,-9.818415,0
24913364,0,0.04,0,0.03,2.935,2.935,0,0,232,52,52,0.00036229,0.00041525,0.00038078,-0.00047961,-0.00148328,-9.817137,0
24963344,0,0.04,0,0.03,2.93,2.93,0,0,232,52,52,0.00036872,0.00032751,0.00035171,-0.00024416,-0.00249227,-9.817698,0
24963344,0,0.04,0,0.03,2.93,2.93,0,0,232,52,52,0.0003586,0.00043791,0.00035186,-0.00114185,-0.00076468,-9.817661,0
25013324,0,0.04,0,0.03,2.925,2.925,0,0,232,52,52,0.00033376,0.00035529,0.00032315,-0.00191522,-0.00073379,-9.818054,0
25063304,0,0.04,0,0.03,2.92,2.92,0,0,232,52,52,0.00041501,0.00031608,0.00037082,-0.00058497,-0.00157372,-9.817867,0
25063304,0,0.04,0,0.03,2.92,2.92,0,0,232,52,52,0.00041263,0.00029812,0.00041132,-0.00138237,-0.00038539,-9.816924,0
25113284,0,0.04,0,0.03,2.915,2.915,0,0,232,52,52,0.00037791,0.00029943,0.00038999,-0.0005112,-0.00045597,-9.817536,0
25163264,0,0.04,0,0.03,2.91,2.91,0,0,232,52,52,0.00028482,0.00036244,0.00045491,-0.00059922,-0.001188,-9.817553,0
25163264,0,0.04,0,0.03,2.91,2.91,0,0,232,52,52,0.00039889,0.0003653,0.00035787,-0.0010768,-0.00187564,-9.815823,0
25213660.5,0,0.04,0,0.03,2.905,2.905,0,0,232,52,52,0.00043338,0.00038713,0.00034319,-0.00118311,-0.00166934,-9.817638,0
25264057,0,0.04,0,0.03,2.9,2.9,0,0,232,52,52,0.00033212,0.00030905,0.00039322,-0.00084653,-0.00185714,-9.817469,0
25264057,0,0.04,0,0.03,2.9,2.9,0,0,232,52,52,0.00034112,0.00040145,0.00040361,0.0000983,-0.0005082,-9.817064,0
25314037,0,0.04,0,0.03,2.89,2.89,0,0,232,52,52,0.00037636,0.00040744,0.0003492,-0.00078665,-0.00057633,-9.817555,0
25364017,0,0.04,0,0.03,2.88,2.88,0,0,232,52,52,0.00031644,0.00035221,0.00042671,-0.00218117,-0.00028076,-9.816908,0
25364017,0,0.04,0,0.03,2.88,2.88,0,0,232,52,52,0.00037039,0.0003815,0.00039214,0.00064099,-0.00007671,-9.817165,0
25413997,0,0.04,0,0.03,2.875,2.875,0,0,232,52,52,0.00034409,0.00034401,0.00042412,-0.00141112,-0.00114221,-9.817272,0
25463977,0,0.04,0,0.03,2.87,2.87,0,0,232,52,52,0.00033571,0.00026564,0.00035612,-0.00181517,-0.00150047,-9.817055,0
25463977,0,0.04,0,0.03,2.87,2.87,0,0,232,52,52,0.00037074,0.00033976,0.00039153,-0.00152864,-0.00142869,-9.817142,0
25513957,0,0.04,0,0.03,2.865,2.865,0,0,232,52,52,0.00037164,0.00036541,0.00043763,-0.00005693,-0.00034922,-9.81673,0
25563937,0,0.04,0,0.03,2.86,2.86,0,0,232,52,52,0.00038379,0.00032741,0.00032562,-0.00128436,-0.00061444,-9.817774,0
25563937,0,0.04,0,0.03,2.86,2.86,0,0,232,52,52,0.0003473,0.00030451,0.0004031,-0.00101913,-0.00249931,-9.816756,0
25613917,0,0.04,0,0.03,2.855,2.855,0,0,232,52,52,0.00042114,0.00023878,0.00039049,-0.0013203,-0.00142614,-9.816462,0
25663897,0,0.04,0,0.03,2.85,2.85,0,0,232,52,52,0.00039955,0.00034089,0.00036582,-0.00099105,-0.00062372,-9.817673,0
25663897,0,0.04,0,0.03,2.85,2.85,0,0,232,52,52,0.00040194,0.00032988,0.0004119,-0.00053412,-0.00109729,-9.818487,0
25713877,0,0.04,0,0.03,2.845,2.845,0,0,232,52,52,0.00044222,0.00043103,0.00039612,-0.00097365,-0.00105518,-9.817317,0
25763857,0,0.04,0,0.03,2.84,2.84,0,0,232,52,52,0.00039765,0.00036133,0.00038353,-0.00097637,-0.00179338,-9.817255,0
25763857,0,0.04,0,0.03,2.84,2.84,0,0,232,52,52,0.00036133,0.00038237,0.00046732,-0.00125082,-0.00123134,-9.817295,0
25813837,0,0.04,0,0.03,2.835,2.835,0,0,232,52,52,0.00031934,0.00030445,0.00040517,0.00030071,-0.00084847,-9.817163,0
25863817,0,0.04,0,0.03,2.83,2.83,0,0,232,52,52,0.00042466,0.00033413,0.00043761,-0.00054117,-0.00059952,-9.81772,0
25863817,0,0.04,0,0.03,2.83,2.83,0,0,232,52,52,0.00041013,0.00039777,0.00035509,-0.00133672,-0.00015369,-9.817584,0
25913797,0,0.045,0,0.03,2.825,2.825,0,0,232,52,52,0.00037449,0.00031896,0.00045396,-0.0008975,-0.00068333,-9.816845,0
25963777,0,0.05,0,0.03,2.82,2.82,0,0,232,52,52,0.00032803,0.00038458,0.00048206,-0.00112864,-0.00174695,-9.817732,0
25963777,0,0.05,0,0.03,2.82,2.82,0,0,232,52,52,0.0003255,0.0002821,0.00034579,-0.00035883,-0.00027715,-9.818513,0
26013757,0,0.05,0,0.03,2.815,2.815,0,0,232,52,52,0.00038066,0.00041773,0.0004605,-0.00055269,-0.00143879,-9.817248,0
26063737,0,0.05,0,0.03,2.81,2.81,0,0,232,52,52,0.00036725,0.00035353,0.00031193,-0.00104736,-0.0006922,-9.816995,0
26063737,0,0.05,0,0.03,2.81,2.81,0,0,232,52,52,0.00038848,0.00036465,0.00043252,-0.00099843,-0.00176652,-9.818433,0
26113717,0,0.05,0,0.03,2.805,2.805,0,0,232,52,52,0.00047305,0.00033393,0.00036618,-0.00100034,-0.00090442,-9.818356,0
26163697,0,0.05,0,0.03,2.8,2.8,0,0,232,52,52,0.00038731,0.00041976,0.00041957,-0.00036371,-0.00148933,-9.816397,0
26163697,0,0.05,0,0.03,2.8,2.8,0,0,232,52,52,0.0003552,0.00036749,0.00044666,-0.0005849,-0.00099577,-9.817315,0
26213677,0,0.05,0,0.03,2.795,2.795,0,0,232,52,52,0.0003696,0.00036491,0.00032667,-0.0015092,-0.00113815,-9.817414,0
26263657,0,0.05,0,0.03,2.79,2.79,0,0,232,52,52,0.00029596,0.00031185,0.00049887,-0.0001993,-0.00083912,-9.817652,0
26263657,0,0.05,0,0.03,2.79,2.79,0,0,232,52,52,0.00035455,0.00038226,0.00049863,-0.00109784,-0.00145821,-9.817063,0
26313637,0,0.05,0,0.03,2.785,2.785,0,0,232,52,52,0.00037088,0.00038328,0.00039627,-0.00080076,-0.00190297,-9.817526,0
26363617,0,0.05,0,0.03,2.78,2.78,0,0,232,52,52,0.00042859,0.00038224,0.00044899,-0.00014475,-0.00093668,-9.81744,0
26363617,0,0.05,0,0.03,2.78,2.78,0,0,232,52,52,0.00035676,0.00037726,0.00032572,-0.00178515,-0.00075794,-9.817534,0
26413597,0,0.05,0,0.03,2.77,2.77,0,0,232,52,52,0.00040471,0.00047247,0.00050883,-0.00145844,-0.00084605,-9.818169,0
26463577,0,0.05,0,0.03,2.76,2.76,0,0,232,52,52,0.0003806,0.0003744,0.0003034,-0.00048517,-0.00023586,-9.817113,0
26463577,0,0.05,0,0.03,2.76,2.76,0,0,232,52,52,0.00035702,0.00032132,0.00041692,-0.00053864,-0.00103882,-9.817566,0
26513557,0,0.05,0,0.03,2.755,2.755,0,0,232,52,52,0.00038837,0.00036096,0.00040261,-0.00057125,-0.00129119,-9.817263,0
26563537,0,0.05,0,0.03,2.75,2.75,0,0,232,52,52,0.00044647,0.0004011,0.00040044,-0.00190501,-0.00044774,-9.817751,0
26563537,0,0.05,0,0.03,2.75,2.75,0,0,232,52,52,0.00040568,0.00040426,0.00044379,-0.00101326,-0.00152143,-9.817997,0
26613517,0,0.05,0,0.03,2.745,2.745,0,0,232,52,52,0.00035055,0.00035689,0.00041672,-0.00194524,-0.00069033,-9.817195,0
26663497,0,0.05,0,0.03,2.74,2.74,0,0,232,52,52,0.00035122,0.00036923,0.00032584,-0.00089163,-0.00104789,-9.818064,0
26663497,0,0.05,0,0.03,2.74,2.74,0,0,232,52,52,0.00042044,0.00039466,0.00036241,-0.00060263,-0.00068201,-9.817356,0
26713477,0,0.05,0,0.03,2.735,2.735,0,0,232,52,52,0.00044428,0.00036567,0.00038479,-0.00125197,-0.00086904,-9.817632,0
26763457,0,0.05,0,0.03,2.73,2.73,0,0,232,52,52,0.00034501,0.00036523,0.00037693,-0.0000489,-0.00088467,-9.817627,0
26763457,0,0.05,0,0.03,2.73,2.73,0,0,232,52,52,0.0003128,0.00038471,0.00039081,-0.00084757,-0.00065463,-9.81843,0
26813437,0,0.05,0,0.03,2.725,2.725,0,0,232,52,52,0.0003539,0.0004109,0.00032907,-0.00101093,-0.00018468,-9.817755,0
26863417,0,0.05,0,0.03,2.72,2.72,0,0,232,52,52,0.0003966,0.00033141,0.00046529,-0.00073701,-0.00085931,-9.816992,0
26863417,0,0.05,0,0.03,2.72,2.72,0,0,232,52,52,0.00035047,0.00035608,0.00036191,-0.00127416,-0.00155437,-9.818052,0
26913397,0,0.05,0,0.03,2.715,2.715,0,0,232,52,52,0.00023452,0.00038287,0.00046281,-0.00188184,-0.00108102,-9.816842,0
26963377,0,0.05,0,0.03,2.71,2.71,0,0,232,52,52,0.00045515,0.0003646,0.00035012,-0.00013666,-0.00067359,-9.817418,0
26963377,0,0.05,0,0.03,2.71,2.71,0,0,232,52,52,0.00050544,0.00042112,0.00033083,-0.00000796,-0.00102399,-9.817015,0
27013357,0,0.05,0,0.03,2.705,2.705,0,0,232,52,52,0.00034188,0.00032426,0.00045124,-0.00067226,-0.00082051,-9.817133,0
27063337,0,0.05,0,0.03,2.7,2.7,0,0,232,52,52,0.00053418,0.00032916,0.00029805,-0.00036622,-0.00100834,-9.816839,0
27063337,0,0.05,0,0.03,2.7,2.7,0,0,232,52,52,0.00043844,0.00034006,0.00037508,-0.00061566,-0.00104764,-9.818129,0
27113317,0,0.05,0,0.03,2.695,2.695,0,0,232,52,52,0.00042671,0.00046852,0.00039509,-0.00054923,-0.00045899,-9.817658,0
27163297,0,0.05,0,0.03,2.69,2.69,0,0,232,52,52,0.00036103,0.00039355,0.00045605,-0.00143538,-0.00051976,-9.817802,0
27163297,0,0.05,0,0.03,2.69,2.69,0,0,232,52,52,0.00036624,0.00043203,0.00040327,-0.00101204,-0.00129365,-9.817682,0
27213693.5,0,0.05,0,0.03,2.685,2.685,0,0,232,52,52,0.0004626,0.00031835,0.00042272,-0.00112315,-0.00061866,-9.817358,0
27264090,0,0.05,0,0.03,2.68,2.68,0,0,232,52,52,0.00035093,0.0004062,0.00034856,0.00014067,-0.00081954,-9.81817,0
27264090,0,0.05,0,0.03,2.68,2.68,0,0,232,52,52,0.00044549,0.00042472,0.00044623,-0.00130554,-0.00119939,-9.817055,0
27314070,0,0.05,0,0.03,2.675,2.675,0,0,232,52,52,0.0004142,0.00036088,0.00041611,-0.00155661,-0.00067055,-9.816701,0
27364050,0,0.05,0,0.03,2.67,2.67,0,0,232,52,52,0.0003717,0.00042043,0.00041404,-0.00083414,-0.0006634,-9.817304,0
27364050,0,0.05,0,0.03,2.67,2.67,0,0,232,52,52,0.00039212,0.00042873,0.00042178,-0.00043881,-0.00154191,-9.81731,0
27414030,0,0.05,0,0.03,2.665,2.665,0,0,232,52,52,0.00038395,0.00040586,0.00045436,-0.0016525,-0.00118768,-9.818126,0
27464010,0,0.05,0,0.03,2.66,2.66,0,0,232,52,52,0.00068149,0.00065237,0.00066779,-0.00145083,-0.00131753,-9.817853,0
27464010,0,0.05,0,0.03,2.66,2.66,0,0,232,52,52,0.00064879,0.00069648,0.00064998,-0.00135276,-0.00233334,-9.817782,0
27513990,0,0.05,0,0.03,2.655,2.655,0,0,232,52,52,0.00065917,0.00059652,0.00062825,-0.00116893,-0.00047459,-9.818283,0
27563970,0,0.05,0,0.03,2.65,2.65,0,0,232,52,52,0.00072542,0.00064888,0.00061613,0.00005816,-0.00077039,-9.817902,0
27563970,0,0.05,0,0.03,2.65,2.65,0,0,232,52,52,0.00062428,0.00062074,0.00066401,-0.00128532,-0.00187578,-9.818913,0
27613950,0,0.05,0,0.03,2.645,2.645,0,0,232,52,52,0.00066019,0.00064177,0.00068684,-0.00020502,-0.00176393,-9.817836,0
27663930,0,0.05,0,0.03,2.64,2.64,0,0,232,52,52,0.00059606,0.00065397,0.00062143,-0.00089125,-0.00168666,-9.816571,0
27663930,0,0.05,0,0.03,2.64,2.64,0,0,232,52,52,0.00060799,0.00060392,0.00072055,-0.0012885,-0.00107332,-9.817823,0
27713910,0,0.05,0,0.03,2.635,2.635,0,0,232,52,52,0.00071175,0.00059725,0.00069733,-0.00050578,-0.0004871,-9.816978,0
27763890,0,0.05,0,0.03,2.63,2.63,0,0,232,52,52,0.00066688,0.00062769,0.00068053,-0.00135257,-0.00028186,-9.81708,0
27763890,0,0.05,0,0.03,2.63,2.63,0,0,232,52,52,0.00060909,0.00059033,0.00062541,-0.00001107,-0.00048504,-9.817284,0
27813870,0,0.05,0,0.03,2.625,2.625,0,0,232,52,52,0.00059435,0.00066561,0.00066795,-0.00151836,-0.00154465,-9.817117,0
27863850,0,0.05,0,0.03,2.62,2.62,0,0,232,52,52,0.00063728,0.00061693,0.00072471,-0.0009369,-0.00125958,-9.818707,0
27863850,0,0.05,0,0.03,2.62,2.62,0,0,232,52,52,0.00062729,0.00062402,0.00071133,-0.00057526,-0.00246272,-9.817736,0
27913830,0,0.05,0,0.03,2.615,2.615,0,0,232,52,52,0.00061321,0.00063012,0.00070113,-0.00156011,-0.00091948,-9.817976,0
27963810,0,0.05,0,0.03,2.61,2.61,0,0,232,52,52,0.00060079,0.00062471,0.00060568,-0.00068205,-0.00023143,-9.817458,0
27963810,0,0.05,0,0.03,2.61,2.61,0,0,232,52,52,0.00060294,0.0006377,0.00075071,-0.00189235,-0.00081251,-9.817759,0
28013790,0,0.05,0,0.03,2.605,2.605,0,0,232,52,52,0.00066384,0.00067544,0.00067811,-0.00184731,-0.00116213,-9.818101,0
28063770,0,0.05,0,0.03,2.6,2.6,0,0,232,52,52,0.00068128,0.00062413,0.00062781,-0.00173092,-0.00063345,-9.816599,0
28063770,0,0.05,0,0.03,2.6,2.6,0,0,232,52,52,0.00067159,0.00060662,0.00067795,0.00056192,-0.00183437,-9.818275,0
28113750,0,0.05,0,0.03,2.595,2.595,0,0,232,52,52,0.00060749,0.00067709,0.00060649,-0.00042584,-0.00117804,-9.817418,0
28163730,0,0.05,0,0.03,2.59,2.59,0,0,232,52,52,0.00063731,0.00059721,0.00060421,-0.00152003,-0.0000068,-9.817728,0
28163730,0,0.05,0,0.03,2.59,2.59,0,0,232,52,52,0.00065304,0.00068492,0.00064437,-0.00083601,-0.00117666,-9.817812,0
28213710,0,0.05,0,0.035,2.585,2.585,0,0,232,52,52,0.00065641,0.00069865,0.00061072,-0.00098375,-0.00209253,-9.817067,0
28263690,0,0.05,0,0.04,2.58,2.58,0,0,232,52,52,0.00068247,0.00059361,0.00069732,-0.00106729,-0.00214789,-9.817834,0
28263690,0,0.05,0,0.04,2.58,2.58,0,0,232,52,52,0.00060988,0.0005747,0.00063144,-0.00051382,-0.00154002,-9.817616,0
28313670,0,0.05,0,0.04,2.575,2.575,0,0,232,52,52,0.0007333,0.00062721,0.00071147,-0.00027459,-0.0006622,-9.816476,0
28363650,0,0.05,0,0.04,2.57,2.57,0,0,232,52,52,0.00062853,0.0005962,0.00067288,-0.00145961,-0.00006228,-9.818704,0
28363650,0,0.05,0,0.04,2.57,2.57,0,0,232,52,52,0.00066968,0.00058154,0.00069945,-0.00139805,-0.00154341,-9.816975,0
28413630,0,0.05,0,0.04,2.57,2.57,0,0,232,52,52,0.00064749,0.00068489,0.00071346,-0.00167068,-0.0021961,-9.817683,0
28463610,0,0.05,0,0.04,2.57,2.57,0,0,232,52,52,0.0007013,0.00061203,0.00076602,-0.00087773,-0.00145265,-9.817211,0
28463610,0,0.05,0,0.04,2.57,2.57,0,0,232,52,52,0.00055012,0.00062477,0.0006997,-0.00140138,-0.00078532,-9.817881,0
28513590,0,0.05,0,0.04,2.565,2.565,0,0,232,52,52,0.0006765,0.00059956,0.00067993,-0.00100174,-0.00060523,-9.817738,0
28563570,0,0.05,0,0.04,2.56,2.56,0,0,232,52,52,0.00065704,0.00059213,0.00061567,-0.00102292,-0.00204937,-9.817722,0
28563570,0,0.05,0,0.04,2.56,2.56,0,0,232,52,52,0.00064278,0.00058415,0.0006984,-0.00140137,0.00022848,-9.818641,0
28613550,0,0.05,0,0.04,2.555,2.555,0,0,232,52,52,0.00064872,0.00062918,0.00066191,-0.00032632,-0.00042925,-9.817401,0
28663530,0,0.05,0,0.04,2.55,2.55,0,0,232,52,52,0.0007191,0.00053812,0.00070009,-0.00126578,-0.0011618,-9.817199,0
28663530,0,0.05,0,0.04,2.55,2.55,0,0,232,52,52,0.00065294,0.00067615,0.00067538,-0.00069683,-0.00120606,-9.816704,0
28713510,0,0.05,0,0.04,2.545,2.545,0,0,232,52,52,0.00078411,0.00055837,0.00074052,-0.00053103,-0.00140045,-9.817319,0
28763490,0,0.05,0,0.04,2.54,2.54,0,0,232,52,52,0.00072296,0.00069189,0.00069635,-0.0013437,-0.00043507,-9.81738,0
28763490,0,0.05,0,0.04,2.54,2.54,0,0,232,52,52,0.00064855,0.00066997,0.00074148,-0.00065554,-0.00116785,-9.817339,0
28813470,0,0.05,0,0.04,2.535,2.535,0,0,232,52,52,0.00062637,0.00063241,0.00065498,-0.00065649,0.00059494,-9.81759,0
28863450,0,0.05,0,0.04,2.53,2.53,0,0,232,52,52,0.00062948,0.00061557,0.00064471,-0.00157584,-0.00158073,-9.817746,0
28863450,0,0.05,0,0.04,2.53,2.53,0,0,232,52,52,0.00065198,0.00069927,0.00066403,-0.0016249,-0.00052873,-9.817689,0
28913430,0,0.05,0,0.04,2.525,2.525,0,0,232,52,52,0.00064153,0.00065133,0.00061196,-0.00047132,-0.00006427,-9.81728,0
28963410,0,0.05,0,0.04,2.52,2.52,0,0,232,52,52,0.00068467,0.00064323,0.00063736,0.00027488,-0.00099243,-9.817719,0
28963410,0,0.05,0,0.04,2.52,2.52,0,0,232,52,52,0.000567,0.00069377,0.00067983,-0.00193668,-0.00117069,-9.817284,0
29013390,0,0.05,0,0.04,2.515,2.515,0,0,232,52,52,0.00069824,0.00059884,0.00070228,-0.00016688,-0.00108714,-9.816957,0
29063370,0,0.05,0,0.04,2.51,2.51,0,0,232,52,52,0.00061146,0.00073117,0.00063832,-0.00147118,-0.00047301,-9.817352,0
29063370,0,0.05,0,0.04,2.51,2.51,0,0,232,52,52,0.00069732,0.00064909,0.00072659,-0.00119209,-0.00159962,-9.817081,0
29113350,0,0.05,0,0.04,2.505,2.505,0,0,232,52,52,0.00068436,0.00070311,0.00062971,-0.00042111,-0.00045722,-9.817383,0
29163330,0,0.05,0,0.04,2.5,2.5,0,0,232,52,52,0.00068555,0.00064449,0.00066468,-0.00137323,-0.00180088,-9.818556,0
29163330,0,0.05,0,0.04,2.5,2.5,0,0,232,52,52,0.00065708,0.00062071,0.00071142,-0.00069823,-0.00130248,-9.817383,0
29213310,0,0.05,0,0.04,2.495,2.495,0,0,232,52,52,0.0006184,0.00059178,0.00073334,-0.00075905,0.00012912,-9.818194,0
29263290,0,0.05,0,0.04,2.49,2.49,0,0,232,52,52,0.00065427,0.0007079,0.00074725,-0.00161336,-0.00074979,-9.817075,0
29263290,0,0.05,0,0.04,2.49,2.49,0,0,232,52,52,0.00067953,0.00063853,0.00068367,-0.0014715,-0.00128007,-9.816498,0
29313686.5,0,0.05,0,0.04,2.485,2.485,0,0,232,52,52,0.00067037,0.00067025,0.00069254,-0.00126085,-0.00099625,-9.817632,0
29364083,0,0.05,0,0.04,2.48,2.48,0,0,232,52,52,0.00065131,0.00062773,0.00078406,-0.00074398,-0.00129402,-9.817511,0
29364083,0,0.05,0,0.04,2.48,2.48,0,0,232,52,52,0.00075242,0.00063636,0.00071407,-0.00117013,-0.00092061,-9.818045,0
29414063,0,0.05,0,0.04,2.475,2.475,0,0,232,52,52,0.000625,0.00070639,0.00068149,0.00008006,0.00024522,-9.818424,0
29464043,0,0.05,0,0.04,2.47,2.47,0,0,232,52,52,0.0006901,0.00067073,0.0006277,-0.00180493,-0.00126527,-9.818963,0
29464043,0,0.05,0,0.04,2.47,2.47,0,0,232,52,52,0.00070511,0.000664,0.00068854,-0.00172524,-0.00060526,-9.81795,0
29514023,0,0.05,0,0.04,2.465,2.465,0,0,232,52,52,0.00071047,0.0007098,0.00070553,-0.00118348,-0.00008955,-9.818161,0
29564003,0,0.05,0,0.04,2.46,2.46,0,0,232,52,52,0.00068671,0.00068768,0.0007046,-0.00064576,-0.00095846,-9.817856,0
29564003,0,0.05,0,0.04,2.46,2.46,0,0,232,52,52,0.00067802,0.00064486,0.00066612,-0.00206676,-0.00030749,-9.816255,0
29613983,0,0.05,0,0.04,2.46,2.46,0,0,232,52,52,0.00065863,0.00066589,0.00061938,-0.00114779,-0.00209786,-9.818064,0
29663963,0,0.05,0,0.04,2.46,2.46,0,0,232,52,52,0.00075399,0.00068168,0.00065537,-0.00126464,-0.0004242,-9.817575,0
29663963,0,0.05,0,0.04,2.46,2.46,0,0,232,52,52,0.00069945,0.00070496,0.00066387,-0.00103523,0.00011416,-9.817429,0
37813618.5,0,0.065,0,0.055,1.98,1.98,0,0,232,52,52,0.00071736,0.00064587,0.00067701,-0.0015405,-0.00115224,-9.817561,0
45963274,0,0.08,0,0.07,1.5,1.5,0,0,232,52,52,0.00066448,0.00064237,0.00069922,-0.00056348,-0.00036938,-9.817213,0
45963274,0,0.08,0,0.07,1.5,1.5,0,0,232,52,52,0.00066762,0.00072086,0.00069964,0.00085077,-0.00112824,-9.816375,0
46013670.5,0,0.08,0,0.07,1.5,1.5,0,0,232,52,52,0.00061842,0.00068556,0.00068161,-0.00104639,-0.00220588,-9.817028,0
46064067,0,0.08,0,0.07,1.5,1.5,0,0,232,52,52,0.00066954,0.00065326,0.00062006,-0.00036847,-0.00154533,-9.819319,0
46064067,0,0.08,0,0.07,1.5,1.5,0,0,232,52,52,0.00072261,0.00067415,0.00073079,-0.00055567,-0.00087992,-9.817492,0
46114047,0,0.08,0,0.065,1.495,1.495,0,0,232,52,52,0.00067323,0.00065193,0.00070345,-0.0026038,-0.00140067,-9.817977,0
46164027,0,0.08,0,0.06,1.49,1.49,0,0,232,52,52,0.00069196,0.00070437,0.00074713,-0.00068366,-0.00056975,-9.817463,0
46164027,0,0.08,0,0.06,1.49,1.49,0,0,232,52,52,0.0007169,0.00068805,0.00065899,-0.00197772,-0.00149965,-9.817525,0
46214007,0,0.075,0,0.06,1.49,1.49,0,0,232,52,52,0.00073389,0.00062146,0.00071393,-0.0033264,-0.00213363,-9.816702,0
46263987,0,0.07,0,0.06,1.49,1.49,0,0,232,52,52,0.00070821,0.00067874,0.00077303,0.00337192,-0.00084255,-9.816902,0
46263987,0,0.07,0,0.06,1.49,1.49,0,0,232,52,52,0.00070017,0.00066763,0.00069465,-0.0084888,-0.00070112,-9.817107,0
46313967,0,0.07,0,0.06,1.49,1.49,0,0,232,52,52,0.00072475,0.00065259,0.00071772,0.00459153,-0.00156072,-9.816339,0
46363947,0,0.07,0,0.06,1.49,1.49,0,0,232,52,52,0.0006874,0.0006611,0.00066419,-0.00283331,-0.00044043,-9.818266,0
46363947,0,0.07,0,0.06,1.49,1.49,0,0,232,52,52,0.00069461,0.00071276,0.00067234,-0.00161339,0.00856447,-9.817904,0
46413927,0,0.07,0,0.06,1.485,1.485,0,0,232,52,52,0.00064607,0.00063605,0.00067306,-0.00763477,-0.00435513,-9.817578,0
46463907,0,0.07,0,0.06,1.48,1.48,0,0,232,52,52,0.00072805,0.00070382,0.00067834,-0.00358131,0.00337366,-9.817616,0
46463907,0,0.07,0,0.06,1.48,1.48,0,0,232,52,52,0.00070119,0.00073813,0.00073267,0.00010148,-0.0025791,-9.817409,0
46513887,0,0.07,0,0.06,1.48,1.48,0,0,232,52,52,0.00070423,0.00065111,0.00072711,-0.00078527,0.00198205,-9.817697,0
46563867,0,0.07,0,0.06,1.48,1.48,0,0,232,52,52,0.00066376,0.00067088,0.0006908,0.00364466,0.00503117,-9.818529,0
46563867,0,0.07,0,0.06,1.48,1.48,0,0,232,52,52,0.00073194,0.00066442,0.00070761,-0.00299169,-0.00687377,-9.818317,0
46613847,0,0.07,0,0.06,1.48,1.48,0,0,232,52,52,0.0006326,0.00069029,0.00067379,-0.00090314,-0.01069577,-9.817384,0
46663827,0,0.07,0,0.06,1.48,1.48,0,0,232,52,52,0.00065978,0.00065471,0.00072177,-0.00283872,-0.00727724,-9.817119,0
46663827,0,0.07,0,0.06,1.48,1.48,0,0,232,52,52,0.00073784,0.00068638,0.00068481,0.01370593,-0.03070912,-9.817939,0
46713807,0,0.07,0,0.06,1.475,1.475,0,0,232,52,52,0.00075706,0.00072555,0.00067501,-0.01073289,0.00959274,-9.817615,0
46763787,0,0.07,0,0.06,1.47,1.47,0,0,232,52,52,0.00070498,0.00066492,0.00074045,0.00808022,-0.0191019,-9.817093,0
46763787,0,0.07,0,0.06,1.47,1.47,0,0,232,52,52,0.00067014,0.00065942,0.00073508,0.00488645,-0.00150513,-9.816971,0
46813767,0,0.07,0,0.06,1.47,1.47,0,0,232,52,52,0.00063166,0.00066024,0.00073734,-0.00242267,-0.00327397,-9.817237,0
46863747,0,0.07,0,0.06,1.47,1.47,0,0,232,52,52,0.00071005,0.00070422,0.00071591,-0.01577276,-0.00734024,-9.8181,0
46863747,0,0.07,0,0.06,1.47,1.47,0,0,232,52,52,0.00068479,0.00067693,0.00071069,-0.00847744,-0.01404293,-9.818129,0
46913727,0,0.07,0,0.06,1.47,1.47,0,0,232,52,52,0.0007316,0.00070464,0.00070762,-0.04539987,0.05593834,-9.945902,0
46963707,0,0.07,0,0.06,1.47,1.47,0,0,232,52,52,0.00069024,0.00074604,0.00072008,0.0279655,0.04553224,-10.47043,0
46963707,0,0.07,0,0.06,1.47,1.47,0,0,232,52,52,0.00065532,0.00071433,0.00072031,-0.03545183,-0.03221355,-10.74639,0
47013687,0,0.07,0,0.06,1.465,1.465,0,0,232,52,52,0.00068448,0.00069192,0.00072469,0.01146525,0.00569344,-10.81023,0
47063667,0,0.07,0,0.06,1.46,1.46,0,0,232,52,52,0.00070734,0.00071066,0.0007269,0.00470972,-0.01485059,-10.79605,0
47063667,0,0.07,0,0.06,1.46,1.46,0,0,232,52,52,0.00071774,0.00069527,0.00068964,0.0411264,-0.00067536,-10.82285,0
47113647,0,0.07,0,0.06,1.46,1.46,0,0,232,52,52,0.00062105,0.00069319,0.00065879,-0.04277889,0.01461675,-10.74358,0
47163627,0,0.07,0,0.06,1.46,1.46,0,0,232,52,52,0.00068762,0.00068126,0.00075221,0.00524901,0.00734718,-10.79815,0
47163627,0,0.07,0,0.06,1.46,1.46,0,0,232,52,52,0.0007247,0.00072515,0.00071016,-0.00193812,0.03284192,-10.68412,0
47213607,0,0.07,0,0.06,1.46,1.46,0,0,232,52,52,0.00068184,0.00073973,0.00071149,-0.00300386,-0.06992377,-10.65147,0
47263587,0,0.07,0,0.06,1.46,1.46,0,0,232,52,52,0.00072208,0.00074079,0.00067914,-0.00493675,-0.08909275,-10.64313,0
47263587,0,0.07,0,0.06,1.46,1.46,0,0,232,52,52,0.0007098,0.00078104,0.0006941,-0.00690993,-0.00046795,-10.62778,0
47313567,0,0.07,0,0.06,1.455,1.455,0,0,232,52,52,0.00073122,0.00067484,0.00065856,0.03348828,0.02606502,-10.60563,0
47363547,0,0.07,0,0.06,1.45,1.45,0,0,232,52,52,0.00107587,-0.01460227,0.00078698,-0.02663038,0.04982536,-11.13249,0
47363547,0,0.07,0,0.06,1.45,1.45,0,0,232,52,52,-0.05353104,-0.02244629,0.00116915,-0.01090104,-0.02198186,-14.56577,0
47413527,0,0.075,0,0.06,1.45,1.45,0,0,232,52,52,-0.03113139,-0.07933079,0.00151106,0.00790087,0.06493185,-15.27131,0
47463507,0,0.08,0,0.06,1.45,1.45,0,0,232,52,52,0.04660128,0.03274492,0.00190172,0.02582536,-0.02522629,-14.54529,0
47463507,0,0.08,0,0.06,1.45,1.45,0,0,232,52,52,-0.1697365,0.07027812,0.00222419,-0.0337796,-0.01073064,-13.42483,0
47513487,0,0.08,0,0.065,1.45,1.45,0,0,232,52,52,0.00516484,-0.3195052,0.00253863,-0.0097812,-0.00419689,-12.2211,0
47563467,0,0.08,0,0.07,1.45,1.45,0,0,232,52,52,0.5177282,0.3090006,0.00243647,0.00084274,0.0359681,-11.11298,0
47563467,0,0.08,0,0.07,1.45,1.45,0,0,232,52,52,-0.9680042,0.5720477,0.00614764,0.01831449,-0.02268174,-10.22131,0
47613447,0,0.08,0,0.07,1.445,1.445,0,0,232,52,52,0.2284294,-2.075926,0.00706995,0.0146649,0.01743777,-10.12899,0
47663427,0,0.08,0,0.07,1.44,1.44,0,0,232,52,52,0.8867552,1.97052,0.00057207,-0.05390512,0.02432876,-9.521157,0
47663427,0,0.08,0,0.07,1.44,1.44,0,0,232,52,52,-2.095258,-0.9614507,0.00026889,-0.00617167,-0.00278759,-9.305096,0
47713407,0,0.08,0,0.07,1.44,1.44,0,0,232,52,52,2.370247,-0.404419,0.01011646,0.00159948,-0.00231776,-9.262297,0
47763387,0,0.08,0,0.07,1.44,1.44,0,0,232,52,52,-1.525356,1.942246,0.01493851,-0.03069155,0.00365767,-9.219107,0
47763387,0,0.08,0,0.07,1.44,1.44,0,0,232,52,52,0.2319985,-2.428254,0.01042837,0.04632583,0.04948473,-9.365125,0
47813367,0,0.08,0,0.07,1.44,1.44,0,0,232,52,52,1.403051,2.098507,0.000129,0.0095287,-0.01071618,-9.446794,0
47863347,0,0.08,0,0.07,1.44,1.44,0,0,232,52,52,-2.314526,-0.8134087,0.00857204,0.03573447,-0.05485203,-9.5946,0
47863347,0,0.08,0,0.07,1.44,1.44,0,0,232,52,52,2.383335,-0.8418388,0.02387124,-0.04812285,0.02438669,-9.758762,0
47913327,0,0.08,0,0.07,1.435,1.435,0,0,232,52,52,-1.200617,2.100717,0.02745353,-0.00609973,-0.02251285,-9.845612,0
47963307,0,0.08,0,0.07,1.43,1.43,0,0,232,52,52,-0.2146377,-2.432983,0.01617481,-0.00251374,0.06828968,-9.944551,0
47963307,0,0.08,0,0.07,1.43,1.43,0,0,232,52,52,1.787033,1.726504,0.01466483,-0.03795003,0.03888248,-10.02997,0
48013287,0,0.08,0,0.07,1.43,1.43,0,0,232,52,52,-2.452116,-0.2526018,0.02666217,-0.01782712,-0.03790702,-10.0213,0
48063267,0,0.08,0,0.07,1.43,1.43,0,0,232,52,52,1.992522,-1.280141,0.04070395,0.01840209,0.01966937,-10.05219,0
48063267,0,0.08,0,0.07,1.43,1.43,0,0,232,52,52,-0.864791,2.33279,0.03714821,0.00167581,-0.05101144,-10.03411,0
48113663.5,0,0.08,0,0.07,1.43,1.43,0,0,232,52,52,-0.8543659,-2.27669,0.0279538,0.0438172,0.04120038,-10.06725,0
48164060,0,0.08,0,0.07,1.43,1.43,0,0,232,52,52,2.061181,1.267723,0.03016866,-0.04057328,0.05189488,-10.02809,0
48164060,0,0.08,0,0.07,1.43,1.43,0,0,232,52,52,-2.60178,0.158341,0.04591673,-0.00007435,-0.0121011,-10.03454,0
48214040,0,0.085,0,0.075,1.425,1.425,0,0,232,52,52,1.939861,-1.561367,0.05357657,-0.00032842,0.04831904,-10.01027,0
48264020,0,0.09,0,0.08,1.42,1.42,0,0,232,52,52,-0.7094989,2.430914,0.0542668,-0.0708455,0.04518883,-10.07701,0
48264020,0,0.09,0,0.08,1.42,1.42,0,0,232,52,52,-0.6847517,-2.395242,0.04424672,0.00702122,0.01639853,-10.07817,0
48314000,0,0.09,0,0.08,1.42,1.42,0,0,232,52,52,2.030685,1.546195,0.04484735,-0.00186324,0.00694735,-10.12085,0
48363980,0,0.09,0,0.08,1.42,1.42,0,0,232,52,52,-2.507311,-0.1792242,0.05599356,-0.00389949,0.04917811,-10.12253,0
48363980,0,0.09,0,0.08,1.42,1.42,0,0,232,52,52,2.244665,-1.284859,0.06728628,-0.01169894,-0.00876875,-10.11643,0
48413960,0,0.09,0,0.08,1.42,1.42,0,0,232,52,52,-1.041655,2.367401,0.06536506,0.02684425,-0.01274935,-10.05319,0
48463940,0,0.09,0,0.08,1.42,1.42,0,0,232,52,52,-0.4264493,-2.52825,0.05846011,0.04279684,-0.00417778,-10.17059,0
48463940,0,0.09,0,0.08,1.42,1.42,0,0,232,52,52,1.77871,1.816996,0.05294521,-0.01535586,0.04209346,-10.18799,0
48513920,0.005,0.09,0.005,0.08,1.42,1.415,0,0,232,52,52,-2.540839,-0.4769072,0.0608497,0.03574748,0.01483172,-10.22317,0
48563900,0.01,0.09,0.01,0.08,1.42,1.41,0,0,232,52,52,2.263306,-1.08113,0.07072037,-0.03227584,0.02918326,-10.20291,0
48563900,0.01,0.09,0.01,0.08,1.42,1.41,0,0,232,52,52,-1.205839,2.281164,0.07019612,-0.02430307,0.01050294,-10.2465,0
48613880,0.015,0.09,0.015,0.08,1.42,1.41,0,0,232,52,52,-0.42875,-2.518016,0.05924018,0.01824139,0.0550388,-10.21266,0
48663860,0.02,0.09,0.02,0.08,1.42,1.41,0,0,232,52,52,1.822654,1.771033,0.05278874,0.00761109,0.00305408,-10.2849,0
48663860,0.02,0.09,0.02,0.08,1.42,1.41,0,0,232,52,52,-2.540357,-0.3593312,0.06268033,0.0288959,0.03918314,-10.29536,0
48713840,0.02,0.09,0.02,0.08,1.42,1.41,0,0,232,52,52,2.274255,-1.244858,0.06905544,-0.02084663,0.03267426,-10.30378,0
48763820,0.02,0.09,0.02,0.08,1.42,1.41,0,0,232,52,52,-1.048218,2.389196,0.06554863,0.0023872,0.01773476,-10.25344,0
48763820,0.02,0.09,0.02,0.08,1.42,1.41,0,0,232,52,52,-0.5400962,-2.539032,0.056366,0.02828409,-0.02171231,-10.30357,0
48813800,0.02,0.095,0.02,0.08,1.42,1.405,0,0,232,52,52,1.933688,1.678838,0.0480638,-0.04399028,-0.00710807,-10.35127,0
48863780,0.02,0.1,0.02,0.08,1.42,1.4,0,0,232,52,52,-2.591278,-0.2900969,0.05899986,-0.03906173,-0.0414507,-10.33985,0
